header: 
  seq: 1777720
  stamp: 
    secs: 1722858933
    nsecs: 862285474
  frame_id: ''
magnetic_x: -9971.3037109375
magnetic_y: 5167.34375
magnetic_z: 16006.033203125
---
header: 
  seq: 1777721
  stamp: 
    secs: 1722858933
    nsecs: 868285474
  frame_id: ''
magnetic_x: -9964.6396484375
magnetic_y: 5166.95166015625
magnetic_z: 16021.8330078125
---
header: 
  seq: 1777722
  stamp: 
    secs: 1722858933
    nsecs: 874285474
  frame_id: ''
magnetic_x: -9963.4638671875
magnetic_y: 5161.4638671875
magnetic_z: 16019.3046875
---
header: 
  seq: 1777723
  stamp: 
    secs: 1722858933
    nsecs: 880285474
  frame_id: ''
magnetic_x: -9957.9755859375
magnetic_y: 5163.03173828125
magnetic_z: 16020.568359375
---
header: 
  seq: 1777724
  stamp: 
    secs: 1722858933
    nsecs: 886285474
  frame_id: ''
magnetic_x: -9963.0712890625
magnetic_y: 5160.2880859375
magnetic_z: 16009.8251953125
---
header: 
  seq: 1777725
  stamp: 
    secs: 1722858933
    nsecs: 892285474
  frame_id: ''
magnetic_x: -9965.8154296875
magnetic_y: 5171.263671875
magnetic_z: 16019.9365234375
---
header: 
  seq: 1777726
  stamp: 
    secs: 1722858933
    nsecs: 898285474
  frame_id: ''
magnetic_x: -9957.9755859375
magnetic_y: 5161.4638671875
magnetic_z: 16019.3046875
---
header: 
  seq: 1777727
  stamp: 
    secs: 1722858933
    nsecs: 905285474
  frame_id: ''
magnetic_x: -9961.8955078125
magnetic_y: 5164.2080078125
magnetic_z: 16026.888671875
---
header: 
  seq: 1777728
  stamp: 
    secs: 1722858933
    nsecs: 911285474
  frame_id: ''
magnetic_x: -9962.6796875
magnetic_y: 5169.69580078125
magnetic_z: 16028.78515625
---
header: 
  seq: 1777729
  stamp: 
    secs: 1722858933
    nsecs: 917285474
  frame_id: ''
magnetic_x: -9963.0712890625
magnetic_y: 5160.2880859375
magnetic_z: 16021.8330078125
---
header: 
  seq: 1777730
  stamp: 
    secs: 1722858933
    nsecs: 923285474
  frame_id: ''
magnetic_x: -9961.111328125
magnetic_y: 5167.34375
magnetic_z: 16028.15234375
---
header: 
  seq: 1777731
  stamp: 
    secs: 1722858933
    nsecs: 929285474
  frame_id: ''
magnetic_x: -9963.0712890625
magnetic_y: 5161.85595703125
magnetic_z: 16027.5205078125
---
header: 
  seq: 1777732
  stamp: 
    secs: 1722858933
    nsecs: 935285474
  frame_id: ''
magnetic_x: -9961.50390625
magnetic_y: 5165.77587890625
magnetic_z: 16030.6806640625
---
header: 
  seq: 1777733
  stamp: 
    secs: 1722858933
    nsecs: 941285474
  frame_id: ''
magnetic_x: -9963.0712890625
magnetic_y: 5160.2880859375
magnetic_z: 16019.9365234375
---
header: 
  seq: 1777734
  stamp: 
    secs: 1722858933
    nsecs: 948285474
  frame_id: ''
magnetic_x: -9969.34375
magnetic_y: 5168.52001953125
magnetic_z: 16034.47265625
---
header: 
  seq: 1777735
  stamp: 
    secs: 1722858933
    nsecs: 954285474
  frame_id: ''
magnetic_x: -9969.34375
magnetic_y: 5164.99169921875
magnetic_z: 16020.568359375
---
header: 
  seq: 1777736
  stamp: 
    secs: 1722858933
    nsecs: 960285474
  frame_id: ''
magnetic_x: -9957.9755859375
magnetic_y: 5160.2880859375
magnetic_z: 16005.400390625
---
header: 
  seq: 1777737
  stamp: 
    secs: 1722858933
    nsecs: 966285474
  frame_id: ''
magnetic_x: -9958.759765625
magnetic_y: 5155.97607421875
magnetic_z: 16016.14453125
---
header: 
  seq: 1777738
  stamp: 
    secs: 1722858933
    nsecs: 972285474
  frame_id: ''
magnetic_x: -9965.423828125
magnetic_y: 5163.81591796875
magnetic_z: 16014.880859375
---
header: 
  seq: 1777739
  stamp: 
    secs: 1722858933
    nsecs: 978285474
  frame_id: ''
magnetic_x: -9963.4638671875
magnetic_y: 5151.6640625
magnetic_z: 16015.5126953125
---
header: 
  seq: 1777740
  stamp: 
    secs: 1722858933
    nsecs: 984285474
  frame_id: ''
magnetic_x: -9960.7197265625
magnetic_y: 5157.5439453125
magnetic_z: 16012.984375
---
header: 
  seq: 1777741
  stamp: 
    secs: 1722858933
    nsecs: 991285474
  frame_id: ''
magnetic_x: -9962.6796875
magnetic_y: 5154.40771484375
magnetic_z: 16002.873046875
---
header: 
  seq: 1777742
  stamp: 
    secs: 1722858933
    nsecs: 997285474
  frame_id: ''
magnetic_x: -9963.4638671875
magnetic_y: 5165.77587890625
magnetic_z: 16031.3125
---
header: 
  seq: 1777743
  stamp: 
    secs: 1722858934
    nsecs:   3285474
  frame_id: ''
magnetic_x: -9964.6396484375
magnetic_y: 5169.3037109375
magnetic_z: 16014.2490234375
---
header: 
  seq: 1777744
  stamp: 
    secs: 1722858934
    nsecs:   9285474
  frame_id: ''
magnetic_x: -9960.328125
magnetic_y: 5155.97607421875
magnetic_z: 16027.5205078125
---
header: 
  seq: 1777745
  stamp: 
    secs: 1722858934
    nsecs:  15285474
  frame_id: ''
magnetic_x: -9952.095703125
magnetic_y: 5158.7197265625
magnetic_z: 16029.4169921875
---
header: 
  seq: 1777746
  stamp: 
    secs: 1722858934
    nsecs:  21285474
  frame_id: ''
magnetic_x: -9967.3837890625
magnetic_y: 5167.34375
magnetic_z: 16018.6728515625
---
header: 
  seq: 1777747
  stamp: 
    secs: 1722858934
    nsecs:  27285474
  frame_id: ''
magnetic_x: -9958.3681640625
magnetic_y: 5168.52001953125
magnetic_z: 16014.2490234375
---
header: 
  seq: 1777748
  stamp: 
    secs: 1722858934
    nsecs:  34285474
  frame_id: ''
magnetic_x: -9966.2080078125
magnetic_y: 5160.2880859375
magnetic_z: 16023.728515625
---
header: 
  seq: 1777749
  stamp: 
    secs: 1722858934
    nsecs:  40285474
  frame_id: ''
magnetic_x: -9955.2314453125
magnetic_y: 5173.61572265625
magnetic_z: 16017.4091796875
---
header: 
  seq: 1777750
  stamp: 
    secs: 1722858934
    nsecs:  46285474
  frame_id: ''
magnetic_x: -9976.3994140625
magnetic_y: 5166.56005859375
magnetic_z: 16008.560546875
---
header: 
  seq: 1777751
  stamp: 
    secs: 1722858934
    nsecs:  52285474
  frame_id: ''
magnetic_x: -9961.8955078125
magnetic_y: 5168.91162109375
magnetic_z: 16018.6728515625
---
header: 
  seq: 1777752
  stamp: 
    secs: 1722858934
    nsecs:  58285474
  frame_id: ''
magnetic_x: -9959.5439453125
magnetic_y: 5168.91162109375
magnetic_z: 16018.041015625
---
header: 
  seq: 1777753
  stamp: 
    secs: 1722858934
    nsecs:  64285474
  frame_id: ''
magnetic_x: -9960.328125
magnetic_y: 5163.03173828125
magnetic_z: 16031.9443359375
---
header: 
  seq: 1777754
  stamp: 
    secs: 1722858934
    nsecs:  70285474
  frame_id: ''
magnetic_x: -9957.19140625
magnetic_y: 5163.81591796875
magnetic_z: 16021.8330078125
---
header: 
  seq: 1777755
  stamp: 
    secs: 1722858934
    nsecs:  77285474
  frame_id: ''
magnetic_x: -9961.50390625
magnetic_y: 5170.087890625
magnetic_z: 16019.3046875
---
header: 
  seq: 1777756
  stamp: 
    secs: 1722858934
    nsecs:  83285474
  frame_id: ''
magnetic_x: -9961.50390625
magnetic_y: 5166.56005859375
magnetic_z: 16031.9443359375
---
header: 
  seq: 1777757
  stamp: 
    secs: 1722858934
    nsecs:  89285474
  frame_id: ''
magnetic_x: -9963.4638671875
magnetic_y: 5166.16796875
magnetic_z: 16022.46484375
---
header: 
  seq: 1777758
  stamp: 
    secs: 1722858934
    nsecs:  95285474
  frame_id: ''
magnetic_x: -9971.6953125
magnetic_y: 5165.3837890625
magnetic_z: 16019.9365234375
---
header: 
  seq: 1777759
  stamp: 
    secs: 1722858934
    nsecs: 101285474
  frame_id: ''
magnetic_x: -9970.1279296875
magnetic_y: 5161.07177734375
magnetic_z: 15999.0810546875
---
header: 
  seq: 1777760
  stamp: 
    secs: 1722858934
    nsecs: 107285474
  frame_id: ''
magnetic_x: -9957.9755859375
magnetic_y: 5164.60009765625
magnetic_z: 16020.568359375
---
header: 
  seq: 1777761
  stamp: 
    secs: 1722858934
    nsecs: 112285474
  frame_id: ''
magnetic_x: -9965.8154296875
magnetic_y: 5159.89599609375
magnetic_z: 16033.8408203125
---
header: 
  seq: 1777762
  stamp: 
    secs: 1722858934
    nsecs: 119285474
  frame_id: ''
magnetic_x: -9963.4638671875
magnetic_y: 5164.99169921875
magnetic_z: 16022.46484375
---
header: 
  seq: 1777763
  stamp: 
    secs: 1722858934
    nsecs: 125285474
  frame_id: ''
magnetic_x: -9962.2880859375
magnetic_y: 5161.07177734375
magnetic_z: 16031.3125
---
header: 
  seq: 1777764
  stamp: 
    secs: 1722858934
    nsecs: 131285474
  frame_id: ''
magnetic_x: -9960.328125
magnetic_y: 5166.56005859375
magnetic_z: 16030.6806640625
---
header: 
  seq: 1777765
  stamp: 
    secs: 1722858934
    nsecs: 137285474
  frame_id: ''
magnetic_x: -9960.328125
magnetic_y: 5157.93603515625
magnetic_z: 16017.4091796875
---
header: 
  seq: 1777766
  stamp: 
    secs: 1722858934
    nsecs: 143285474
  frame_id: ''
magnetic_x: -9963.85546875
magnetic_y: 5155.97607421875
magnetic_z: 16024.9931640625
---
header: 
  seq: 1777767
  stamp: 
    secs: 1722858934
    nsecs: 149285474
  frame_id: ''
magnetic_x: -9963.4638671875
magnetic_y: 5161.07177734375
magnetic_z: 16018.041015625
---
header: 
  seq: 1777768
  stamp: 
    secs: 1722858934
    nsecs: 155285474
  frame_id: ''
magnetic_x: -9964.6396484375
magnetic_y: 5161.07177734375
magnetic_z: 16011.0888671875
---
header: 
  seq: 1777769
  stamp: 
    secs: 1722858934
    nsecs: 162285474
  frame_id: ''
magnetic_x: -9961.8955078125
magnetic_y: 5166.95166015625
magnetic_z: 16024.9931640625
---
header: 
  seq: 1777770
  stamp: 
    secs: 1722858934
    nsecs: 168285474
  frame_id: ''
magnetic_x: -9959.5439453125
magnetic_y: 5164.2080078125
magnetic_z: 16023.0966796875
---
header: 
  seq: 1777771
  stamp: 
    secs: 1722858934
    nsecs: 174285474
  frame_id: ''
magnetic_x: -9957.583984375
magnetic_y: 5166.56005859375
magnetic_z: 16020.568359375
---
header: 
  seq: 1777772
  stamp: 
    secs: 1722858934
    nsecs: 180285474
  frame_id: ''
magnetic_x: -9964.248046875
magnetic_y: 5156.759765625
magnetic_z: 16025.625
---
header: 
  seq: 1777773
  stamp: 
    secs: 1722858934
    nsecs: 186285474
  frame_id: ''
magnetic_x: -9962.6796875
magnetic_y: 5164.60009765625
magnetic_z: 16028.78515625
---
header: 
  seq: 1777774
  stamp: 
    secs: 1722858934
    nsecs: 192285474
  frame_id: ''
magnetic_x: -9970.1279296875
magnetic_y: 5156.759765625
magnetic_z: 16018.6728515625
---
header: 
  seq: 1777775
  stamp: 
    secs: 1722858934
    nsecs: 198285474
  frame_id: ''
magnetic_x: -9968.9521484375
magnetic_y: 5159.89599609375
magnetic_z: 16026.2568359375
---
header: 
  seq: 1777776
  stamp: 
    secs: 1722858934
    nsecs: 205285474
  frame_id: ''
magnetic_x: -9965.0322265625
magnetic_y: 5155.19189453125
magnetic_z: 16031.3125
---
header: 
  seq: 1777777
  stamp: 
    secs: 1722858934
    nsecs: 211285474
  frame_id: ''
magnetic_x: -9967.3837890625
magnetic_y: 5170.087890625
magnetic_z: 16022.46484375
---
header: 
  seq: 1777778
  stamp: 
    secs: 1722858934
    nsecs: 217285474
  frame_id: ''
magnetic_x: -9960.328125
magnetic_y: 5168.52001953125
magnetic_z: 16030.6806640625
---
header: 
  seq: 1777779
  stamp: 
    secs: 1722858934
    nsecs: 223285474
  frame_id: ''
magnetic_x: -9963.4638671875
magnetic_y: 5163.81591796875
magnetic_z: 16016.7763671875
---
header: 
  seq: 1777780
  stamp: 
    secs: 1722858934
    nsecs: 229285474
  frame_id: ''
magnetic_x: -9958.759765625
magnetic_y: 5174.39990234375
magnetic_z: 16013.6171875
---
header: 
  seq: 1777781
  stamp: 
    secs: 1722858934
    nsecs: 235285474
  frame_id: ''
magnetic_x: -9970.1279296875
magnetic_y: 5164.99169921875
magnetic_z: 16030.048828125
---
header: 
  seq: 1777782
  stamp: 
    secs: 1722858934
    nsecs: 241285474
  frame_id: ''
magnetic_x: -9952.4873046875
magnetic_y: 5162.6396484375
magnetic_z: 16038.896484375
---
header: 
  seq: 1777783
  stamp: 
    secs: 1722858934
    nsecs: 248285474
  frame_id: ''
magnetic_x: -9963.0712890625
magnetic_y: 5169.69580078125
magnetic_z: 16005.400390625
---
header: 
  seq: 1777784
  stamp: 
    secs: 1722858934
    nsecs: 254285474
  frame_id: ''
magnetic_x: -9957.19140625
magnetic_y: 5163.81591796875
magnetic_z: 16033.8408203125
---
header: 
  seq: 1777785
  stamp: 
    secs: 1722858934
    nsecs: 260285474
  frame_id: ''
magnetic_x: -9951.3115234375
magnetic_y: 5157.93603515625
magnetic_z: 16014.2490234375
---
header: 
  seq: 1777786
  stamp: 
    secs: 1722858934
    nsecs: 266285474
  frame_id: ''
magnetic_x: -9957.583984375
magnetic_y: 5164.99169921875
magnetic_z: 16033.8408203125
---
header: 
  seq: 1777787
  stamp: 
    secs: 1722858934
    nsecs: 272285474
  frame_id: ''
magnetic_x: -9968.16796875
magnetic_y: 5163.423828125
magnetic_z: 16017.4091796875
---
header: 
  seq: 1777788
  stamp: 
    secs: 1722858934
    nsecs: 278285474
  frame_id: ''
magnetic_x: -9947.7841796875
magnetic_y: 5155.19189453125
magnetic_z: 16019.9365234375
---
header: 
  seq: 1777789
  stamp: 
    secs: 1722858934
    nsecs: 284285474
  frame_id: ''
magnetic_x: -9960.328125
magnetic_y: 5166.16796875
magnetic_z: 16012.3525390625
---
header: 
  seq: 1777790
  stamp: 
    secs: 1722858934
    nsecs: 291285474
  frame_id: ''
magnetic_x: -9966.2080078125
magnetic_y: 5164.2080078125
magnetic_z: 16006.033203125
---
header: 
  seq: 1777791
  stamp: 
    secs: 1722858934
    nsecs: 297285474
  frame_id: ''
magnetic_x: -9966.2080078125
magnetic_y: 5167.34375
magnetic_z: 16025.625
---
header: 
  seq: 1777792
  stamp: 
    secs: 1722858934
    nsecs: 303285474
  frame_id: ''
magnetic_x: -9967.3837890625
magnetic_y: 5168.1279296875
magnetic_z: 16015.5126953125
---
header: 
  seq: 1777793
  stamp: 
    secs: 1722858934
    nsecs: 309285474
  frame_id: ''
magnetic_x: -9959.935546875
magnetic_y: 5150.095703125
magnetic_z: 16015.5126953125
---
header: 
  seq: 1777794
  stamp: 
    secs: 1722858934
    nsecs: 315285474
  frame_id: ''
magnetic_x: -9960.328125
magnetic_y: 5160.6796875
magnetic_z: 16013.6171875
---
header: 
  seq: 1777795
  stamp: 
    secs: 1722858934
    nsecs: 321285474
  frame_id: ''
magnetic_x: -9963.0712890625
magnetic_y: 5157.15185546875
magnetic_z: 16015.5126953125
---
header: 
  seq: 1777796
  stamp: 
    secs: 1722858934
    nsecs: 327285474
  frame_id: ''
magnetic_x: -9961.8955078125
magnetic_y: 5174.7919921875
magnetic_z: 16018.6728515625
---
header: 
  seq: 1777797
  stamp: 
    secs: 1722858934
    nsecs: 334285474
  frame_id: ''
magnetic_x: -9961.50390625
magnetic_y: 5155.97607421875
magnetic_z: 16026.2568359375
---
header: 
  seq: 1777798
  stamp: 
    secs: 1722858934
    nsecs: 340285474
  frame_id: ''
magnetic_x: -9963.0712890625
magnetic_y: 5166.56005859375
magnetic_z: 16021.201171875
---
header: 
  seq: 1777799
  stamp: 
    secs: 1722858934
    nsecs: 346285474
  frame_id: ''
magnetic_x: -9966.599609375
magnetic_y: 5161.85595703125
magnetic_z: 16023.728515625
---
header: 
  seq: 1777800
  stamp: 
    secs: 1722858934
    nsecs: 352285474
  frame_id: ''
magnetic_x: -9957.9755859375
magnetic_y: 5166.95166015625
magnetic_z: 16031.9443359375
---
header: 
  seq: 1777801
  stamp: 
    secs: 1722858934
    nsecs: 358285474
  frame_id: ''
magnetic_x: -9957.19140625
magnetic_y: 5162.248046875
magnetic_z: 16019.3046875
---
header: 
  seq: 1777802
  stamp: 
    secs: 1722858934
    nsecs: 364285474
  frame_id: ''
magnetic_x: -9961.8955078125
magnetic_y: 5159.89599609375
magnetic_z: 16011.0888671875
---
header: 
  seq: 1777803
  stamp: 
    secs: 1722858934
    nsecs: 369285474
  frame_id: ''
magnetic_x: -9958.759765625
magnetic_y: 5159.89599609375
magnetic_z: 16011.720703125
---
header: 
  seq: 1777804
  stamp: 
    secs: 1722858934
    nsecs: 376285474
  frame_id: ''
magnetic_x: -9968.16796875
magnetic_y: 5161.4638671875
magnetic_z: 16019.9365234375
---
header: 
  seq: 1777805
  stamp: 
    secs: 1722858934
    nsecs: 382285474
  frame_id: ''
magnetic_x: -9965.0322265625
magnetic_y: 5157.93603515625
magnetic_z: 16019.9365234375
---
header: 
  seq: 1777806
  stamp: 
    secs: 1722858934
    nsecs: 388285474
  frame_id: ''
magnetic_x: -9965.0322265625
magnetic_y: 5154.40771484375
magnetic_z: 16027.5205078125
---
header: 
  seq: 1777807
  stamp: 
    secs: 1722858934
    nsecs: 394285474
  frame_id: ''
magnetic_x: -9969.34375
magnetic_y: 5163.03173828125
magnetic_z: 16023.728515625
---
header: 
  seq: 1777808
  stamp: 
    secs: 1722858934
    nsecs: 400285474
  frame_id: ''
magnetic_x: -9965.8154296875
magnetic_y: 5161.85595703125
magnetic_z: 16029.4169921875
---
header: 
  seq: 1777809
  stamp: 
    secs: 1722858934
    nsecs: 406285474
  frame_id: ''
magnetic_x: -9962.2880859375
magnetic_y: 5154.7998046875
magnetic_z: 16018.6728515625
---
header: 
  seq: 1777810
  stamp: 
    secs: 1722858934
    nsecs: 412285474
  frame_id: ''
magnetic_x: -9972.4794921875
magnetic_y: 5163.423828125
magnetic_z: 16019.9365234375
---
header: 
  seq: 1777811
  stamp: 
    secs: 1722858934
    nsecs: 419285474
  frame_id: ''
magnetic_x: -9973.6552734375
magnetic_y: 5155.583984375
magnetic_z: 16021.201171875
---
header: 
  seq: 1777812
  stamp: 
    secs: 1722858934
    nsecs: 425285474
  frame_id: ''
magnetic_x: -9970.1279296875
magnetic_y: 5161.85595703125
magnetic_z: 16020.568359375
---
header: 
  seq: 1777813
  stamp: 
    secs: 1722858934
    nsecs: 431285474
  frame_id: ''
magnetic_x: -9957.583984375
magnetic_y: 5157.93603515625
magnetic_z: 16026.2568359375
---
header: 
  seq: 1777814
  stamp: 
    secs: 1722858934
    nsecs: 437285474
  frame_id: ''
magnetic_x: -9956.015625
magnetic_y: 5154.7998046875
magnetic_z: 16028.15234375
---
header: 
  seq: 1777815
  stamp: 
    secs: 1722858934
    nsecs: 443285474
  frame_id: ''
magnetic_x: -9964.6396484375
magnetic_y: 5168.52001953125
magnetic_z: 16040.1611328125
---
header: 
  seq: 1777816
  stamp: 
    secs: 1722858934
    nsecs: 449285474
  frame_id: ''
magnetic_x: -9963.0712890625
magnetic_y: 5163.423828125
magnetic_z: 16035.1044921875
---
header: 
  seq: 1777817
  stamp: 
    secs: 1722858934
    nsecs: 455285474
  frame_id: ''
magnetic_x: -9964.6396484375
magnetic_y: 5162.248046875
magnetic_z: 16020.568359375
---
header: 
  seq: 1777818
  stamp: 
    secs: 1722858934
    nsecs: 462285474
  frame_id: ''
magnetic_x: -9950.52734375
magnetic_y: 5161.07177734375
magnetic_z: 16024.3603515625
---
header: 
  seq: 1777819
  stamp: 
    secs: 1722858934
    nsecs: 468285474
  frame_id: ''
magnetic_x: -9962.2880859375
magnetic_y: 5168.1279296875
magnetic_z: 16010.45703125
---
header: 
  seq: 1777820
  stamp: 
    secs: 1722858934
    nsecs: 474285474
  frame_id: ''
magnetic_x: -9969.34375
magnetic_y: 5170.47998046875
magnetic_z: 16009.1923828125
---
header: 
  seq: 1777821
  stamp: 
    secs: 1722858934
    nsecs: 480285474
  frame_id: ''
magnetic_x: -9963.0712890625
magnetic_y: 5164.99169921875
magnetic_z: 16029.4169921875
---
header: 
  seq: 1777822
  stamp: 
    secs: 1722858934
    nsecs: 486285474
  frame_id: ''
magnetic_x: -9961.8955078125
magnetic_y: 5159.50390625
magnetic_z: 16018.041015625
---
header: 
  seq: 1777823
  stamp: 
    secs: 1722858934
    nsecs: 492285474
  frame_id: ''
magnetic_x: -9968.9521484375
magnetic_y: 5157.15185546875
magnetic_z: 16026.888671875
---
header: 
  seq: 1777824
  stamp: 
    secs: 1722858934
    nsecs: 498285474
  frame_id: ''
magnetic_x: -9963.0712890625
magnetic_y: 5163.03173828125
magnetic_z: 16033.8408203125
---
header: 
  seq: 1777825
  stamp: 
    secs: 1722858934
    nsecs: 505285474
  frame_id: ''
magnetic_x: -9965.423828125
magnetic_y: 5157.93603515625
magnetic_z: 16021.8330078125
---
header: 
  seq: 1777826
  stamp: 
    secs: 1722858934
    nsecs: 511285474
  frame_id: ''
magnetic_x: -9954.0556640625
magnetic_y: 5150.48779296875
magnetic_z: 16032.5771484375
---
header: 
  seq: 1777827
  stamp: 
    secs: 1722858934
    nsecs: 517285474
  frame_id: ''
magnetic_x: -9967.3837890625
magnetic_y: 5156.759765625
magnetic_z: 16021.201171875
---
header: 
  seq: 1777828
  stamp: 
    secs: 1722858934
    nsecs: 523285474
  frame_id: ''
magnetic_x: -9966.9921875
magnetic_y: 5161.4638671875
magnetic_z: 16024.9931640625
---
header: 
  seq: 1777829
  stamp: 
    secs: 1722858934
    nsecs: 529285474
  frame_id: ''
magnetic_x: -9961.8955078125
magnetic_y: 5159.11181640625
magnetic_z: 16020.568359375
---
header: 
  seq: 1777830
  stamp: 
    secs: 1722858934
    nsecs: 535285474
  frame_id: ''
magnetic_x: -9961.50390625
magnetic_y: 5157.93603515625
magnetic_z: 16049.0087890625
---
header: 
  seq: 1777831
  stamp: 
    secs: 1722858934
    nsecs: 541285474
  frame_id: ''
magnetic_x: -9963.0712890625
magnetic_y: 5164.2080078125
magnetic_z: 16025.625
---
header: 
  seq: 1777832
  stamp: 
    secs: 1722858934
    nsecs: 548285474
  frame_id: ''
magnetic_x: -9968.16796875
magnetic_y: 5162.248046875
magnetic_z: 16030.6806640625
---
header: 
  seq: 1777833
  stamp: 
    secs: 1722858934
    nsecs: 554285474
  frame_id: ''
magnetic_x: -9962.2880859375
magnetic_y: 5165.77587890625
magnetic_z: 16027.5205078125
---
header: 
  seq: 1777834
  stamp: 
    secs: 1722858934
    nsecs: 560285474
  frame_id: ''
magnetic_x: -9952.8798828125
magnetic_y: 5155.97607421875
magnetic_z: 16016.14453125
---
header: 
  seq: 1777835
  stamp: 
    secs: 1722858934
    nsecs: 566285474
  frame_id: ''
magnetic_x: -9960.328125
magnetic_y: 5162.248046875
magnetic_z: 16016.14453125
---
header: 
  seq: 1777836
  stamp: 
    secs: 1722858934
    nsecs: 572285474
  frame_id: ''
magnetic_x: -9961.50390625
magnetic_y: 5164.2080078125
magnetic_z: 16021.201171875
---
header: 
  seq: 1777837
  stamp: 
    secs: 1722858934
    nsecs: 578285474
  frame_id: ''
magnetic_x: -9965.8154296875
magnetic_y: 5166.56005859375
magnetic_z: 16026.2568359375
---
header: 
  seq: 1777838
  stamp: 
    secs: 1722858934
    nsecs: 585285474
  frame_id: ''
magnetic_x: -9967.775390625
magnetic_y: 5166.56005859375
magnetic_z: 16038.2646484375
---
header: 
  seq: 1777839
  stamp: 
    secs: 1722858934
    nsecs: 591285474
  frame_id: ''
magnetic_x: -9954.447265625
magnetic_y: 5167.34375
magnetic_z: 16013.6171875
---
header: 
  seq: 1777840
  stamp: 
    secs: 1722858934
    nsecs: 597285474
  frame_id: ''
magnetic_x: -9958.3681640625
magnetic_y: 5157.5439453125
magnetic_z: 16018.6728515625
---
header: 
  seq: 1777841
  stamp: 
    secs: 1722858934
    nsecs: 603285474
  frame_id: ''
magnetic_x: -9964.6396484375
magnetic_y: 5165.3837890625
magnetic_z: 16007.296875
---
header: 
  seq: 1777842
  stamp: 
    secs: 1722858934
    nsecs: 609285474
  frame_id: ''
magnetic_x: -9959.1513671875
magnetic_y: 5161.85595703125
magnetic_z: 16021.8330078125
---
header: 
  seq: 1777843
  stamp: 
    secs: 1722858934
    nsecs: 615285474
  frame_id: ''
magnetic_x: -9959.1513671875
magnetic_y: 5163.81591796875
magnetic_z: 16023.0966796875
---
header: 
  seq: 1777844
  stamp: 
    secs: 1722858934
    nsecs: 621285474
  frame_id: ''
magnetic_x: -9964.6396484375
magnetic_y: 5161.07177734375
magnetic_z: 16026.888671875
---
header: 
  seq: 1777845
  stamp: 
    secs: 1722858934
    nsecs: 628285474
  frame_id: ''
magnetic_x: -9962.2880859375
magnetic_y: 5161.07177734375
magnetic_z: 16042.6884765625
---
header: 
  seq: 1777846
  stamp: 
    secs: 1722858934
    nsecs: 633285474
  frame_id: ''
magnetic_x: -9951.7041015625
magnetic_y: 5162.6396484375
magnetic_z: 16022.46484375
---
header: 
  seq: 1777847
  stamp: 
    secs: 1722858934
    nsecs: 639285474
  frame_id: ''
magnetic_x: -9964.6396484375
magnetic_y: 5165.77587890625
magnetic_z: 16012.3525390625
---
header: 
  seq: 1777848
  stamp: 
    secs: 1722858934
    nsecs: 645285474
  frame_id: ''
magnetic_x: -9966.2080078125
magnetic_y: 5164.60009765625
magnetic_z: 16028.15234375
---
header: 
  seq: 1777849
  stamp: 
    secs: 1722858934
    nsecs: 651285474
  frame_id: ''
magnetic_x: -9966.599609375
magnetic_y: 5162.248046875
magnetic_z: 16039.5283203125
---
header: 
  seq: 1777850
  stamp: 
    secs: 1722858934
    nsecs: 657285474
  frame_id: ''
magnetic_x: -9969.34375
magnetic_y: 5163.03173828125
magnetic_z: 16023.728515625
---
header: 
  seq: 1777851
  stamp: 
    secs: 1722858934
    nsecs: 663285474
  frame_id: ''
magnetic_x: -9967.3837890625
magnetic_y: 5151.27197265625
magnetic_z: 16019.3046875
---
header: 
  seq: 1777852
  stamp: 
    secs: 1722858934
    nsecs: 669285474
  frame_id: ''
magnetic_x: -9960.328125
magnetic_y: 5160.6796875
magnetic_z: 16018.041015625
---
header: 
  seq: 1777853
  stamp: 
    secs: 1722858934
    nsecs: 676285474
  frame_id: ''
magnetic_x: -9955.2314453125
magnetic_y: 5161.07177734375
magnetic_z: 16021.8330078125
---
header: 
  seq: 1777854
  stamp: 
    secs: 1722858934
    nsecs: 682285474
  frame_id: ''
magnetic_x: -9963.85546875
magnetic_y: 5165.3837890625
magnetic_z: 16014.880859375
---
header: 
  seq: 1777855
  stamp: 
    secs: 1722858934
    nsecs: 688285474
  frame_id: ''
magnetic_x: -9965.0322265625
magnetic_y: 5172.83203125
magnetic_z: 16009.8251953125
---
header: 
  seq: 1777856
  stamp: 
    secs: 1722858934
    nsecs: 694285474
  frame_id: ''
magnetic_x: -9953.6640625
magnetic_y: 5163.81591796875
magnetic_z: 16024.3603515625
---
header: 
  seq: 1777857
  stamp: 
    secs: 1722858934
    nsecs: 700285474
  frame_id: ''
magnetic_x: -9954.0556640625
magnetic_y: 5166.56005859375
magnetic_z: 16020.568359375
---
header: 
  seq: 1777858
  stamp: 
    secs: 1722858934
    nsecs: 706285474
  frame_id: ''
magnetic_x: -9971.6953125
magnetic_y: 5156.759765625
magnetic_z: 16038.896484375
---
header: 
  seq: 1777859
  stamp: 
    secs: 1722858934
    nsecs: 713285474
  frame_id: ''
magnetic_x: -9963.4638671875
magnetic_y: 5163.81591796875
magnetic_z: 16030.6806640625
---
header: 
  seq: 1777860
  stamp: 
    secs: 1722858934
    nsecs: 719285474
  frame_id: ''
magnetic_x: -9965.0322265625
magnetic_y: 5164.99169921875
magnetic_z: 16015.5126953125
---
header: 
  seq: 1777861
  stamp: 
    secs: 1722858934
    nsecs: 725285474
  frame_id: ''
magnetic_x: -9965.423828125
magnetic_y: 5166.95166015625
magnetic_z: 16026.888671875
---
header: 
  seq: 1777862
  stamp: 
    secs: 1722858934
    nsecs: 731285474
  frame_id: ''
magnetic_x: -9963.4638671875
magnetic_y: 5161.07177734375
magnetic_z: 16029.4169921875
---
header: 
  seq: 1777863
  stamp: 
    secs: 1722858934
    nsecs: 737285474
  frame_id: ''
magnetic_x: -9960.328125
magnetic_y: 5163.423828125
magnetic_z: 16031.9443359375
---
header: 
  seq: 1777864
  stamp: 
    secs: 1722858934
    nsecs: 743285474
  frame_id: ''
magnetic_x: -9967.775390625
magnetic_y: 5160.6796875
magnetic_z: 16004.13671875
---
header: 
  seq: 1777865
  stamp: 
    secs: 1722858934
    nsecs: 749285474
  frame_id: ''
magnetic_x: -9970.912109375
magnetic_y: 5166.16796875
magnetic_z: 16021.8330078125
---
header: 
  seq: 1777866
  stamp: 
    secs: 1722858934
    nsecs: 756285474
  frame_id: ''
magnetic_x: -9968.9521484375
magnetic_y: 5159.11181640625
magnetic_z: 16028.15234375
---
header: 
  seq: 1777867
  stamp: 
    secs: 1722858934
    nsecs: 762285474
  frame_id: ''
magnetic_x: -9967.775390625
magnetic_y: 5159.50390625
magnetic_z: 16020.568359375
---
header: 
  seq: 1777868
  stamp: 
    secs: 1722858934
    nsecs: 768285474
  frame_id: ''
magnetic_x: -9966.2080078125
magnetic_y: 5152.83984375
magnetic_z: 16024.3603515625
---
header: 
  seq: 1777869
  stamp: 
    secs: 1722858934
    nsecs: 774285474
  frame_id: ''
magnetic_x: -9967.775390625
magnetic_y: 5163.03173828125
magnetic_z: 16016.14453125
---
header: 
  seq: 1777870
  stamp: 
    secs: 1722858934
    nsecs: 780285474
  frame_id: ''
magnetic_x: -9958.3681640625
magnetic_y: 5164.60009765625
magnetic_z: 16029.4169921875
---
header: 
  seq: 1777871
  stamp: 
    secs: 1722858934
    nsecs: 786285474
  frame_id: ''
magnetic_x: -9968.16796875
magnetic_y: 5172.83203125
magnetic_z: 16012.3525390625
---
header: 
  seq: 1777872
  stamp: 
    secs: 1722858934
    nsecs: 792285474
  frame_id: ''
magnetic_x: -9963.85546875
magnetic_y: 5170.47998046875
magnetic_z: 16024.3603515625
---
header: 
  seq: 1777873
  stamp: 
    secs: 1722858934
    nsecs: 799285474
  frame_id: ''
magnetic_x: -9963.0712890625
magnetic_y: 5167.34375
magnetic_z: 16028.15234375
---
header: 
  seq: 1777874
  stamp: 
    secs: 1722858934
    nsecs: 805285474
  frame_id: ''
magnetic_x: -9966.9921875
magnetic_y: 5152.0556640625
magnetic_z: 16028.78515625
---
header: 
  seq: 1777875
  stamp: 
    secs: 1722858934
    nsecs: 811285474
  frame_id: ''
magnetic_x: -9955.6240234375
magnetic_y: 5159.50390625
magnetic_z: 16030.6806640625
---
header: 
  seq: 1777876
  stamp: 
    secs: 1722858934
    nsecs: 817285474
  frame_id: ''
magnetic_x: -9967.775390625
magnetic_y: 5162.248046875
magnetic_z: 16013.6171875
---
header: 
  seq: 1777877
  stamp: 
    secs: 1722858934
    nsecs: 823285474
  frame_id: ''
magnetic_x: -9956.015625
magnetic_y: 5162.6396484375
magnetic_z: 16002.2412109375
---
header: 
  seq: 1777878
  stamp: 
    secs: 1722858934
    nsecs: 829285474
  frame_id: ''
magnetic_x: -9956.408203125
magnetic_y: 5166.95166015625
magnetic_z: 16026.888671875
---
header: 
  seq: 1777879
  stamp: 
    secs: 1722858934
    nsecs: 835285474
  frame_id: ''
magnetic_x: -9963.85546875
magnetic_y: 5159.89599609375
magnetic_z: 16028.78515625
---
header: 
  seq: 1777880
  stamp: 
    secs: 1722858934
    nsecs: 842285474
  frame_id: ''
magnetic_x: -9959.1513671875
magnetic_y: 5157.93603515625
magnetic_z: 16015.5126953125
---
header: 
  seq: 1777881
  stamp: 
    secs: 1722858934
    nsecs: 848285474
  frame_id: ''
magnetic_x: -9952.095703125
magnetic_y: 5168.1279296875
magnetic_z: 16028.78515625
---
header: 
  seq: 1777882
  stamp: 
    secs: 1722858934
    nsecs: 854285474
  frame_id: ''
magnetic_x: -9957.9755859375
magnetic_y: 5159.89599609375
magnetic_z: 16011.720703125
---
header: 
  seq: 1777883
  stamp: 
    secs: 1722858934
    nsecs: 860285474
  frame_id: ''
magnetic_x: -9962.2880859375
magnetic_y: 5164.99169921875
magnetic_z: 16019.3046875
---
header: 
  seq: 1777884
  stamp: 
    secs: 1722858934
    nsecs: 866285474
  frame_id: ''
magnetic_x: -9963.0712890625
magnetic_y: 5164.60009765625
magnetic_z: 16013.6171875
---
header: 
  seq: 1777885
  stamp: 
    secs: 1722858934
    nsecs: 872285474
  frame_id: ''
magnetic_x: -9968.9521484375
magnetic_y: 5159.11181640625
magnetic_z: 16020.568359375
---
header: 
  seq: 1777886
  stamp: 
    secs: 1722858934
    nsecs: 878285474
  frame_id: ''
magnetic_x: -9966.9921875
magnetic_y: 5164.99169921875
magnetic_z: 16023.728515625
---
header: 
  seq: 1777887
  stamp: 
    secs: 1722858934
    nsecs: 885285474
  frame_id: ''
magnetic_x: -9965.8154296875
magnetic_y: 5166.16796875
magnetic_z: 16021.8330078125
---
header: 
  seq: 1777888
  stamp: 
    secs: 1722858934
    nsecs: 891285474
  frame_id: ''
magnetic_x: -9963.0712890625
magnetic_y: 5159.11181640625
magnetic_z: 16021.201171875
---
header: 
  seq: 1777889
  stamp: 
    secs: 1722858934
    nsecs: 896285474
  frame_id: ''
magnetic_x: -9950.1357421875
magnetic_y: 5163.81591796875
magnetic_z: 16033.208984375
---
header: 
  seq: 1777890
  stamp: 
    secs: 1722858934
    nsecs: 902285474
  frame_id: ''
magnetic_x: -9963.4638671875
magnetic_y: 5153.6240234375
magnetic_z: 16034.47265625
---
header: 
  seq: 1777891
  stamp: 
    secs: 1722858934
    nsecs: 908285474
  frame_id: ''
magnetic_x: -9966.9921875
magnetic_y: 5162.6396484375
magnetic_z: 16035.1044921875
---
header: 
  seq: 1777892
  stamp: 
    secs: 1722858934
    nsecs: 914285474
  frame_id: ''
magnetic_x: -9965.0322265625
magnetic_y: 5162.248046875
magnetic_z: 16025.625
---
header: 
  seq: 1777893
  stamp: 
    secs: 1722858934
    nsecs: 920285474
  frame_id: ''
magnetic_x: -9959.5439453125
magnetic_y: 5166.16796875
magnetic_z: 16049.0087890625
---
header: 
  seq: 1777894
  stamp: 
    secs: 1722858934
    nsecs: 927285474
  frame_id: ''
magnetic_x: -9947.7841796875
magnetic_y: 5163.03173828125
magnetic_z: 16066.072265625
---
header: 
  seq: 1777895
  stamp: 
    secs: 1722858934
    nsecs: 936285474
  frame_id: ''
magnetic_x: -9952.4873046875
magnetic_y: 5156.759765625
magnetic_z: 16059.7529296875
---
header: 
  seq: 1777896
  stamp: 
    secs: 1722858934
    nsecs: 942285474
  frame_id: ''
magnetic_x: -9950.1357421875
magnetic_y: 5165.77587890625
magnetic_z: 16069.8642578125
---
header: 
  seq: 1777897
  stamp: 
    secs: 1722858934
    nsecs: 948285474
  frame_id: ''
magnetic_x: -9956.408203125
magnetic_y: 5142.64794921875
magnetic_z: 16050.904296875
---
header: 
  seq: 1777898
  stamp: 
    secs: 1722858934
    nsecs: 954285474
  frame_id: ''
magnetic_x: -9972.8720703125
magnetic_y: 5141.080078125
magnetic_z: 15996.552734375
---
header: 
  seq: 1777899
  stamp: 
    secs: 1722858934
    nsecs: 962174703
  frame_id: ''
magnetic_x: -9982.671875
magnetic_y: 5133.23974609375
magnetic_z: 15972.537109375
---
header: 
  seq: 1777900
  stamp: 
    secs: 1722858934
    nsecs: 968174703
  frame_id: ''
magnetic_x: -9983.4560546875
magnetic_y: 5137.15966796875
magnetic_z: 15983.2802734375
---
header: 
  seq: 1777901
  stamp: 
    secs: 1722858934
    nsecs: 975174703
  frame_id: ''
magnetic_x: -9985.8076171875
magnetic_y: 5135.98388671875
magnetic_z: 15972.537109375
---
header: 
  seq: 1777902
  stamp: 
    secs: 1722858934
    nsecs: 981174703
  frame_id: ''
magnetic_x: -9977.18359375
magnetic_y: 5144.60791015625
magnetic_z: 16010.45703125
---
header: 
  seq: 1777903
  stamp: 
    secs: 1722858934
    nsecs: 987174703
  frame_id: ''
magnetic_x: -9977.576171875
magnetic_y: 5136.3759765625
magnetic_z: 16000.3447265625
---
header: 
  seq: 1777904
  stamp: 
    secs: 1722858934
    nsecs: 993174703
  frame_id: ''
magnetic_x: -9960.328125
magnetic_y: 5141.080078125
magnetic_z: 16046.48046875
---
header: 
  seq: 1777905
  stamp: 
    secs: 1722858934
    nsecs: 999174703
  frame_id: ''
magnetic_x: -9954.83984375
magnetic_y: 5144.2158203125
magnetic_z: 16048.376953125
---
header: 
  seq: 1777906
  stamp: 
    secs: 1722858935
    nsecs:   5174703
  frame_id: ''
magnetic_x: -9964.248046875
magnetic_y: 5156.36767578125
magnetic_z: 16020.568359375
---
header: 
  seq: 1777907
  stamp: 
    secs: 1722858935
    nsecs:  11174703
  frame_id: ''
magnetic_x: -9962.2880859375
magnetic_y: 5164.99169921875
magnetic_z: 16018.6728515625
---
header: 
  seq: 1777908
  stamp: 
    secs: 1722858935
    nsecs:  18174703
  frame_id: ''
magnetic_x: -9966.599609375
magnetic_y: 5155.97607421875
magnetic_z: 15994.0244140625
---
header: 
  seq: 1777909
  stamp: 
    secs: 1722858935
    nsecs:  24174703
  frame_id: ''
magnetic_x: -9970.51953125
magnetic_y: 5151.6640625
magnetic_z: 15959.896484375
---
header: 
  seq: 1777910
  stamp: 
    secs: 1722858935
    nsecs:  30174703
  frame_id: ''
magnetic_x: -9987.3759765625
magnetic_y: 5144.2158203125
magnetic_z: 15971.904296875
---
header: 
  seq: 1777911
  stamp: 
    secs: 1722858935
    nsecs:  36174703
  frame_id: ''
magnetic_x: -9978.751953125
magnetic_y: 5141.4716796875
magnetic_z: 15966.8486328125
---
header: 
  seq: 1777912
  stamp: 
    secs: 1722858935
    nsecs:  42174703
  frame_id: ''
magnetic_x: -9968.16796875
magnetic_y: 5146.56787109375
magnetic_z: 15978.8564453125
---
header: 
  seq: 1777913
  stamp: 
    secs: 1722858935
    nsecs:  48174703
  frame_id: ''
magnetic_x: -9961.50390625
magnetic_y: 5157.15185546875
magnetic_z: 16042.6884765625
---
header: 
  seq: 1777914
  stamp: 
    secs: 1722858935
    nsecs:  54174703
  frame_id: ''
magnetic_x: -9955.2314453125
magnetic_y: 5165.77587890625
magnetic_z: 16059.12109375
---
header: 
  seq: 1777915
  stamp: 
    secs: 1722858935
    nsecs:  61174703
  frame_id: ''
magnetic_x: -9953.6640625
magnetic_y: 5159.11181640625
magnetic_z: 16062.2802734375
---
header: 
  seq: 1777916
  stamp: 
    secs: 1722858935
    nsecs:  67174703
  frame_id: ''
magnetic_x: -9954.0556640625
magnetic_y: 5172.43994140625
magnetic_z: 16031.9443359375
---
header: 
  seq: 1777917
  stamp: 
    secs: 1722858935
    nsecs:  72174703
  frame_id: ''
magnetic_x: -9970.51953125
magnetic_y: 5164.99169921875
magnetic_z: 15975.6962890625
---
header: 
  seq: 1777918
  stamp: 
    secs: 1722858935
    nsecs:  78174703
  frame_id: ''
magnetic_x: -9969.34375
magnetic_y: 5175.57568359375
magnetic_z: 15971.2724609375
---
header: 
  seq: 1777919
  stamp: 
    secs: 1722858935
    nsecs:  84174703
  frame_id: ''
magnetic_x: -9963.4638671875
magnetic_y: 5167.34375
magnetic_z: 15959.2646484375
---
header: 
  seq: 1777920
  stamp: 
    secs: 1722858935
    nsecs:  90174703
  frame_id: ''
magnetic_x: -9974.0478515625
magnetic_y: 5150.095703125
magnetic_z: 15968.1123046875
---
header: 
  seq: 1777921
  stamp: 
    secs: 1722858935
    nsecs:  96174703
  frame_id: ''
magnetic_x: -9972.087890625
magnetic_y: 5149.31201171875
magnetic_z: 16024.3603515625
---
header: 
  seq: 1777922
  stamp: 
    secs: 1722858935
    nsecs: 103174703
  frame_id: ''
magnetic_x: -9966.2080078125
magnetic_y: 5132.06396484375
magnetic_z: 16035.1044921875
---
header: 
  seq: 1777923
  stamp: 
    secs: 1722858935
    nsecs: 109174703
  frame_id: ''
magnetic_x: -9973.6552734375
magnetic_y: 5135.19970703125
magnetic_z: 16030.6806640625
---
header: 
  seq: 1777924
  stamp: 
    secs: 1722858935
    nsecs: 115174703
  frame_id: ''
magnetic_x: -9954.0556640625
magnetic_y: 5152.44775390625
magnetic_z: 16041.4248046875
---
header: 
  seq: 1777925
  stamp: 
    secs: 1722858935
    nsecs: 121174703
  frame_id: ''
magnetic_x: -9964.248046875
magnetic_y: 5175.9677734375
magnetic_z: 15998.44921875
---
header: 
  seq: 1777926
  stamp: 
    secs: 1722858935
    nsecs: 127174703
  frame_id: ''
magnetic_x: -9957.19140625
magnetic_y: 5180.27978515625
magnetic_z: 15971.2724609375
---
header: 
  seq: 1777927
  stamp: 
    secs: 1722858935
    nsecs: 133174703
  frame_id: ''
magnetic_x: -9954.0556640625
magnetic_y: 5166.56005859375
magnetic_z: 15978.224609375
---
header: 
  seq: 1777928
  stamp: 
    secs: 1722858935
    nsecs: 139174703
  frame_id: ''
magnetic_x: -9974.0478515625
magnetic_y: 5156.36767578125
magnetic_z: 15987.705078125
---
header: 
  seq: 1777929
  stamp: 
    secs: 1722858935
    nsecs: 146174703
  frame_id: ''
magnetic_x: -9981.49609375
magnetic_y: 5134.416015625
magnetic_z: 15961.79296875
---
header: 
  seq: 1777930
  stamp: 
    secs: 1722858935
    nsecs: 152174703
  frame_id: ''
magnetic_x: -9968.5595703125
magnetic_y: 5129.7119140625
magnetic_z: 15999.712890625
---
header: 
  seq: 1777931
  stamp: 
    secs: 1722858935
    nsecs: 158174703
  frame_id: ''
magnetic_x: -9978.751953125
magnetic_y: 5132.84765625
magnetic_z: 16009.8251953125
---
header: 
  seq: 1777932
  stamp: 
    secs: 1722858935
    nsecs: 164174703
  frame_id: ''
magnetic_x: -9953.271484375
magnetic_y: 5158.32763671875
magnetic_z: 15999.0810546875
---
header: 
  seq: 1777933
  stamp: 
    secs: 1722858935
    nsecs: 170174703
  frame_id: ''
magnetic_x: -9966.2080078125
magnetic_y: 5168.1279296875
magnetic_z: 16056.5927734375
---
header: 
  seq: 1777934
  stamp: 
    secs: 1722858935
    nsecs: 176174703
  frame_id: ''
magnetic_x: -9956.7998046875
magnetic_y: 5164.2080078125
magnetic_z: 16037.6328125
---
header: 
  seq: 1777935
  stamp: 
    secs: 1722858935
    nsecs: 182174703
  frame_id: ''
magnetic_x: -9954.447265625
magnetic_y: 5174.7919921875
magnetic_z: 16029.4169921875
---
header: 
  seq: 1777936
  stamp: 
    secs: 1722858935
    nsecs: 189174703
  frame_id: ''
magnetic_x: -9966.599609375
magnetic_y: 5168.1279296875
magnetic_z: 15986.4404296875
---
header: 
  seq: 1777937
  stamp: 
    secs: 1722858935
    nsecs: 195174703
  frame_id: ''
magnetic_x: -9977.576171875
magnetic_y: 5152.0556640625
magnetic_z: 15939.6728515625
---
header: 
  seq: 1777938
  stamp: 
    secs: 1722858935
    nsecs: 201174703
  frame_id: ''
magnetic_x: -9981.8876953125
magnetic_y: 5144.60791015625
magnetic_z: 15933.3525390625
---
header: 
  seq: 1777939
  stamp: 
    secs: 1722858935
    nsecs: 207174703
  frame_id: ''
magnetic_x: -9981.49609375
magnetic_y: 5130.49609375
magnetic_z: 15974.4326171875
---
header: 
  seq: 1777940
  stamp: 
    secs: 1722858935
    nsecs: 213174703
  frame_id: ''
magnetic_x: -9985.0234375
magnetic_y: 5125.7919921875
magnetic_z: 15997.81640625
---
header: 
  seq: 1777941
  stamp: 
    secs: 1722858935
    nsecs: 219174703
  frame_id: ''
magnetic_x: -9976.3994140625
magnetic_y: 5134.416015625
magnetic_z: 16041.4248046875
---
header: 
  seq: 1777942
  stamp: 
    secs: 1722858935
    nsecs: 225174703
  frame_id: ''
magnetic_x: -9960.7197265625
magnetic_y: 5154.40771484375
magnetic_z: 16052.1689453125
---
header: 
  seq: 1777943
  stamp: 
    secs: 1722858935
    nsecs: 232174703
  frame_id: ''
magnetic_x: -9951.3115234375
magnetic_y: 5192.431640625
magnetic_z: 16001.6083984375
---
header: 
  seq: 1777944
  stamp: 
    secs: 1722858935
    nsecs: 238174703
  frame_id: ''
magnetic_x: -9936.8076171875
magnetic_y: 5200.6640625
magnetic_z: 15923.873046875
---
header: 
  seq: 1777945
  stamp: 
    secs: 1722858935
    nsecs: 244174703
  frame_id: ''
magnetic_x: -9943.86328125
magnetic_y: 5199.095703125
magnetic_z: 15927.6650390625
---
header: 
  seq: 1777946
  stamp: 
    secs: 1722858935
    nsecs: 250174703
  frame_id: ''
magnetic_x: -9952.095703125
magnetic_y: 5184.19970703125
magnetic_z: 15972.537109375
---
header: 
  seq: 1777947
  stamp: 
    secs: 1722858935
    nsecs: 256174703
  frame_id: ''
magnetic_x: -9985.416015625
magnetic_y: 5133.23974609375
magnetic_z: 16035.1044921875
---
header: 
  seq: 1777948
  stamp: 
    secs: 1722858935
    nsecs: 262174703
  frame_id: ''
magnetic_x: -9993.255859375
magnetic_y: 5066.2080078125
magnetic_z: 16118.5283203125
---
header: 
  seq: 1777949
  stamp: 
    secs: 1722858935
    nsecs: 268174703
  frame_id: ''
magnetic_x: -10006.9755859375
magnetic_y: 5066.2080078125
magnetic_z: 16103.3603515625
---
header: 
  seq: 1777950
  stamp: 
    secs: 1722858935
    nsecs: 275174703
  frame_id: ''
magnetic_x: -9984.6318359375
magnetic_y: 5083.4560546875
magnetic_z: 16024.9931640625
---
header: 
  seq: 1777951
  stamp: 
    secs: 1722858935
    nsecs: 281174703
  frame_id: ''
magnetic_x: -9974.439453125
magnetic_y: 5125.7919921875
magnetic_z: 16028.15234375
---
header: 
  seq: 1777952
  stamp: 
    secs: 1722858935
    nsecs: 287174703
  frame_id: ''
magnetic_x: -9966.2080078125
magnetic_y: 5170.087890625
magnetic_z: 15991.4970703125
---
header: 
  seq: 1777953
  stamp: 
    secs: 1722858935
    nsecs: 293174703
  frame_id: ''
magnetic_x: -9939.943359375
magnetic_y: 5223.7919921875
magnetic_z: 15932.0888671875
---
header: 
  seq: 1777954
  stamp: 
    secs: 1722858935
    nsecs: 299174703
  frame_id: ''
magnetic_x: -9935.6318359375
magnetic_y: 5255.15185546875
magnetic_z: 15894.80078125
---
header: 
  seq: 1777955
  stamp: 
    secs: 1722858935
    nsecs: 305174703
  frame_id: ''
magnetic_x: -9928.576171875
magnetic_y: 5262.99169921875
magnetic_z: 15909.3369140625
---
header: 
  seq: 1777956
  stamp: 
    secs: 1722858935
    nsecs: 311174703
  frame_id: ''
magnetic_x: -9932.8876953125
magnetic_y: 5215.16796875
magnetic_z: 15924.5048828125
---
header: 
  seq: 1777957
  stamp: 
    secs: 1722858935
    nsecs: 318174703
  frame_id: ''
magnetic_x: -9970.912109375
magnetic_y: 5108.93603515625
magnetic_z: 16027.5205078125
---
header: 
  seq: 1777958
  stamp: 
    secs: 1722858935
    nsecs: 324174703
  frame_id: ''
magnetic_x: -10005.7998046875
magnetic_y: 5017.60009765625
magnetic_z: 16186.78515625
---
header: 
  seq: 1777959
  stamp: 
    secs: 1722858935
    nsecs: 329174703
  frame_id: ''
magnetic_x: -10022.263671875
magnetic_y: 5001.1357421875
magnetic_z: 16182.3603515625
---
header: 
  seq: 1777960
  stamp: 
    secs: 1722858935
    nsecs: 335174703
  frame_id: ''
magnetic_x: -10002.6640625
magnetic_y: 5064.248046875
magnetic_z: 16097.041015625
---
header: 
  seq: 1777961
  stamp: 
    secs: 1722858935
    nsecs: 341174703
  frame_id: ''
magnetic_x: -9966.2080078125
magnetic_y: 5180.27978515625
magnetic_z: 15992.7607421875
---
header: 
  seq: 1777962
  stamp: 
    secs: 1722858935
    nsecs: 347174703
  frame_id: ''
magnetic_x: -9934.0634765625
magnetic_y: 5282.19970703125
magnetic_z: 15810.7451171875
---
header: 
  seq: 1777963
  stamp: 
    secs: 1722858935
    nsecs: 353174703
  frame_id: ''
magnetic_x: -9921.912109375
magnetic_y: 5313.16796875
magnetic_z: 15773.45703125
---
header: 
  seq: 1777964
  stamp: 
    secs: 1722858935
    nsecs: 360174703
  frame_id: ''
magnetic_x: -9934.4560546875
magnetic_y: 5243.78369140625
magnetic_z: 15887.216796875
---
header: 
  seq: 1777965
  stamp: 
    secs: 1722858935
    nsecs: 366174703
  frame_id: ''
magnetic_x: -9961.8955078125
magnetic_y: 5129.7119140625
magnetic_z: 16032.5771484375
---
header: 
  seq: 1777966
  stamp: 
    secs: 1722858935
    nsecs: 372174703
  frame_id: ''
magnetic_x: -9982.279296875
magnetic_y: 5052.48779296875
magnetic_z: 16164.033203125
---
header: 
  seq: 1777967
  stamp: 
    secs: 1722858935
    nsecs: 378174703
  frame_id: ''
magnetic_x: -9993.255859375
magnetic_y: 5057.583984375
magnetic_z: 16241.13671875
---
header: 
  seq: 1777968
  stamp: 
    secs: 1722858935
    nsecs: 384174703
  frame_id: ''
magnetic_x: -9986.9833984375
magnetic_y: 5084.6318359375
magnetic_z: 16155.81640625
---
header: 
  seq: 1777969
  stamp: 
    secs: 1722858935
    nsecs: 390174703
  frame_id: ''
magnetic_x: -9978.359375
magnetic_y: 5134.02392578125
magnetic_z: 15982.0166015625
---
header: 
  seq: 1777970
  stamp: 
    secs: 1722858935
    nsecs: 396174703
  frame_id: ''
magnetic_x: -9958.3681640625
magnetic_y: 5180.671875
magnetic_z: 15876.47265625
---
header: 
  seq: 1777971
  stamp: 
    secs: 1722858935
    nsecs: 403174703
  frame_id: ''
magnetic_x: -9960.7197265625
magnetic_y: 5199.48779296875
magnetic_z: 15846.7685546875
---
header: 
  seq: 1777972
  stamp: 
    secs: 1722858935
    nsecs: 409174703
  frame_id: ''
magnetic_x: -9946.607421875
magnetic_y: 5231.6318359375
magnetic_z: 15846.7685546875
---
header: 
  seq: 1777973
  stamp: 
    secs: 1722858935
    nsecs: 415174703
  frame_id: ''
magnetic_x: -9936.0234375
magnetic_y: 5229.27978515625
magnetic_z: 15981.384765625
---
header: 
  seq: 1777974
  stamp: 
    secs: 1722858935
    nsecs: 421174703
  frame_id: ''
magnetic_x: -9944.6474609375
magnetic_y: 5180.27978515625
magnetic_z: 16104.625
---
header: 
  seq: 1777975
  stamp: 
    secs: 1722858935
    nsecs: 427174703
  frame_id: ''
magnetic_x: -9958.3681640625
magnetic_y: 5132.84765625
magnetic_z: 16122.953125
---
header: 
  seq: 1777976
  stamp: 
    secs: 1722858935
    nsecs: 433174703
  frame_id: ''
magnetic_x: -9964.248046875
magnetic_y: 5089.3359375
magnetic_z: 16139.384765625
---
header: 
  seq: 1777977
  stamp: 
    secs: 1722858935
    nsecs: 439174703
  frame_id: ''
magnetic_x: -9990.9033203125
magnetic_y: 5045.0400390625
magnetic_z: 16126.1123046875
---
header: 
  seq: 1777978
  stamp: 
    secs: 1722858935
    nsecs: 446174703
  frame_id: ''
magnetic_x: -9994.0400390625
magnetic_y: 5077.57568359375
magnetic_z: 16028.78515625
---
header: 
  seq: 1777979
  stamp: 
    secs: 1722858935
    nsecs: 452174703
  frame_id: ''
magnetic_x: -9973.263671875
magnetic_y: 5152.44775390625
magnetic_z: 15949.78515625
---
header: 
  seq: 1777980
  stamp: 
    secs: 1722858935
    nsecs: 458174703
  frame_id: ''
magnetic_x: -9955.6240234375
magnetic_y: 5233.19970703125
magnetic_z: 15895.4326171875
---
header: 
  seq: 1777981
  stamp: 
    secs: 1722858935
    nsecs: 464174703
  frame_id: ''
magnetic_x: -9932.8876953125
magnetic_y: 5266.52001953125
magnetic_z: 15877.1044921875
---
header: 
  seq: 1777982
  stamp: 
    secs: 1722858935
    nsecs: 470174703
  frame_id: ''
magnetic_x: -9933.671875
magnetic_y: 5247.31201171875
magnetic_z: 15899.224609375
---
header: 
  seq: 1777983
  stamp: 
    secs: 1722858935
    nsecs: 476174703
  frame_id: ''
magnetic_x: -9949.744140625
magnetic_y: 5161.4638671875
magnetic_z: 16010.45703125
---
header: 
  seq: 1777984
  stamp: 
    secs: 1722858935
    nsecs: 483174703
  frame_id: ''
magnetic_x: -9979.5361328125
magnetic_y: 5092.86376953125
magnetic_z: 16135.5927734375
---
header: 
  seq: 1777985
  stamp: 
    secs: 1722858935
    nsecs: 489174703
  frame_id: ''
magnetic_x: -9968.9521484375
magnetic_y: 5069.73583984375
magnetic_z: 16172.880859375
---
header: 
  seq: 1777986
  stamp: 
    secs: 1722858935
    nsecs: 495174703
  frame_id: ''
magnetic_x: -9974.439453125
magnetic_y: 5083.4560546875
magnetic_z: 16188.6806640625
---
header: 
  seq: 1777987
  stamp: 
    secs: 1722858935
    nsecs: 501174703
  frame_id: ''
magnetic_x: -9959.935546875
magnetic_y: 5138.72802734375
magnetic_z: 16122.953125
---
header: 
  seq: 1777988
  stamp: 
    secs: 1722858935
    nsecs: 507174703
  frame_id: ''
magnetic_x: -9950.1357421875
magnetic_y: 5195.17578125
magnetic_z: 15993.392578125
---
header: 
  seq: 1777989
  stamp: 
    secs: 1722858935
    nsecs: 513174703
  frame_id: ''
magnetic_x: -9954.83984375
magnetic_y: 5224.9677734375
magnetic_z: 15896.6962890625
---
header: 
  seq: 1777990
  stamp: 
    secs: 1722858935
    nsecs: 519174703
  frame_id: ''
magnetic_x: -9957.9755859375
magnetic_y: 5223.0078125
magnetic_z: 15832.8642578125
---
header: 
  seq: 1777991
  stamp: 
    secs: 1722858935
    nsecs: 526174703
  frame_id: ''
magnetic_x: -9959.935546875
magnetic_y: 5195.56787109375
magnetic_z: 15854.984375
---
header: 
  seq: 1777992
  stamp: 
    secs: 1722858935
    nsecs: 532174703
  frame_id: ''
magnetic_x: -9951.7041015625
magnetic_y: 5173.2236328125
magnetic_z: 15971.904296875
---
header: 
  seq: 1777993
  stamp: 
    secs: 1722858935
    nsecs: 538174703
  frame_id: ''
magnetic_x: -9964.6396484375
magnetic_y: 5135.98388671875
magnetic_z: 16129.904296875
---
header: 
  seq: 1777994
  stamp: 
    secs: 1722858935
    nsecs: 544174703
  frame_id: ''
magnetic_x: -9961.8955078125
magnetic_y: 5103.44775390625
magnetic_z: 16197.5283203125
---
header: 
  seq: 1777995
  stamp: 
    secs: 1722858935
    nsecs: 550174703
  frame_id: ''
magnetic_x: -9963.85546875
magnetic_y: 5085.416015625
magnetic_z: 16190.5771484375
---
header: 
  seq: 1777996
  stamp: 
    secs: 1722858935
    nsecs: 556174703
  frame_id: ''
magnetic_x: -9982.279296875
magnetic_y: 5104.6240234375
magnetic_z: 16114.736328125
---
header: 
  seq: 1777997
  stamp: 
    secs: 1722858935
    nsecs: 562174703
  frame_id: ''
magnetic_x: -9969.34375
magnetic_y: 5148.1357421875
magnetic_z: 15984.544921875
---
header: 
  seq: 1777998
  stamp: 
    secs: 1722858935
    nsecs: 569174703
  frame_id: ''
magnetic_x: -9948.5673828125
magnetic_y: 5216.73583984375
magnetic_z: 15851.8251953125
---
header: 
  seq: 1777999
  stamp: 
    secs: 1722858935
    nsecs: 575174703
  frame_id: ''
magnetic_x: -9937.9833984375
magnetic_y: 5246.1357421875
magnetic_z: 15842.9765625
---
header: 
  seq: 1778000
  stamp: 
    secs: 1722858935
    nsecs: 581174703
  frame_id: ''
magnetic_x: -9950.1357421875
magnetic_y: 5225.35986328125
magnetic_z: 15904.2802734375
---
header: 
  seq: 1778001
  stamp: 
    secs: 1722858935
    nsecs: 587174703
  frame_id: ''
magnetic_x: -9961.111328125
magnetic_y: 5163.81591796875
magnetic_z: 16019.3046875
---
header: 
  seq: 1778002
  stamp: 
    secs: 1722858935
    nsecs: 592174703
  frame_id: ''
magnetic_x: -9988.5517578125
magnetic_y: 5089.3359375
magnetic_z: 16141.9130859375
---
header: 
  seq: 1778003
  stamp: 
    secs: 1722858935
    nsecs: 598174703
  frame_id: ''
magnetic_x: -9988.943359375
magnetic_y: 5058.36767578125
magnetic_z: 16167.1923828125
---
header: 
  seq: 1778004
  stamp: 
    secs: 1722858935
    nsecs: 604174703
  frame_id: ''
magnetic_x: -9972.8720703125
magnetic_y: 5088.94384765625
magnetic_z: 16134.9609375
---
header: 
  seq: 1778005
  stamp: 
    secs: 1722858935
    nsecs: 611174703
  frame_id: ''
magnetic_x: -9952.4873046875
magnetic_y: 5144.2158203125
magnetic_z: 16076.1845703125
---
header: 
  seq: 1778006
  stamp: 
    secs: 1722858935
    nsecs: 617174703
  frame_id: ''
magnetic_x: -9953.271484375
magnetic_y: 5212.81591796875
magnetic_z: 16006.6650390625
---
header: 
  seq: 1778007
  stamp: 
    secs: 1722858935
    nsecs: 623174703
  frame_id: ''
magnetic_x: -9941.9033203125
magnetic_y: 5244.9599609375
magnetic_z: 15936.5126953125
---
header: 
  seq: 1778008
  stamp: 
    secs: 1722858935
    nsecs: 629174703
  frame_id: ''
magnetic_x: -9942.6875
magnetic_y: 5234.76806640625
magnetic_z: 15917.552734375
---
header: 
  seq: 1778009
  stamp: 
    secs: 1722858935
    nsecs: 635174703
  frame_id: ''
magnetic_x: -9969.34375
magnetic_y: 5199.48779296875
magnetic_z: 15910.6005859375
---
header: 
  seq: 1778010
  stamp: 
    secs: 1722858935
    nsecs: 641174703
  frame_id: ''
magnetic_x: -9965.8154296875
magnetic_y: 5158.32763671875
magnetic_z: 15963.056640625
---
header: 
  seq: 1778011
  stamp: 
    secs: 1722858935
    nsecs: 647174703
  frame_id: ''
magnetic_x: -9980.7119140625
magnetic_y: 5115.60009765625
magnetic_z: 16052.1689453125
---
header: 
  seq: 1778012
  stamp: 
    secs: 1722858935
    nsecs: 654174703
  frame_id: ''
magnetic_x: -9979.5361328125
magnetic_y: 5084.23974609375
magnetic_z: 16121.6884765625
---
header: 
  seq: 1778013
  stamp: 
    secs: 1722858935
    nsecs: 660174703
  frame_id: ''
magnetic_x: -9968.5595703125
magnetic_y: 5096.0
magnetic_z: 16161.5048828125
---
header: 
  seq: 1778014
  stamp: 
    secs: 1722858935
    nsecs: 666174703
  frame_id: ''
magnetic_x: -9962.2880859375
magnetic_y: 5117.95166015625
magnetic_z: 16143.80859375
---
header: 
  seq: 1778015
  stamp: 
    secs: 1722858935
    nsecs: 672174703
  frame_id: ''
magnetic_x: -9945.82421875
magnetic_y: 5178.31982421875
magnetic_z: 16060.384765625
---
header: 
  seq: 1778016
  stamp: 
    secs: 1722858935
    nsecs: 678174703
  frame_id: ''
magnetic_x: -9928.18359375
magnetic_y: 5245.35205078125
magnetic_z: 15956.1044921875
---
header: 
  seq: 1778017
  stamp: 
    secs: 1722858935
    nsecs: 684174703
  frame_id: ''
magnetic_x: -9930.927734375
magnetic_y: 5256.32763671875
magnetic_z: 15894.80078125
---
header: 
  seq: 1778018
  stamp: 
    secs: 1722858935
    nsecs: 690174703
  frame_id: ''
magnetic_x: -9948.5673828125
magnetic_y: 5227.31982421875
magnetic_z: 15899.224609375
---
header: 
  seq: 1778019
  stamp: 
    secs: 1722858935
    nsecs: 697174703
  frame_id: ''
magnetic_x: -9954.0556640625
magnetic_y: 5160.6796875
magnetic_z: 15924.5048828125
---
header: 
  seq: 1778020
  stamp: 
    secs: 1722858935
    nsecs: 703174703
  frame_id: ''
magnetic_x: -9980.3193359375
magnetic_y: 5091.68798828125
magnetic_z: 16045.8486328125
---
header: 
  seq: 1778021
  stamp: 
    secs: 1722858935
    nsecs: 709174703
  frame_id: ''
magnetic_x: -10001.4873046875
magnetic_y: 5055.6240234375
magnetic_z: 16166.560546875
---
header: 
  seq: 1778022
  stamp: 
    secs: 1722858935
    nsecs: 715174703
  frame_id: ''
magnetic_x: -9981.49609375
magnetic_y: 5073.263671875
magnetic_z: 16180.46484375
---
header: 
  seq: 1778023
  stamp: 
    secs: 1722858935
    nsecs: 721174703
  frame_id: ''
magnetic_x: -9955.2314453125
magnetic_y: 5131.671875
magnetic_z: 16128.0087890625
---
header: 
  seq: 1778024
  stamp: 
    secs: 1722858935
    nsecs: 727174703
  frame_id: ''
magnetic_x: -9934.4560546875
magnetic_y: 5197.52783203125
magnetic_z: 16043.953125
---
header: 
  seq: 1778025
  stamp: 
    secs: 1722858935
    nsecs: 733174703
  frame_id: ''
magnetic_x: -9942.2958984375
magnetic_y: 5235.5517578125
magnetic_z: 15949.78515625
---
header: 
  seq: 1778026
  stamp: 
    secs: 1722858935
    nsecs: 740174703
  frame_id: ''
magnetic_x: -9949.744140625
magnetic_y: 5234.76806640625
magnetic_z: 15906.80859375
---
header: 
  seq: 1778027
  stamp: 
    secs: 1722858935
    nsecs: 746174703
  frame_id: ''
magnetic_x: -9952.8798828125
magnetic_y: 5210.07177734375
magnetic_z: 15920.0810546875
---
header: 
  seq: 1778028
  stamp: 
    secs: 1722858935
    nsecs: 752174703
  frame_id: ''
magnetic_x: -9976.7919921875
magnetic_y: 5161.4638671875
magnetic_z: 15959.2646484375
---
header: 
  seq: 1778029
  stamp: 
    secs: 1722858935
    nsecs: 758174703
  frame_id: ''
magnetic_x: -9984.6318359375
magnetic_y: 5114.423828125
magnetic_z: 16045.216796875
---
header: 
  seq: 1778030
  stamp: 
    secs: 1722858935
    nsecs: 764174703
  frame_id: ''
magnetic_x: -9987.3759765625
magnetic_y: 5093.64794921875
magnetic_z: 16100.201171875
---
header: 
  seq: 1778031
  stamp: 
    secs: 1722858935
    nsecs: 770174703
  frame_id: ''
magnetic_x: -9994.431640625
magnetic_y: 5093.255859375
magnetic_z: 16127.376953125
---
header: 
  seq: 1778032
  stamp: 
    secs: 1722858935
    nsecs: 776174703
  frame_id: ''
magnetic_x: -9969.34375
magnetic_y: 5127.35986328125
magnetic_z: 16100.8330078125
---
header: 
  seq: 1778033
  stamp: 
    secs: 1722858935
    nsecs: 783174703
  frame_id: ''
magnetic_x: -9951.3115234375
magnetic_y: 5176.35986328125
magnetic_z: 16045.216796875
---
header: 
  seq: 1778034
  stamp: 
    secs: 1722858935
    nsecs: 789174703
  frame_id: ''
magnetic_x: -9937.2001953125
magnetic_y: 5211.248046875
magnetic_z: 15982.0166015625
---
header: 
  seq: 1778035
  stamp: 
    secs: 1722858935
    nsecs: 795174703
  frame_id: ''
magnetic_x: -9931.3193359375
magnetic_y: 5256.7197265625
magnetic_z: 15954.208984375
---
header: 
  seq: 1778036
  stamp: 
    secs: 1722858935
    nsecs: 801174703
  frame_id: ''
magnetic_x: -9940.7275390625
magnetic_y: 5224.9677734375
magnetic_z: 15925.7685546875
---
header: 
  seq: 1778037
  stamp: 
    secs: 1722858935
    nsecs: 807174703
  frame_id: ''
magnetic_x: -9965.0322265625
magnetic_y: 5170.47998046875
magnetic_z: 15959.896484375
---
header: 
  seq: 1778038
  stamp: 
    secs: 1722858935
    nsecs: 813174703
  frame_id: ''
magnetic_x: -9971.3037109375
magnetic_y: 5114.81591796875
magnetic_z: 16024.3603515625
---
header: 
  seq: 1778039
  stamp: 
    secs: 1722858935
    nsecs: 819174703
  frame_id: ''
magnetic_x: -9986.9833984375
magnetic_y: 5052.48779296875
magnetic_z: 16095.7763671875
---
header: 
  seq: 1778040
  stamp: 
    secs: 1722858935
    nsecs: 826174703
  frame_id: ''
magnetic_x: -9996.7841796875
magnetic_y: 5065.81591796875
magnetic_z: 16126.7451171875
---
header: 
  seq: 1778041
  stamp: 
    secs: 1722858935
    nsecs: 832174703
  frame_id: ''
magnetic_x: -9973.6552734375
magnetic_y: 5108.93603515625
magnetic_z: 16117.2646484375
---
header: 
  seq: 1778042
  stamp: 
    secs: 1722858935
    nsecs: 838174703
  frame_id: ''
magnetic_x: -9954.0556640625
magnetic_y: 5184.98388671875
magnetic_z: 16022.46484375
---
header: 
  seq: 1778043
  stamp: 
    secs: 1722858935
    nsecs: 844174703
  frame_id: ''
magnetic_x: -9930.1435546875
magnetic_y: 5238.2958984375
magnetic_z: 15968.7451171875
---
header: 
  seq: 1778044
  stamp: 
    secs: 1722858935
    nsecs: 850174703
  frame_id: ''
magnetic_x: -9931.3193359375
magnetic_y: 5250.44775390625
magnetic_z: 15963.6884765625
---
header: 
  seq: 1778045
  stamp: 
    secs: 1722858935
    nsecs: 855174703
  frame_id: ''
magnetic_x: -9943.86328125
magnetic_y: 5219.8720703125
magnetic_z: 15934.6171875
---
header: 
  seq: 1778046
  stamp: 
    secs: 1722858935
    nsecs: 861174703
  frame_id: ''
magnetic_x: -9963.4638671875
magnetic_y: 5163.81591796875
magnetic_z: 15978.224609375
---
header: 
  seq: 1778047
  stamp: 
    secs: 1722858935
    nsecs: 868174703
  frame_id: ''
magnetic_x: -9986.2001953125
magnetic_y: 5106.583984375
magnetic_z: 16052.80078125
---
header: 
  seq: 1778048
  stamp: 
    secs: 1722858935
    nsecs: 874174703
  frame_id: ''
magnetic_x: -9990.1201171875
magnetic_y: 5079.14404296875
magnetic_z: 16095.14453125
---
header: 
  seq: 1778049
  stamp: 
    secs: 1722858935
    nsecs: 880174703
  frame_id: ''
magnetic_x: -9981.49609375
magnetic_y: 5096.0
magnetic_z: 16126.7451171875
---
header: 
  seq: 1778050
  stamp: 
    secs: 1722858935
    nsecs: 886174703
  frame_id: ''
magnetic_x: -9970.1279296875
magnetic_y: 5109.7197265625
magnetic_z: 16113.47265625
---
header: 
  seq: 1778051
  stamp: 
    secs: 1722858935
    nsecs: 892174703
  frame_id: ''
magnetic_x: -9956.015625
magnetic_y: 5166.16796875
magnetic_z: 16036.369140625
---
header: 
  seq: 1778052
  stamp: 
    secs: 1722858935
    nsecs: 898174703
  frame_id: ''
magnetic_x: -9950.1357421875
magnetic_y: 5213.2080078125
magnetic_z: 15958.6328125
---
header: 
  seq: 1778053
  stamp: 
    secs: 1722858935
    nsecs: 904174703
  frame_id: ''
magnetic_x: -9945.431640625
magnetic_y: 5228.49609375
magnetic_z: 15944.0966796875
---
header: 
  seq: 1778054
  stamp: 
    secs: 1722858935
    nsecs: 911174703
  frame_id: ''
magnetic_x: -9941.9033203125
