header: 
  seq: 1
  stamp: 
    secs: 1722858949
    nsecs: 876568078
  frame_id: ''
twist: 
  linear: 
    x: 0.5555376283329024
    y: 0.08259670674889323
    z: 0.0
  angular: 
    x: 0.0
    y: 0.0
    z: 0.0
---
header: 
  seq: 2
  stamp: 
    secs: 1722858949
    nsecs: 886946201
  frame_id: ''
twist: 
  linear: 
    x: 0.5556936127489609
    y: 0.08278561372021745
    z: 0.0
  angular: 
    x: 0.0
    y: 0.0
    z: 0.0
---
header: 
  seq: 3
  stamp: 
    secs: 1722858949
    nsecs: 899374008
  frame_id: ''
twist: 
  linear: 
    x: 0.555635893199799
    y: 0.08265992244061342
    z: 0.0
  angular: 
    x: 0.0
    y: 0.0
    z: 0.0
---
header: 
  seq: 4
  stamp: 
    secs: 1722858949
    nsecs: 914909601
  frame_id: ''
twist: 
  linear: 
    x: 0.5557147006570184
    y: 0.0825893445698229
    z: 0.0
  angular: 
    x: 0.0
    y: 0.0
    z: 0.0
---
header: 
  seq: 5
  stamp: 
    secs: 1722858949
    nsecs: 932658195
  frame_id: ''
twist: 
  linear: 
    x: 0.555787122027954
    y: 0.08258967041075237
    z: 0.0
  angular: 
    x: 0.0
    y: 0.0
    z: 0.0
---
header: 
  seq: 6
  stamp: 
    secs: 1722858949
    nsecs: 943273067
  frame_id: ''
twist: 
  linear: 
    x: 0.5558416491167425
    y: 0.08263167136096519
    z: 0.0
  angular: 
    x: 0.0
    y: 0.0
    z: 0.0
---
header: 
  seq: 7
  stamp: 
    secs: 1722858949
    nsecs: 949429512
  frame_id: ''
twist: 
  linear: 
    x: 0.5557639233079342
    y: 0.0824522162596427
    z: 0.0
  angular: 
    x: 0.0
    y: 0.0
    z: 0.0
---
header: 
  seq: 8
  stamp: 
    secs: 1722858949
    nsecs: 965775251
  frame_id: ''
twist: 
  linear: 
    x: 0.5559270358937907
    y: 0.08264515285132701
    z: 0.0
  angular: 
    x: 0.0
    y: 0.0
    z: 0.0
---
header: 
  seq: 9
  stamp: 
    secs: 1722858949
    nsecs: 976876735
  frame_id: ''
twist: 
  linear: 
    x: 0.5558875494337621
    y: 0.08252897544602252
    z: 0.0
  angular: 
    x: 0.0
    y: 0.0
    z: 0.0
---
header: 
  seq: 10
  stamp: 
    secs: 1722858949
    nsecs: 984992504
  frame_id: ''
twist: 
  linear: 
    x: 0.5560241043147021
    y: 0.08264235479780618
    z: 0.0
  angular: 
    x: 0.0
    y: 0.0
    z: 0.0
---
header: 
  seq: 11
  stamp: 
    secs: 1722858949
    nsecs: 996791362
  frame_id: ''
twist: 
  linear: 
    x: 0.5560105458792804
    y: 0.08256719165298244
    z: 0.0
  angular: 
    x: 0.0
    y: 0.0
    z: 0.0
---
header: 
  seq: 12
  stamp: 
    secs: 1722858950
    nsecs:  14929771
  frame_id: ''
twist: 
  linear: 
    x: 0.5560448801513775
    y: 0.08257211967010042
    z: 0.0
  angular: 
    x: 0.0
    y: 0.0
    z: 0.0
---
header: 
  seq: 13
  stamp: 
    secs: 1722858950
    nsecs:  32269001
  frame_id: ''
twist: 
  linear: 
    x: 0.5559967878948968
    y: 0.0824499667872937
    z: 0.0
  angular: 
    x: 0.0
    y: 0.0
    z: 0.0
---
header: 
  seq: 14
  stamp: 
    secs: 1722858950
    nsecs:  45337438
  frame_id: ''
twist: 
  linear: 
    x: 0.5560635110227137
    y: 0.08250104006669066
    z: 0.0
  angular: 
    x: 0.0
    y: 0.0
    z: 0.0
---
header: 
  seq: 15
  stamp: 
    secs: 1722858950
    nsecs:  61128377
  frame_id: ''
twist: 
  linear: 
    x: 0.5560404523950899
    y: 0.08242295615966704
    z: 0.0
  angular: 
    x: 0.0
    y: 0.0
    z: 0.0
---
header: 
  seq: 16
  stamp: 
    secs: 1722858950
    nsecs:  78083515
  frame_id: ''
twist: 
  linear: 
    x: 0.5560628225665722
    y: 0.08239971831793515
    z: 0.0
  angular: 
    x: 0.0
    y: 0.0
    z: 0.0
---
header: 
  seq: 17
  stamp: 
    secs: 1722858950
    nsecs:  86960077
  frame_id: ''
twist: 
  linear: 
    x: 0.5562942782774982
    y: 0.08273746480725248
    z: 0.0
  angular: 
    x: 0.0
    y: 0.0
    z: 0.0
---
header: 
  seq: 18
  stamp: 
    secs: 1722858950
    nsecs:  96468448
  frame_id: ''
twist: 
  linear: 
    x: 0.5561088620492582
    y: 0.08237667407627215
    z: 0.0
  angular: 
    x: 0.0
    y: 0.0
    z: 0.0
---
header: 
  seq: 19
  stamp: 
    secs: 1722858950
    nsecs: 111846446
  frame_id: ''
twist: 
  linear: 
    x: 0.5562221464767041
    y: 0.08228810074997432
    z: 0.0
  angular: 
    x: 0.0
    y: 0.0
    z: 0.0
---
header: 
  seq: 20
  stamp: 
    secs: 1722858950
    nsecs: 126325607
  frame_id: ''
twist: 
  linear: 
    x: 0.5564579801038871
    y: 0.08245687398401262
    z: 0.0
  angular: 
    x: 0.0
    y: 0.0
    z: 0.0
---
header: 
  seq: 21
  stamp: 
    secs: 1722858950
    nsecs: 140117645
  frame_id: ''
twist: 
  linear: 
    x: 0.5563358652891066
    y: 0.08220574703663747
    z: 0.0
  angular: 
    x: 0.0
    y: 0.0
    z: 0.0
---
header: 
  seq: 22
  stamp: 
    secs: 1722858950
    nsecs: 153715848
  frame_id: ''
twist: 
  linear: 
    x: 0.5564794729613399
    y: 0.08204479148693583
    z: 0.0
  angular: 
    x: 0.0
    y: 0.0
    z: 0.0
---
header: 
  seq: 23
  stamp: 
    secs: 1722858950
    nsecs: 163357734
  frame_id: ''
twist: 
  linear: 
    x: 0.5565437420552912
    y: 0.08210535355028943
    z: 0.0
  angular: 
    x: 0.0
    y: 0.0
    z: 0.0
---
header: 
  seq: 24
  stamp: 
    secs: 1722858950
    nsecs: 176160573
  frame_id: ''
twist: 
  linear: 
    x: 0.5566218472582278
    y: 0.0821947735885572
    z: 0.0
  angular: 
    x: 0.0
    y: 0.0
    z: 0.0
---
header: 
  seq: 25
  stamp: 
    secs: 1722858950
    nsecs: 192507743
  frame_id: ''
twist: 
  linear: 
    x: 0.556684988128882
    y: 0.08197977875725714
    z: 0.0
  angular: 
    x: 0.0
    y: 0.0
    z: 0.0
---
header: 
  seq: 26
  stamp: 
    secs: 1722858950
    nsecs: 211508035
  frame_id: ''
twist: 
  linear: 
    x: 0.5567002086300424
    y: 0.0819051135268464
    z: 0.0
  angular: 
    x: 0.0
    y: 0.0
    z: 0.0
---
header: 
  seq: 27
  stamp: 
    secs: 1722858950
    nsecs: 224177360
  frame_id: ''
twist: 
  linear: 
    x: 0.5567265197871276
    y: 0.081904955592501
    z: 0.0
  angular: 
    x: 0.0
    y: 0.0
    z: 0.0
---
header: 
  seq: 28
  stamp: 
    secs: 1722858950
    nsecs: 246348857
  frame_id: ''
twist: 
  linear: 
    x: 0.5568412983487326
    y: 0.08186476443159459
    z: 0.0
  angular: 
    x: 0.0
    y: 0.0
    z: 0.0
---
header: 
  seq: 29
  stamp: 
    secs: 1722858950
    nsecs: 256774187
  frame_id: ''
twist: 
  linear: 
    x: 0.5568115995750751
    y: 0.08176077491384581
    z: 0.0
  angular: 
    x: 0.0
    y: 0.0
    z: 0.0
---
header: 
  seq: 30
  stamp: 
    secs: 1722858950
    nsecs: 266433238
  frame_id: ''
twist: 
  linear: 
    x: 0.5568438081552097
    y: 0.08177056181624955
    z: 0.0
  angular: 
    x: 0.0
    y: 0.0
    z: 0.0
---
header: 
  seq: 31
  stamp: 
    secs: 1722858950
    nsecs: 281496524
  frame_id: ''
twist: 
  linear: 
    x: 0.5568033579921197
    y: 0.08164727764390188
    z: 0.0
  angular: 
    x: 0.0
    y: 0.0
    z: 0.0
---
header: 
  seq: 32
  stamp: 
    secs: 1722858950
    nsecs: 298461437
  frame_id: ''
twist: 
  linear: 
    x: 0.556812674506511
    y: 0.08161017725441515
    z: 0.0
  angular: 
    x: 0.0
    y: 0.0
    z: 0.0
---
header: 
  seq: 33
  stamp: 
    secs: 1722858950
    nsecs: 314768791
  frame_id: ''
twist: 
  linear: 
    x: 0.5568462119065373
    y: 0.08162013790886279
    z: 0.0
  angular: 
    x: 0.0
    y: 0.0
    z: 0.0
---
header: 
  seq: 34
  stamp: 
    secs: 1722858950
    nsecs: 330635070
  frame_id: ''
twist: 
  linear: 
    x: 0.5568846294224129
    y: 0.08135214356419329
    z: 0.0
  angular: 
    x: 0.0
    y: 0.0
    z: 0.0
---
header: 
  seq: 35
  stamp: 
    secs: 1722858950
    nsecs: 342779636
  frame_id: ''
twist: 
  linear: 
    x: 0.55702325529145
    y: 0.0815833517379809
    z: 0.0
  angular: 
    x: 0.0
    y: 0.0
    z: 0.0
---
header: 
  seq: 36
  stamp: 
    secs: 1722858950
    nsecs: 361166000
  frame_id: ''
twist: 
  linear: 
    x: 0.5570468559111923
    y: 0.08157561109565488
    z: 0.0
  angular: 
    x: 0.0
    y: 0.0
    z: 0.0
---
header: 
  seq: 37
  stamp: 
    secs: 1722858950
    nsecs: 371893644
  frame_id: ''
twist: 
  linear: 
    x: 0.5571219985673909
    y: 0.08168297964415983
    z: 0.0
  angular: 
    x: 0.0
    y: 0.0
    z: 0.0
---
header: 
  seq: 38
  stamp: 
    secs: 1722858950
    nsecs: 380442142
  frame_id: ''
twist: 
  linear: 
    x: 0.5571438980964344
    y: 0.08166945279010637
    z: 0.0
  angular: 
    x: 0.0
    y: 0.0
    z: 0.0
---
header: 
  seq: 39
  stamp: 
    secs: 1722858950
    nsecs: 400379180
  frame_id: ''
twist: 
  linear: 
    x: 0.5572314704250592
    y: 0.08133724551058497
    z: 0.0
  angular: 
    x: 0.0
    y: 0.0
    z: 0.0
---
header: 
  seq: 40
  stamp: 
    secs: 1722858950
    nsecs: 412374734
  frame_id: ''
twist: 
  linear: 
    x: 0.5573184650438062
    y: 0.08144255403114359
    z: 0.0
  angular: 
    x: 0.0
    y: 0.0
    z: 0.0
---
header: 
  seq: 41
  stamp: 
    secs: 1722858950
    nsecs: 421288967
  frame_id: ''
twist: 
  linear: 
    x: 0.5573416053925236
    y: 0.08145162829631789
    z: 0.0
  angular: 
    x: 0.0
    y: 0.0
    z: 0.0
---
header: 
  seq: 42
  stamp: 
    secs: 1722858950
    nsecs: 428555488
  frame_id: ''
twist: 
  linear: 
    x: 0.557376867129143
    y: 0.08149792860087991
    z: 0.0
  angular: 
    x: 0.0
    y: 0.0
    z: 0.0
---
header: 
  seq: 43
  stamp: 
    secs: 1722858950
    nsecs: 441413879
  frame_id: ''
twist: 
  linear: 
    x: 0.5573359545484078
    y: 0.08135008034266827
    z: 0.0
  angular: 
    x: 0.0
    y: 0.0
    z: 0.0
---
header: 
  seq: 44
  stamp: 
    secs: 1722858950
    nsecs: 450463533
  frame_id: ''
twist: 
  linear: 
    x: 0.5573992535780303
    y: 0.08145197911711677
    z: 0.0
  angular: 
    x: 0.0
    y: 0.0
    z: 0.0
---
header: 
  seq: 45
  stamp: 
    secs: 1722858950
    nsecs: 462944507
  frame_id: ''
twist: 
  linear: 
    x: 0.5573675150300617
    y: 0.08133645297875516
    z: 0.0
  angular: 
    x: 0.0
    y: 0.0
    z: 0.0
---
header: 
  seq: 46
  stamp: 
    secs: 1722858950
    nsecs: 470288276
  frame_id: ''
twist: 
  linear: 
    x: 0.5573600959496401
    y: 0.08126452958370686
    z: 0.0
  angular: 
    x: 0.0
    y: 0.0
    z: 0.0
---
header: 
  seq: 47
  stamp: 
    secs: 1722858950
    nsecs: 486760377
  frame_id: ''
twist: 
  linear: 
    x: 0.557349815751985
    y: 0.0811827653806041
    z: 0.0
  angular: 
    x: 0.0
    y: 0.0
    z: 0.0
---
header: 
  seq: 48
  stamp: 
    secs: 1722858950
    nsecs: 499273300
  frame_id: ''
twist: 
  linear: 
    x: 0.5574478535671543
    y: 0.08136192253162805
    z: 0.0
  angular: 
    x: 0.0
    y: 0.0
    z: 0.0
---
header: 
  seq: 49
  stamp: 
    secs: 1722858950
    nsecs: 515222072
  frame_id: ''
twist: 
  linear: 
    x: 0.5573981102023338
    y: 0.0811932666711281
    z: 0.0
  angular: 
    x: 0.0
    y: 0.0
    z: 0.0
---
header: 
  seq: 50
  stamp: 
    secs: 1722858950
    nsecs: 526439189
  frame_id: ''
twist: 
  linear: 
    x: 0.5574131338291862
    y: 0.08117906568296694
    z: 0.0
  angular: 
    x: 0.0
    y: 0.0
    z: 0.0
---
header: 
  seq: 51
  stamp: 
    secs: 1722858950
    nsecs: 538252115
  frame_id: ''
twist: 
  linear: 
    x: 0.5574766634142875
    y: 0.08128338846407336
    z: 0.0
  angular: 
    x: 0.0
    y: 0.0
    z: 0.0
---
header: 
  seq: 52
  stamp: 
    secs: 1722858950
    nsecs: 547731876
  frame_id: ''
twist: 
  linear: 
    x: 0.5574452964234017
    y: 0.08115743432344834
    z: 0.0
  angular: 
    x: 0.0
    y: 0.0
    z: 0.0
---
header: 
  seq: 53
  stamp: 
    secs: 1722858950
    nsecs: 564567804
  frame_id: ''
twist: 
  linear: 
    x: 0.5574799539824916
    y: 0.08119833724252307
    z: 0.0
  angular: 
    x: 0.0
    y: 0.0
    z: 0.0
---
header: 
  seq: 54
  stamp: 
    secs: 1722858950
    nsecs: 576564788
  frame_id: ''
twist: 
  linear: 
    x: 0.5574801535184101
    y: 0.08114619650370843
    z: 0.0
  angular: 
    x: 0.0
    y: 0.0
    z: 0.0
---
header: 
  seq: 55
  stamp: 
    secs: 1722858950
    nsecs: 585362195
  frame_id: ''
twist: 
  linear: 
    x: 0.5575548918336003
    y: 0.08128742559811628
    z: 0.0
  angular: 
    x: 0.0
    y: 0.0
    z: 0.0
---
header: 
  seq: 56
  stamp: 
    secs: 1722858950
    nsecs: 603170156
  frame_id: ''
twist: 
  linear: 
    x: 0.5574852880218513
    y: 0.08107160368051655
    z: 0.0
  angular: 
    x: 0.0
    y: 0.0
    z: 0.0
---
header: 
  seq: 57
  stamp: 
    secs: 1722858950
    nsecs: 612684965
  frame_id: ''
twist: 
  linear: 
    x: 0.5575162811297987
    y: 0.08110667571980433
    z: 0.0
  angular: 
    x: 0.0
    y: 0.0
    z: 0.0
---
header: 
  seq: 58
  stamp: 
    secs: 1722858950
    nsecs: 630505323
  frame_id: ''
twist: 
  linear: 
    x: 0.5575589829591505
    y: 0.081118474267934
    z: 0.0
  angular: 
    x: 0.0
    y: 0.0
    z: 0.0
---
header: 
  seq: 59
  stamp: 
    secs: 1722858950
    nsecs: 640695810
  frame_id: ''
twist: 
  linear: 
    x: 0.5575939215668648
    y: 0.08116006389495557
    z: 0.0
  angular: 
    x: 0.0
    y: 0.0
    z: 0.0
---
header: 
  seq: 60
  stamp: 
    secs: 1722858950
    nsecs: 652092933
  frame_id: ''
twist: 
  linear: 
    x: 0.5575354083610214
    y: 0.0809602300783765
    z: 0.0
  angular: 
    x: 0.0
    y: 0.0
    z: 0.0
---
header: 
  seq: 61
  stamp: 
    secs: 1722858950
    nsecs: 674628496
  frame_id: ''
twist: 
  linear: 
    x: 0.5575775316728714
    y: 0.08087101986744735
    z: 0.0
  angular: 
    x: 0.0
    y: 0.0
    z: 0.0
---
header: 
  seq: 62
  stamp: 
    secs: 1722858950
    nsecs: 686574697
  frame_id: ''
twist: 
  linear: 
    x: 0.557640615463916
    y: 0.08098853188649556
    z: 0.0
  angular: 
    x: 0.0
    y: 0.0
    z: 0.0
---
header: 
  seq: 63
  stamp: 
    secs: 1722858950
    nsecs: 700150489
  frame_id: ''
twist: 
  linear: 
    x: 0.5576123141683704
    y: 0.08086130203137819
    z: 0.0
  angular: 
    x: 0.0
    y: 0.0
    z: 0.0
---
header: 
  seq: 64
  stamp: 
    secs: 1722858950
    nsecs: 748356342
  frame_id: ''
twist: 
  linear: 
    x: 0.55793874809589
    y: 0.08048384619130336
    z: 0.0
  angular: 
    x: 0.0
    y: 0.0
    z: 0.0
---
header: 
  seq: 65
  stamp: 
    secs: 1722858950
    nsecs: 759173393
  frame_id: ''
twist: 
  linear: 
    x: 0.5579294890488521
    y: 0.08040701945975552
    z: 0.0
  angular: 
    x: 0.0
    y: 0.0
    z: 0.0
---
header: 
  seq: 66
  stamp: 
    secs: 1722858950
    nsecs: 765619516
  frame_id: ''
twist: 
  linear: 
    x: 0.5579681749516038
    y: 0.08047168653120532
    z: 0.0
  angular: 
    x: 0.0
    y: 0.0
    z: 0.0
---
header: 
  seq: 67
  stamp: 
    secs: 1722858950
    nsecs: 788874149
  frame_id: ''
twist: 
  linear: 
    x: 0.5580265826895466
    y: 0.08042517243725673
    z: 0.0
  angular: 
    x: 0.0
    y: 0.0
    z: 0.0
---
header: 
  seq: 68
  stamp: 
    secs: 1722858950
    nsecs: 798416852
  frame_id: ''
twist: 
  linear: 
    x: 0.5579851722134668
    y: 0.08024595174151375
    z: 0.0
  angular: 
    x: 0.0
    y: 0.0
    z: 0.0
---
header: 
  seq: 69
  stamp: 
    secs: 1722858950
    nsecs: 817285060
  frame_id: ''
twist: 
  linear: 
    x: 0.558037305629851
    y: 0.0803538019795932
    z: 0.0
  angular: 
    x: 0.0
    y: 0.0
    z: 0.0
---
header: 
  seq: 70
  stamp: 
    secs: 1722858950
    nsecs: 831316709
  frame_id: ''
twist: 
  linear: 
    x: 0.5580762043920836
    y: 0.08020493699598727
    z: 0.0
  angular: 
    x: 0.0
    y: 0.0
    z: 0.0
---
header: 
  seq: 71
  stamp: 
    secs: 1722858950
    nsecs: 845599651
  frame_id: ''
twist: 
  linear: 
    x: 0.5580567158414865
    y: 0.08007772690089629
    z: 0.0
  angular: 
    x: 0.0
    y: 0.0
    z: 0.0
---
header: 
  seq: 72
  stamp: 
    secs: 1722858950
    nsecs: 860331296
  frame_id: ''
twist: 
  linear: 
    x: 0.5581142090857418
    y: 0.08023733427220356
    z: 0.0
  angular: 
    x: 0.0
    y: 0.0
    z: 0.0
---
header: 
  seq: 73
  stamp: 
    secs: 1722858950
    nsecs: 866039514
  frame_id: ''
twist: 
  linear: 
    x: 0.5580983535657684
    y: 0.08013355908690066
    z: 0.0
  angular: 
    x: 0.0
    y: 0.0
    z: 0.0
---
header: 
  seq: 74
  stamp: 
    secs: 1722858950
    nsecs: 888020038
  frame_id: ''
twist: 
  linear: 
    x: 0.5581261864162843
    y: 0.08018382944009814
    z: 0.0
  angular: 
    x: 0.0
    y: 0.0
    z: 0.0
---
header: 
  seq: 75
  stamp: 
    secs: 1722858950
    nsecs: 896546363
  frame_id: ''
twist: 
  linear: 
    x: 0.5581387947131132
    y: 0.08018103097103271
    z: 0.0
  angular: 
    x: 0.0
    y: 0.0
    z: 0.0
---
header: 
  seq: 76
  stamp: 
    secs: 1722858950
    nsecs: 915277242
  frame_id: ''
twist: 
  linear: 
    x: 0.558142519854238
    y: 0.08014674362864789
    z: 0.0
  angular: 
    x: 0.0
    y: 0.0
    z: 0.0
---
header: 
  seq: 77
  stamp: 
    secs: 1722858950
    nsecs: 931279897
  frame_id: ''
twist: 
  linear: 
    x: 0.5581929246918512
    y: 0.08027861785748694
    z: 0.0
  angular: 
    x: 0.0
    y: 0.0
    z: 0.0
---
header: 
  seq: 78
  stamp: 
    secs: 1722858950
    nsecs: 943424940
  frame_id: ''
twist: 
  linear: 
    x: 0.5581507170580522
    y: 0.0800621813986056
    z: 0.0
  angular: 
    x: 0.0
    y: 0.0
    z: 0.0
---
header: 
  seq: 79
  stamp: 
    secs: 1722858950
    nsecs: 959253549
  frame_id: ''
twist: 
  linear: 
    x: 0.5581668603195408
    y: 0.08007796478859958
    z: 0.0
  angular: 
    x: 0.0
    y: 0.0
    z: 0.0
---
header: 
  seq: 80
  stamp: 
    secs: 1722858950
    nsecs: 972609996
  frame_id: ''
twist: 
  linear: 
    x: 0.5582029815857
    y: 0.08016172286166479
    z: 0.0
  angular: 
    x: 0.0
    y: 0.0
    z: 0.0
---
header: 
  seq: 81
  stamp: 
    secs: 1722858951
    nsecs:   5266666
  frame_id: ''
twist: 
  linear: 
    x: 0.5583110465584074
    y: 0.0797581158103293
    z: 0.0
  angular: 
    x: 0.0
    y: 0.0
    z: 0.0
---
header: 
  seq: 82
  stamp: 
    secs: 1722858951
    nsecs:  18234968
  frame_id: ''
twist: 
  linear: 
    x: 0.5583424305686037
    y: 0.07984122067745353
    z: 0.0
  angular: 
    x: 0.0
    y: 0.0
    z: 0.0
---
header: 
  seq: 83
  stamp: 
    secs: 1722858951
    nsecs:  38469552
  frame_id: ''
twist: 
  linear: 
    x: 0.5583222965974772
    y: 0.07969947677225743
    z: 0.0
  angular: 
    x: 0.0
    y: 0.0
    z: 0.0
---
header: 
  seq: 84
  stamp: 
    secs: 1722858951
    nsecs:  49421310
  frame_id: ''
twist: 
  linear: 
    x: 0.5583640182005377
    y: 0.07982090861360291
    z: 0.0
  angular: 
    x: 0.0
    y: 0.0
    z: 0.0
---
header: 
  seq: 85
  stamp: 
    secs: 1722858951
    nsecs:  65589427
  frame_id: ''
twist: 
  linear: 
    x: 0.5583891734301856
    y: 0.07989916903122754
    z: 0.0
  angular: 
    x: 0.0
    y: 0.0
    z: 0.0
---
header: 
  seq: 86
  stamp: 
    secs: 1722858951
    nsecs:  78315258
  frame_id: ''
twist: 
  linear: 
    x: 0.5583813149802437
    y: 0.07981604282619194
    z: 0.0
  angular: 
    x: 0.0
    y: 0.0
    z: 0.0
---
header: 
  seq: 87
  stamp: 
    secs: 1722858951
    nsecs:  87091445
  frame_id: ''
twist: 
  linear: 
    x: 0.5583466272462744
    y: 0.07960369886058008
    z: 0.0
  angular: 
    x: 0.0
    y: 0.0
    z: 0.0
---
header: 
  seq: 88
  stamp: 
    secs: 1722858951
    nsecs: 108599662
  frame_id: ''
twist: 
  linear: 
    x: 0.5583767002949525
    y: 0.07970516346783342
    z: 0.0
  angular: 
    x: 0.0
    y: 0.0
    z: 0.0
---
header: 
  seq: 89
  stamp: 
    secs: 1722858951
    nsecs: 132613182
  frame_id: ''
twist: 
  linear: 
    x: 0.558457272213576
    y: 0.07955694576430958
    z: 0.0
  angular: 
    x: 0.0
    y: 0.0
    z: 0.0
---
header: 
  seq: 90
  stamp: 
    secs: 1722858951
    nsecs: 146274328
  frame_id: ''
twist: 
  linear: 
    x: 0.5584576283820267
    y: 0.07950300651368405
    z: 0.0
  angular: 
    x: 0.0
    y: 0.0
    z: 0.0
---
header: 
  seq: 91
  stamp: 
    secs: 1722858951
    nsecs: 155224561
  frame_id: ''
twist: 
  linear: 
    x: 0.5584552568223874
    y: 0.07942730239254045
    z: 0.0
  angular: 
    x: 0.0
    y: 0.0
    z: 0.0
---
header: 
  seq: 92
  stamp: 
    secs: 1722858951
    nsecs: 177375316
  frame_id: ''
twist: 
  linear: 
    x: 0.5584558256175843
    y: 0.07939496126564208
    z: 0.0
  angular: 
    x: 0.0
    y: 0.0
    z: 0.0
---
header: 
  seq: 93
  stamp: 
    secs: 1722858951
    nsecs: 186159372
  frame_id: ''
twist: 
  linear: 
    x: 0.5584438938188531
    y: 0.07929903361514665
    z: 0.0
  angular: 
    x: 0.0
    y: 0.0
    z: 0.0
---
header: 
  seq: 94
  stamp: 
    secs: 1722858951
    nsecs: 201306819
  frame_id: ''
twist: 
  linear: 
    x: 0.5584587904766815
    y: 0.07931149482272952
    z: 0.0
  angular: 
    x: 0.0
    y: 0.0
    z: 0.0
---
header: 
  seq: 95
  stamp: 
    secs: 1722858951
    nsecs: 217133760
  frame_id: ''
twist: 
  linear: 
    x: 0.5585037557139161
    y: 0.07927787013023227
    z: 0.0
  angular: 
    x: 0.0
    y: 0.0
    z: 0.0
---
header: 
  seq: 96
  stamp: 
    secs: 1722858951
    nsecs: 228745937
  frame_id: ''
twist: 
  linear: 
    x: 0.5584916670156115
    y: 0.07913965812552218
    z: 0.0
  angular: 
    x: 0.0
    y: 0.0
    z: 0.0
---
header: 
  seq: 97
  stamp: 
    secs: 1722858951
    nsecs: 243086576
  frame_id: ''
twist: 
  linear: 
    x: 0.5585424339791393
    y: 0.07939371671482462
    z: 0.0
  angular: 
    x: 0.0
    y: 0.0
    z: 0.0
---
header: 
  seq: 98
  stamp: 
    secs: 1722858951
    nsecs: 256599664
  frame_id: ''
twist: 
  linear: 
    x: 0.5585425140114755
    y: 0.0793288215419587
    z: 0.0
  angular: 
    x: 0.0
    y: 0.0
    z: 0.0
---
header: 
  seq: 99
  stamp: 
    secs: 1722858951
    nsecs: 265466451
  frame_id: ''
twist: 
  linear: 
    x: 0.5585455613662372
    y: 0.07930105779031664
    z: 0.0
  angular: 
    x: 0.0
    y: 0.0
    z: 0.0
---
header: 
  seq: 100
  stamp: 
    secs: 1722858951
    nsecs: 272620201
  frame_id: ''
twist: 
  linear: 
    x: 0.5585319846903241
    y: 0.07917604558067148
    z: 0.0
  angular: 
    x: 0.0
    y: 0.0
    z: 0.0
---
header: 
  seq: 101
  stamp: 
    secs: 1722858951
    nsecs: 284354209
  frame_id: ''
twist: 
  linear: 
    x: 0.5585415216792557
    y: 0.07919013354781622
    z: 0.0
  angular: 
    x: 0.0
    y: 0.0
    z: 0.0
---
header: 
  seq: 102
  stamp: 
    secs: 1722858951
    nsecs: 299621582
  frame_id: ''
twist: 
  linear: 
    x: 0.5585698791221103
    y: 0.07928541584535001
    z: 0.0
  angular: 
    x: 0.0
    y: 0.0
    z: 0.0
---
header: 
  seq: 103
  stamp: 
    secs: 1722858951
    nsecs: 317503452
  frame_id: ''
twist: 
  linear: 
    x: 0.5585440285605756
    y: 0.07906894601196246
    z: 0.0
  angular: 
    x: 0.0
    y: 0.0
    z: 0.0
---
header: 
  seq: 104
  stamp: 
    secs: 1722858951
    nsecs: 361725330
  frame_id: ''
twist: 
  linear: 
    x: 0.5586573833972172
    y: 0.07868916362483647
    z: 0.0
  angular: 
    x: 0.0
    y: 0.0
    z: 0.0
---
header: 
  seq: 105
  stamp: 
    secs: 1722858951
    nsecs: 373586654
  frame_id: ''
twist: 
  linear: 
    x: 0.5586688599473357
    y: 0.07870630088105486
    z: 0.0
  angular: 
    x: 0.0
    y: 0.0
    z: 0.0
---
header: 
  seq: 106
  stamp: 
    secs: 1722858951
    nsecs: 395557165
  frame_id: ''
twist: 
  linear: 
    x: 0.55866911539173
    y: 0.07857818391254638
    z: 0.0
  angular: 
    x: 0.0
    y: 0.0
    z: 0.0
---
header: 
  seq: 107
  stamp: 
    secs: 1722858951
    nsecs: 407460451
  frame_id: ''
twist: 
  linear: 
    x: 0.558679651140004
    y: 0.07862130839550419
    z: 0.0
  angular: 
    x: 0.0
    y: 0.0
    z: 0.0
---
header: 
  seq: 108
  stamp: 
    secs: 1722858951
    nsecs: 426424264
  frame_id: ''
twist: 
  linear: 
    x: 0.5586759042360256
    y: 0.0785251418820739
    z: 0.0
  angular: 
    x: 0.0
    y: 0.0
    z: 0.0
---
header: 
  seq: 109
  stamp: 
    secs: 1722858951
    nsecs: 434319734
  frame_id: ''
twist: 
  linear: 
    x: 0.5586701362177748
    y: 0.07843587707077602
    z: 0.0
  angular: 
    x: 0.0
    y: 0.0
    z: 0.0
---
header: 
  seq: 110
  stamp: 
    secs: 1722858951
    nsecs: 449023485
  frame_id: ''
twist: 
  linear: 
    x: 0.5586911714960823
    y: 0.07856354475710169
    z: 0.0
  angular: 
    x: 0.0
    y: 0.0
    z: 0.0
---
header: 
  seq: 111
  stamp: 
    secs: 1722858951
    nsecs: 461329221
  frame_id: ''
twist: 
  linear: 
    x: 0.5586893982406753
    y: 0.07851710931165168
    z: 0.0
  angular: 
    x: 0.0
    y: 0.0
    z: 0.0
---
header: 
  seq: 112
  stamp: 
    secs: 1722858951
    nsecs: 489798307
  frame_id: ''
twist: 
  linear: 
    x: 0.5587360269568987
    y: 0.07830231434899361
    z: 0.0
  angular: 
    x: 0.0
    y: 0.0
    z: 0.0
---
header: 
  seq: 113
  stamp: 
    secs: 1722858951
    nsecs: 498222112
  frame_id: ''
twist: 
  linear: 
    x: 0.558743507934394
    y: 0.07831340716414448
    z: 0.0
  angular: 
    x: 0.0
    y: 0.0
    z: 0.0
---
header: 
  seq: 114
  stamp: 
    secs: 1722858951
    nsecs: 507638692
  frame_id: ''
twist: 
  linear: 
    x: 0.558731948435647
    y: 0.07815066729402048
    z: 0.0
  angular: 
    x: 0.0
    y: 0.0
    z: 0.0
---
header: 
  seq: 115
  stamp: 
    secs: 1722858951
    nsecs: 518507242
  frame_id: ''
twist: 
  linear: 
    x: 0.5587491161293573
    y: 0.07825966399079552
    z: 0.0
  angular: 
    x: 0.0
    y: 0.0
    z: 0.0
---
header: 
  seq: 116
  stamp: 
    secs: 1722858951
    nsecs: 549091100
  frame_id: ''
twist: 
  linear: 
    x: 0.5587676842219716
    y: 0.07815335134612085
    z: 0.0
  angular: 
    x: 0.0
    y: 0.0
    z: 0.0
---
header: 
  seq: 117
  stamp: 
    secs: 1722858951
    nsecs: 566915750
  frame_id: ''
twist: 
  linear: 
    x: 0.5587686593394795
    y: 0.07810591817353006
    z: 0.0
  angular: 
    x: 0.0
    y: 0.0
    z: 0.0
---
header: 
  seq: 118
  stamp: 
    secs: 1722858951
    nsecs: 580516338
  frame_id: ''
twist: 
  linear: 
    x: 0.5587640212471517
    y: 0.0780410724095175
    z: 0.0
  angular: 
    x: 0.0
    y: 0.0
    z: 0.0
---
header: 
  seq: 119
  stamp: 
    secs: 1722858951
    nsecs: 594196557
  frame_id: ''
twist: 
  linear: 
    x: 0.5587597225871953
    y: 0.07792667445529378
    z: 0.0
  angular: 
    x: 0.0
    y: 0.0
    z: 0.0
---
header: 
  seq: 120
  stamp: 
    secs: 1722858951
    nsecs: 611072540
  frame_id: ''
twist: 
  linear: 
    x: 0.5587711801758981
    y: 0.07784394977461691
    z: 0.0
  angular: 
    x: 0.0
    y: 0.0
    z: 0.0
---
header: 
  seq: 121
  stamp: 
    secs: 1722858951
    nsecs: 618550777
  frame_id: ''
twist: 
  linear: 
    x: 0.5587827477567495
    y: 0.07793201301565855
    z: 0.0
  angular: 
    x: 0.0
    y: 0.0
    z: 0.0
---
header: 
  seq: 122
  stamp: 
    secs: 1722858951
    nsecs: 629645347
  frame_id: ''
twist: 
  linear: 
    x: 0.5587848074634293
    y: 0.0778348608544291
    z: 0.0
  angular: 
    x: 0.0
    y: 0.0
    z: 0.0
---
header: 
  seq: 123
  stamp: 
    secs: 1722858951
    nsecs: 646983146
  frame_id: ''
twist: 
  linear: 
    x: 0.5587919962668446
    y: 0.07785345611719899
    z: 0.0
  angular: 
    x: 0.0
    y: 0.0
    z: 0.0
---
header: 
  seq: 124
  stamp: 
    secs: 1722858951
    nsecs: 662922143
  frame_id: ''
twist: 
  linear: 
    x: 0.558760407711202
    y: 0.077485271060086
    z: 0.0
  angular: 
    x: 0.0
    y: 0.0
    z: 0.0
---
header: 
  seq: 125
  stamp: 
    secs: 1722858951
    nsecs: 674295186
  frame_id: ''
twist: 
  linear: 
    x: 0.5588077298614219
    y: 0.07793090289338109
    z: 0.0
  angular: 
    x: 0.0
    y: 0.0
    z: 0.0
---
header: 
  seq: 126
  stamp: 
    secs: 1722858951
    nsecs: 690373897
  frame_id: ''
twist: 
  linear: 
    x: 0.5587839287693166
    y: 0.07759913466732804
    z: 0.0
  angular: 
    x: 0.0
    y: 0.0
    z: 0.0
---
header: 
  seq: 127
  stamp: 
    secs: 1722858951
    nsecs: 698743820
  frame_id: ''
twist: 
  linear: 
    x: 0.5587978221166776
    y: 0.07771655561713023
    z: 0.0
  angular: 
    x: 0.0
    y: 0.0
    z: 0.0
---
header: 
  seq: 128
  stamp: 
    secs: 1722858951
    nsecs: 734998703
  frame_id: ''
twist: 
  linear: 
    x: 0.5588341820422502
    y: 0.07757716267825637
    z: 0.0
  angular: 
    x: 0.0
    y: 0.0
    z: 0.0
---
header: 
  seq: 129
  stamp: 
    secs: 1722858951
    nsecs: 749562025
  frame_id: ''
twist: 
  linear: 
    x: 0.558834332890799
    y: 0.07752953836799134
    z: 0.0
  angular: 
    x: 0.0
    y: 0.0
    z: 0.0
---
header: 
  seq: 130
  stamp: 
    secs: 1722858951
    nsecs: 764090299
  frame_id: ''
twist: 
  linear: 
    x: 0.5588305962846638
    y: 0.07743625154485645
    z: 0.0
  angular: 
    x: 0.0
    y: 0.0
    z: 0.0
---
header: 
  seq: 131
  stamp: 
    secs: 1722858951
    nsecs: 780290603
  frame_id: ''
twist: 
  linear: 
    x: 0.5588353810588642
    y: 0.07728547088621997
    z: 0.0
  angular: 
    x: 0.0
    y: 0.0
    z: 0.0
---
header: 
  seq: 132
  stamp: 
    secs: 1722858951
    nsecs: 792689561
  frame_id: ''
twist: 
  linear: 
    x: 0.5588363948442767
    y: 0.07727352974962924
    z: 0.0
  angular: 
    x: 0.0
    y: 0.0
    z: 0.0
---
header: 
  seq: 133
  stamp: 
    secs: 1722858951
    nsecs: 810355901
  frame_id: ''
twist: 
  linear: 
    x: 0.5588383718201045
    y: 0.07728292401830636
    z: 0.0
  angular: 
    x: 0.0
    y: 0.0
    z: 0.0
---
header: 
  seq: 134
  stamp: 
    secs: 1722858951
    nsecs: 817203521
  frame_id: ''
twist: 
  linear: 
    x: 0.5588418973295773
    y: 0.07722491386291735
    z: 0.0
  angular: 
    x: 0.0
    y: 0.0
    z: 0.0
---
header: 
  seq: 135
  stamp: 
    secs: 1722858951
    nsecs: 826404571
  frame_id: ''
twist: 
  linear: 
    x: 0.5588398667774983
    y: 0.07717013778402781
    z: 0.0
  angular: 
    x: 0.0
    y: 0.0
    z: 0.0
---
header: 
  seq: 136
  stamp: 
    secs: 1722858951
    nsecs: 841480970
  frame_id: ''
twist: 
  linear: 
    x: 0.5588398939239614
    y: 0.07709843046439806
    z: 0.0
  angular: 
    x: 0.0
    y: 0.0
    z: 0.0
---
header: 
  seq: 137
  stamp: 
    secs: 1722858951
    nsecs: 855439424
  frame_id: ''
twist: 
  linear: 
    x: 0.5588448355182906
    y: 0.07712689440672488
    z: 0.0
  angular: 
    x: 0.0
    y: 0.0
    z: 0.0
---
header: 
  seq: 138
  stamp: 
    secs: 1722858951
    nsecs: 875147104
  frame_id: ''
twist: 
  linear: 
    x: 0.5588497287354022
    y: 0.07720597272960837
    z: 0.0
  angular: 
    x: 0.0
    y: 0.0
    z: 0.0
---
header: 
  seq: 139
  stamp: 
    secs: 1722858951
    nsecs: 885276556
  frame_id: ''
twist: 
  linear: 
    x: 0.5588466336713407
    y: 0.07708170887082871
    z: 0.0
  angular: 
    x: 0.0
    y: 0.0
    z: 0.0
---
header: 
  seq: 140
  stamp: 
    secs: 1722858951
    nsecs: 896104097
  frame_id: ''
twist: 
  linear: 
    x: 0.5588420045939436
    y: 0.07699854887651902
    z: 0.0
  angular: 
    x: 0.0
    y: 0.0
    z: 0.0
---
header: 
  seq: 141
  stamp: 
    secs: 1722858951
    nsecs: 912023544
  frame_id: ''
twist: 
  linear: 
    x: 0.5588390229410041
    y: 0.07694151881888307
    z: 0.0
  angular: 
    x: 0.0
    y: 0.0
    z: 0.0
---
header: 
  seq: 142
  stamp: 
    secs: 1722858951
    nsecs: 927624940
  frame_id: ''
twist: 
  linear: 
    x: 0.5588469951750543
    y: 0.07704671191401544
    z: 0.0
  angular: 
    x: 0.0
    y: 0.0
    z: 0.0
---
header: 
  seq: 143
  stamp: 
    secs: 1722858951
    nsecs: 934624195
  frame_id: ''
twist: 
  linear: 
    x: 0.5588469118263829
    y: 0.07701881123314493
    z: 0.0
  angular: 
    x: 0.0
    y: 0.0
    z: 0.0
---
header: 
  seq: 144
  stamp: 
    secs: 1722858951
    nsecs: 951581001
  frame_id: ''
twist: 
  linear: 
    x: 0.5588485826128728
    y: 0.07699367540482492
    z: 0.0
  angular: 
    x: 0.0
    y: 0.0
    z: 0.0
---
header: 
  seq: 145
  stamp: 
    secs: 1722858951
    nsecs: 994478702
  frame_id: ''
twist: 
  linear: 
    x: 0.558886191874572
    y: 0.07643978395725631
    z: 0.0
  angular: 
    x: 0.0
    y: 0.0
    z: 0.0
---
header: 
  seq: 146
  stamp: 
    secs: 1722858952
    nsecs:   1052379
  frame_id: ''
twist: 
  linear: 
    x: 0.5588927662257155
    y: 0.07649709496454687
    z: 0.0
  angular: 
    x: 0.0
    y: 0.0
    z: 0.0
---
header: 
  seq: 147
  stamp: 
    secs: 1722858952
    nsecs:  14841556
  frame_id: ''
twist: 
  linear: 
    x: 0.5588996017978977
    y: 0.07645844688079886
    z: 0.0
  angular: 
    x: 0.0
    y: 0.0
    z: 0.0
---
header: 
  seq: 148
  stamp: 
    secs: 1722858952
    nsecs:  31517267
  frame_id: ''
twist: 
  linear: 
    x: 0.5589002613336671
    y: 0.07640737843197584
    z: 0.0
  angular: 
    x: 0.0
    y: 0.0
    z: 0.0
---
header: 
  seq: 149
  stamp: 
    secs: 1722858952
    nsecs:  40194749
  frame_id: ''
twist: 
  linear: 
    x: 0.5589000858892609
    y: 0.07642890930424107
    z: 0.0
  angular: 
    x: 0.0
    y: 0.0
    z: 0.0
---
header: 
  seq: 150
  stamp: 
    secs: 1722858952
    nsecs:  48645734
  frame_id: ''
twist: 
  linear: 
    x: 0.5588932060579852
    y: 0.07626278506545903
    z: 0.0
  angular: 
    x: 0.0
    y: 0.0
    z: 0.0
---
header: 
  seq: 151
  stamp: 
    secs: 1722858952
    nsecs:  70674419
  frame_id: ''
twist: 
  linear: 
    x: 0.5589027282328727
    y: 0.07650126213163852
    z: 0.0
  angular: 
    x: 0.0
    y: 0.0
    z: 0.0
---
header: 
  seq: 152
  stamp: 
    secs: 1722858952
    nsecs:  81325054
  frame_id: ''
twist: 
  linear: 
    x: 0.5588945666235123
    y: 0.07629739962845736
    z: 0.0
  angular: 
    x: 0.0
    y: 0.0
    z: 0.0
---
header: 
  seq: 153
  stamp: 
    secs: 1722858952
    nsecs:  96171855
  frame_id: ''
twist: 
  linear: 
    x: 0.5588962262380889
    y: 0.07614470564625377
    z: 0.0
  angular: 
    x: 0.0
    y: 0.0
    z: 0.0
---
header: 
  seq: 154
  stamp: 
    secs: 1722858952
    nsecs: 112195014
  frame_id: ''
twist: 
  linear: 
    x: 0.5589067049672052
    y: 0.07624826413756558
    z: 0.0
  angular: 
    x: 0.0
    y: 0.0
    z: 0.0
---
header: 
  seq: 155
  stamp: 
    secs: 1722858952
    nsecs: 120728492
  frame_id: ''
twist: 
  linear: 
    x: 0.5589126754079231
    y: 0.07631512493983594
    z: 0.0
  angular: 
    x: 0.0
    y: 0.0
    z: 0.0
---
header: 
  seq: 156
  stamp: 
    secs: 1722858952
    nsecs: 141254425
  frame_id: ''
twist: 
  linear: 
    x: 0.5589104628830839
    y: 0.07611206851593089
    z: 0.0
  angular: 
    x: 0.0
    y: 0.0
    z: 0.0
---
header: 
  seq: 157
  stamp: 
    secs: 1722858952
    nsecs: 154757261
  frame_id: ''
twist: 
  linear: 
    x: 0.5589139936956417
    y: 0.07625012556272513
    z: 0.0
  angular: 
    x: 0.0
    y: 0.0
    z: 0.0
---
header: 
  seq: 158
  stamp: 
    secs: 1722858952
    nsecs: 174648046
  frame_id: ''
twist: 
  linear: 
    x: 0.558913597939884
    y: 0.0760422519671268
    z: 0.0
  angular: 
    x: 0.0
    y: 0.0
    z: 0.0
---
header: 
  seq: 159
  stamp: 
    secs: 1722858952
    nsecs: 188826084
  frame_id: ''
twist: 
  linear: 
    x: 0.5589253033968599
    y: 0.07608844886662892
    z: 0.0
  angular: 
    x: 0.0
    y: 0.0
    z: 0.0
---
header: 
  seq: 160
  stamp: 
    secs: 1722858952
    nsecs: 200937986
  frame_id: ''
twist: 
  linear: 
    x: 0.5589260191788438
    y: 0.07605374657712433
    z: 0.0
  angular: 
    x: 0.0
    y: 0.0
    z: 0.0
---
header: 
  seq: 161
  stamp: 
    secs: 1722858952
    nsecs: 210413455
  frame_id: ''
twist: 
  linear: 
    x: 0.5589317572811022
    y: 0.07610542355732361
    z: 0.0
  angular: 
    x: 0.0
    y: 0.0
    z: 0.0
---
header: 
  seq: 162
  stamp: 
    secs: 1722858952
    nsecs: 232348203
  frame_id: ''
twist: 
  linear: 
    x: 0.5589445991943088
    y: 0.07612394388386026
    z: 0.0
  angular: 
    x: 0.0
    y: 0.0
    z: 0.0
---
header: 
  seq: 163
  stamp: 
    secs: 1722858952
    nsecs: 245471239
  frame_id: ''
twist: 
  linear: 
    x: 0.5589407693952271
    y: 0.07594857261918184
    z: 0.0
  angular: 
    x: 0.0
    y: 0.0
    z: 0.0
---
header: 
  seq: 164
  stamp: 
    secs: 1722858952
    nsecs: 261354684
  frame_id: ''
twist: 
  linear: 
    x: 0.5589429539289207
    y: 0.07587702899257465
    z: 0.0
  angular: 
    x: 0.0
    y: 0.0
    z: 0.0
---
header: 
  seq: 165
  stamp: 
    secs: 1722858952
    nsecs: 271368265
  frame_id: ''
twist: 
  linear: 
    x: 0.5589464661871846
    y: 0.07595677546737925
    z: 0.0
  angular: 
    x: 0.0
    y: 0.0
    z: 0.0
---
header: 
  seq: 166
  stamp: 
    secs: 1722858952
    nsecs: 285059690
  frame_id: ''
twist: 
  linear: 
    x: 0.5589442115675034
    y: 0.07580267659297807
    z: 0.0
  angular: 
    x: 0.0
    y: 0.0
    z: 0.0
---
header: 
  seq: 167
  stamp: 
    secs: 1722858952
    nsecs: 294995784
  frame_id: ''
twist: 
  linear: 
    x: 0.5589477436417932
    y: 0.0759289670694315
    z: 0.0
  angular: 
    x: 0.0
    y: 0.0
    z: 0.0
---
header: 
  seq: 168
  stamp: 
    secs: 1722858952
    nsecs: 301589012
  frame_id: ''
twist: 
  linear: 
    x: 0.5589433317670635
    y: 0.07572909285283602
    z: 0.0
  angular: 
    x: 0.0
    y: 0.0
    z: 0.0
---
header: 
  seq: 169
  stamp: 
    secs: 1722858952
    nsecs: 321500301
  frame_id: ''
twist: 
  linear: 
    x: 0.5589470624854431
    y: 0.07591310546622124
    z: 0.0
  angular: 
    x: 0.0
    y: 0.0
    z: 0.0
---
header: 
  seq: 170
  stamp: 
    secs: 1722858952
    nsecs: 334732532
  frame_id: ''
twist: 
  linear: 
    x: 0.558943718092653
    y: 0.07564971413044866
    z: 0.0
  angular: 
    x: 0.0
    y: 0.0
    z: 0.0
---
header: 
  seq: 171
  stamp: 
    secs: 1722858952
    nsecs: 349087476
  frame_id: ''
twist: 
  linear: 
    x: 0.5589433380408954
    y: 0.07553112321100823
    z: 0.0
  angular: 
    x: 0.0
    y: 0.0
    z: 0.0
---
header: 
  seq: 172
  stamp: 
    secs: 1722858952
    nsecs: 365729570
  frame_id: ''
twist: 
  linear: 
    x: 0.5589493828450651
    y: 0.0755769656491541
    z: 0.0
  angular: 
    x: 0.0
    y: 0.0
    z: 0.0
---
header: 
  seq: 173
  stamp: 
    secs: 1722858952
    nsecs: 373208761
  frame_id: ''
twist: 
  linear: 
    x: 0.5589541296635022
    y: 0.07574309409869089
    z: 0.0
  angular: 
    x: 0.0
    y: 0.0
    z: 0.0
---
header: 
  seq: 174
  stamp: 
    secs: 1722858952
    nsecs: 385164737
  frame_id: ''
twist: 
  linear: 
    x: 0.5589359725605506
    y: 0.07495198651018056
    z: 0.0
  angular: 
    x: 0.0
    y: 0.0
    z: 0.0
---
header: 
  seq: 175
  stamp: 
    secs: 1722858952
    nsecs: 400520086
  frame_id: ''
twist: 
  linear: 
    x: 0.5589463466532915
    y: 0.07536740073281031
    z: 0.0
  angular: 
    x: 0.0
    y: 0.0
    z: 0.0
---
header: 
  seq: 176
  stamp: 
    secs: 1722858952
    nsecs: 423253774
  frame_id: ''
twist: 
  linear: 
    x: 0.5589410152565156
    y: 0.0751881447151667
    z: 0.0
  angular: 
    x: 0.0
    y: 0.0
    z: 0.0
---
header: 
  seq: 177
  stamp: 
    secs: 1722858952
    nsecs: 434202909
  frame_id: ''
twist: 
  linear: 
    x: 0.5589449193952659
    y: 0.07501576859427979
    z: 0.0
  angular: 
    x: 0.0
    y: 0.0
    z: 0.0
---
header: 
  seq: 178
  stamp: 
    secs: 1722858952
    nsecs: 446614742
  frame_id: ''
twist: 
  linear: 
    x: 0.5589411223499321
    y: 0.07490631655602889
    z: 0.0
  angular: 
    x: 0.0
    y: 0.0
    z: 0.0
---
header: 
  seq: 179
  stamp: 
    secs: 1722858952
    nsecs: 467564344
  frame_id: ''
twist: 
  linear: 
    x: 0.5589402572294832
    y: 0.07467200450478668
    z: 0.0
  angular: 
    x: 0.0
    y: 0.0
    z: 0.0
---
header: 
  seq: 180
  stamp: 
    secs: 1722858952
    nsecs: 482387304
  frame_id: ''
twist: 
  linear: 
    x: 0.5589475269115941
    y: 0.07484351627260188
    z: 0.0
  angular: 
    x: 0.0
    y: 0.0
    z: 0.0
---
header: 
  seq: 181
  stamp: 
    secs: 1722858952
    nsecs: 499533414
  frame_id: ''
twist: 
  linear: 
    x: 0.5589508352011098
    y: 0.07483953725129472
    z: 0.0
  angular: 
    x: 0.0
    y: 0.0
    z: 0.0
---
header: 
  seq: 182
  stamp: 
    secs: 1722858952
    nsecs: 510258197
  frame_id: ''
twist: 
  linear: 
    x: 0.5589533352182068
    y: 0.07484585509139051
    z: 0.0
  angular: 
    x: 0.0
    y: 0.0
    z: 0.0
---
header: 
  seq: 183
  stamp: 
    secs: 1722858952
    nsecs: 526393890
  frame_id: ''
twist: 
  linear: 
    x: 0.5589544812038488
    y: 0.07483450709837317
    z: 0.0
  angular: 
    x: 0.0
    y: 0.0
    z: 0.0
---
header: 
  seq: 184
  stamp: 
    secs: 1722858952
    nsecs: 540502786
  frame_id: ''
twist: 
  linear: 
    x: 0.5589564520404611
    y: 0.07486745211067533
    z: 0.0
  angular: 
    x: 0.0
    y: 0.0
    z: 0.0
---
header: 
  seq: 185
  stamp: 
    secs: 1722858952
    nsecs: 551160573
  frame_id: ''
twist: 
  linear: 
    x: 0.5589572858398103
    y: 0.07487740091852318
    z: 0.0
  angular: 
    x: 0.0
    y: 0.0
    z: 0.0
---
header: 
  seq: 186
  stamp: 
    secs: 1722858952
    nsecs: 564247608
  frame_id: ''
twist: 
  linear: 
    x: 0.5589562674930904
    y: 0.07480535489231138
    z: 0.0
  angular: 
    x: 0.0
    y: 0.0
    z: 0.0
---
header: 
  seq: 187
  stamp: 
    secs: 1722858952
    nsecs: 574491739
  frame_id: ''
twist: 
  linear: 
    x: 0.5589526914523493
    y: 0.07466173772821595
    z: 0.0
  angular: 
    x: 0.0
    y: 0.0
    z: 0.0
---
header: 
  seq: 188
  stamp: 
    secs: 1722858952
    nsecs: 584434032
  frame_id: ''
twist: 
  linear: 
    x: 0.5589529978360327
    y: 0.07462540485248467
    z: 0.0
  angular: 
    x: 0.0
    y: 0.0
    z: 0.0
---
header: 
  seq: 189
  stamp: 
    secs: 1722858952
    nsecs: 604207038
  frame_id: ''
twist: 
  linear: 
    x: 0.5589535744158578
    y: 0.0746009126210765
    z: 0.0
  angular: 
    x: 0.0
    y: 0.0
    z: 0.0
---
header: 
  seq: 190
  stamp: 
    secs: 1722858952
    nsecs: 623512268
  frame_id: ''
twist: 
  linear: 
    x: 0.5589529455037998
    y: 0.0745021992893411
    z: 0.0
  angular: 
    x: 0.0
    y: 0.0
    z: 0.0
---
header: 
  seq: 191
  stamp: 
    secs: 1722858952
    nsecs: 645143747
  frame_id: ''
twist: 
  linear: 
    x: 0.5589551190836545
    y: 0.07448289587096288
    z: 0.0
  angular: 
    x: 0.0
    y: 0.0
    z: 0.0
---
header: 
  seq: 192
  stamp: 
    secs: 1722858952
    nsecs: 667642354
  frame_id: ''
twist: 
  linear: 
    x: 0.5589776949925737
    y: 0.07415992647769121
    z: 0.0
  angular: 
    x: 0.0
    y: 0.0
    z: 0.0
---
header: 
  seq: 193
  stamp: 
    secs: 1722858952
    nsecs: 677528381
  frame_id: ''
twist: 
  linear: 
    x: 0.5589803414298559
    y: 0.07409145933073132
    z: 0.0
  angular: 
    x: 0.0
    y: 0.0
    z: 0.0
---
header: 
  seq: 194
  stamp: 
    secs: 1722858952
    nsecs: 688959836
  frame_id: ''
twist: 
  linear: 
    x: 0.5589848451750179
    y: 0.07401324919171992
    z: 0.0
  angular: 
    x: 0.0
    y: 0.0
    z: 0.0
---
header: 
  seq: 195
  stamp: 
    secs: 1722858952
    nsecs: 701977252
  frame_id: ''
twist: 
  linear: 
    x: 0.5589921529779562
    y: 0.07418540425011898
    z: 0.0
  angular: 
    x: 0.0
    y: 0.0
    z: 0.0
---
header: 
  seq: 196
  stamp: 
    secs: 1722858952
    nsecs: 723205089
  frame_id: ''
twist: 
  linear: 
    x: 0.5589805218264772
    y: 0.0737621251450743
    z: 0.0
  angular: 
    x: 0.0
    y: 0.0
    z: 0.0
---
header: 
  seq: 197
  stamp: 
    secs: 1722858952
    nsecs: 742289781
  frame_id: ''
twist: 
  linear: 
    x: 0.5589852107964615
    y: 0.07395091302371135
    z: 0.0
  angular: 
    x: 0.0
    y: 0.0
    z: 0.0
---
header: 
  seq: 198
  stamp: 
    secs: 1722858952
    nsecs: 754649877
  frame_id: ''
twist: 
  linear: 
    x: 0.5589838881756551
    y: 0.07388630085794613
    z: 0.0
  angular: 
    x: 0.0
    y: 0.0
    z: 0.0
---
header: 
  seq: 199
  stamp: 
    secs: 1722858952
    nsecs: 773629426
  frame_id: ''
twist: 
  linear: 
    x: 0.5589891571667365
    y: 0.07397679187747325
    z: 0.0
  angular: 
    x: 0.0
    y: 0.0
    z: 0.0
---
header: 
  seq: 200
  stamp: 
    secs: 1722858952
    nsecs: 785188198
  frame_id: ''
twist: 
  linear: 
    x: 0.5589813246956361
    y: 0.07374937929525796
    z: 0.0
  angular: 
    x: 0.0
    y: 0.0
    z: 0.0
---
header: 
  seq: 201
  stamp: 
    secs: 1722858952
    nsecs: 811318874
  frame_id: ''
twist: 
  linear: 
    x: 0.5589926099682296
    y: 0.07398251665329338
    z: 0.0
  angular: 
    x: 0.0
    y: 0.0
    z: 0.0
---
header: 
  seq: 202
  stamp: 
    secs: 1722858952
    nsecs: 832556247
  frame_id: ''
twist: 
  linear: 
    x: 0.5589870094339388
    y: 0.07373769328726179
    z: 0.0
  angular: 
    x: 0.0
    y: 0.0
    z: 0.0
---
header: 
  seq: 203
  stamp: 
    secs: 1722858952
    nsecs: 874454498
  frame_id: ''
twist: 
  linear: 
    x: 0.5590048764805959
    y: 0.07321946617860635
    z: 0.0
  angular: 
    x: 0.0
    y: 0.0
    z: 0.0
---
header: 
  seq: 204
  stamp: 
    secs: 1722858952
    nsecs: 901586532
  frame_id: ''
twist: 
  linear: 
    x: 0.5590055287997029
    y: 0.0733088633660485
    z: 0.0
  angular: 
    x: 0.0
    y: 0.0
    z: 0.0
---
header: 
  seq: 205
  stamp: 
    secs: 1722858952
    nsecs: 919508457
  frame_id: ''
twist: 
  linear: 
    x: 0.5590015632610019
    y: 0.07325221812615273
    z: 0.0
  angular: 
    x: 0.0
    y: 0.0
    z: 0.0
---
header: 
  seq: 206
  stamp: 
    secs: 1722858952
    nsecs: 931077718
  frame_id: ''
twist: 
  linear: 
    x: 0.5590012674229188
    y: 0.07324149177598556
    z: 0.0
  angular: 
    x: 0.0
    y: 0.0
    z: 0.0
---
header: 
  seq: 207
  stamp: 
    secs: 1722858952
    nsecs: 945213556
  frame_id: ''
twist: 
  linear: 
    x: 0.5589968539040229
    y: 0.07312727482630105
    z: 0.0
  angular: 
    x: 0.0
    y: 0.0
    z: 0.0
---
header: 
  seq: 208
  stamp: 
    secs: 1722858952
    nsecs: 957812547
  frame_id: ''
twist: 
  linear: 
    x: 0.559006443073069
    y: 0.07327622083563029
    z: 0.0
  angular: 
    x: 0.0
    y: 0.0
    z: 0.0
---
header: 
  seq: 209
  stamp: 
    secs: 1722858952
    nsecs: 978131532
  frame_id: ''
twist: 
  linear: 
    x: 0.5589964164427114
    y: 0.07300547037029027
    z: 0.0
  angular: 
    x: 0.0
    y: 0.0
    z: 0.0
---
header: 
  seq: 210
  stamp: 
    secs: 1722858952
    nsecs: 989708185
  frame_id: ''
twist: 
  linear: 
    x: 0.5590089131108277
    y: 0.07321932772635051
    z: 0.0
  angular: 
    x: 0.0
    y: 0.0
    z: 0.0
---
header: 
  seq: 211
  stamp: 
    secs: 1722858953
    nsecs:  11501073
  frame_id: ''
twist: 
  linear: 
    x: 0.5590026271608319
    y: 0.072942339011272
    z: 0.0
  angular: 
    x: 0.0
    y: 0.0
    z: 0.0
---
header: 
  seq: 212
  stamp: 
    secs: 1722858953
    nsecs:  22224664
  frame_id: ''
twist: 
  linear: 
    x: 0.5590172771607771
    y: 0.07322347962247092
    z: 0.0
  angular: 
    x: 0.0
    y: 0.0
    z: 0.0
---
header: 
  seq: 213
  stamp: 
    secs: 1722858953
    nsecs:  29704093
  frame_id: ''
twist: 
  linear: 
    x: 0.5590139018075404
    y: 0.07307086245798493
    z: 0.0
  angular: 
    x: 0.0
    y: 0.0
    z: 0.0
---
header: 
  seq: 214
  stamp: 
    secs: 1722858953
    nsecs:  51330804
  frame_id: ''
twist: 
  linear: 
    x: 0.5590197524540149
    y: 0.0726745390109903
    z: 0.0
  angular: 
    x: 0.0
    y: 0.0
    z: 0.0
---
header: 
  seq: 215
  stamp: 
    secs: 1722858953
    nsecs:  60635089
  frame_id: ''
twist: 
  linear: 
    x: 0.5590142211493109
    y: 0.07251175637521544
    z: 0.0
  angular: 
    x: 0.0
    y: 0.0
    z: 0.0
---
header: 
  seq: 216
  stamp: 
    secs: 1722858953
    nsecs:  75987339
  frame_id: ''
twist: 
  linear: 
    x: 0.5590154950192043
    y: 0.0725375851964583
    z: 0.0
  angular: 
    x: 0.0
    y: 0.0
    z: 0.0
---
header: 
  seq: 217
  stamp: 
    secs: 1722858953
    nsecs:  84554910
  frame_id: ''
twist: 
  linear: 
    x: 0.559029651204579
    y: 0.07289926718420955
    z: 0.0
  angular: 
    x: 0.0
    y: 0.0
    z: 0.0
---
header: 
  seq: 218
  stamp: 
    secs: 1722858953
    nsecs:  95641613
  frame_id: ''
twist: 
  linear: 
    x: 0.5590178123051195
    y: 0.07258328126735798
    z: 0.0
  angular: 
    x: 0.0
    y: 0.0
    z: 0.0
---
header: 
  seq: 219
  stamp: 
    secs: 1722858953
    nsecs: 104401826
  frame_id: ''
twist: 
  linear: 
    x: 0.5590303406046961
    y: 0.0728531222018804
    z: 0.0
  angular: 
    x: 0.0
    y: 0.0
    z: 0.0
---
header: 
  seq: 220
  stamp: 
    secs: 1722858953
    nsecs: 120428562
  frame_id: ''
twist: 
  linear: 
    x: 0.5590150778867413
    y: 0.07256901045353596
    z: 0.0
  angular: 
    x: 0.0
    y: 0.0
    z: 0.0
---
header: 
  seq: 221
  stamp: 
    secs: 1722858953
    nsecs: 141731262
  frame_id: ''
twist: 
  linear: 
    x: 0.5590357074489906
    y: 0.07267963099944028
    z: 0.0
  angular: 
    x: 0.0
    y: 0.0
    z: 0.0
---
header: 
  seq: 222
  stamp: 
    secs: 1722858953
    nsecs: 168378591
  frame_id: ''
twist: 
  linear: 
    x: 0.5590297054445624
    y: 0.07258000241857071
    z: 0.0
  angular: 
    x: 0.0
    y: 0.0
    z: 0.0
---
header: 
  seq: 223
  stamp: 
    secs: 1722858953
    nsecs: 186316251
  frame_id: ''
twist: 
  linear: 
    x: 0.5590372650212423
    y: 0.07275695079466768
    z: 0.0
  angular: 
    x: 0.0
    y: 0.0
    z: 0.0
---
header: 
  seq: 224
  stamp: 
    secs: 1722858953
    nsecs: 201636791
  frame_id: ''
twist: 
  linear: 
    x: 0.5590322031337682
    y: 0.0726500506471245
    z: 0.0
  angular: 
    x: 0.0
    y: 0.0
    z: 0.0
---
header: 
  seq: 225
  stamp: 
    secs: 1722858953
    nsecs: 226560354
  frame_id: ''
twist: 
  linear: 
    x: 0.5590386404387565
    y: 0.07245403103664733
    z: 0.0
  angular: 
    x: 0.0
    y: 0.0
    z: 0.0
---
header: 
  seq: 226
  stamp: 
    secs: 1722858953
    nsecs: 235407352
  frame_id: ''
twist: 
  linear: 
    x: 0.5590411771919076
    y: 0.07248172723439784
    z: 0.0
  angular: 
    x: 0.0
    y: 0.0
    z: 0.0
---
header: 
  seq: 227
  stamp: 
    secs: 1722858953
    nsecs: 245662927
  frame_id: ''
twist: 
  linear: 
    x: 0.5590464519403902
    y: 0.07257260284747506
    z: 0.0
  angular: 
    x: 0.0
    y: 0.0
    z: 0.0
---
header: 
  seq: 228
  stamp: 
    secs: 1722858953
    nsecs: 273010730
  frame_id: ''
twist: 
  linear: 
    x: 0.559035866644856
    y: 0.07238038137210176
    z: 0.0
  angular: 
    x: 0.0
    y: 0.0
    z: 0.0
---
header: 
  seq: 229
  stamp: 
    secs: 1722858953
    nsecs: 284010410
  frame_id: ''
twist: 
  linear: 
    x: 0.559041689269324
    y: 0.07251849662220287
    z: 0.0
  angular: 
    x: 0.0
    y: 0.0
    z: 0.0
---
header: 
  seq: 230
  stamp: 
    secs: 1722858953
    nsecs: 299281358
  frame_id: ''
twist: 
  linear: 
    x: 0.5590371161744083
    y: 0.07242819797819708
    z: 0.0
  angular: 
    x: 0.0
    y: 0.0
    z: 0.0
---
header: 
  seq: 231
  stamp: 
    secs: 1722858953
    nsecs: 326856613
  frame_id: ''
twist: 
  linear: 
    x: 0.5590440713384492
    y: 0.0724989276501214
    z: 0.0
  angular: 
    x: 0.0
    y: 0.0
    z: 0.0
---
header: 
  seq: 232
  stamp: 
    secs: 1722858953
    nsecs: 340724229
  frame_id: ''
twist: 
  linear: 
    x: 0.5590337865425105
    y: 0.07229760714075138
    z: 0.0
  angular: 
    x: 0.0
    y: 0.0
    z: 0.0
---
header: 
  seq: 233
  stamp: 
    secs: 1722858953
    nsecs: 381378412
  frame_id: ''
twist: 
  linear: 
    x: 0.5590433162051172
    y: 0.07240707500668273
    z: 0.0
  angular: 
    x: 0.0
    y: 0.0
    z: 0.0
---
header: 
  seq: 234
  stamp: 
    secs: 1722858953
    nsecs: 405572175
  frame_id: ''
twist: 
  linear: 
    x: 0.5590414664860706
    y: 0.07235534422590914
    z: 0.0
  angular: 
    x: 0.0
    y: 0.0
    z: 0.0
---
header: 
  seq: 235
  stamp: 
    secs: 1722858953
    nsecs: 460933208
  frame_id: ''
twist: 
  linear: 
    x: 0.5591245173563328
    y: 0.07102595592885173
    z: 0.0
  angular: 
    x: 0.0
    y: 0.0
    z: 0.0
---
header: 
  seq: 236
  stamp: 
    secs: 1722858953
    nsecs: 482243776
  frame_id: ''
twist: 
  linear: 
    x: 0.5591369170520966
    y: 0.07096784849517765
    z: 0.0
  angular: 
    x: 0.0
    y: 0.0
    z: 0.0
---
header: 
  seq: 237
  stamp: 
    secs: 1722858953
    nsecs: 500650644
  frame_id: ''
twist: 
  linear: 
    x: 0.5591220235713297
    y: 0.07075748635466128
    z: 0.0
  angular: 
    x: 0.0
    y: 0.0
    z: 0.0
---
header: 
  seq: 238
  stamp: 
    secs: 1722858953
    nsecs: 519294261
  frame_id: ''
twist: 
  linear: 
    x: 0.5591364284666748
    y: 0.07087635223125599
    z: 0.0
  angular: 
    x: 0.0
    y: 0.0
    z: 0.0
---
header: 
  seq: 239
  stamp: 
    secs: 1722858953
    nsecs: 546946525
  frame_id: ''
twist: 
  linear: 
    x: 0.5591365536466157
    y: 0.07080403447445652
    z: 0.0
  angular: 
    x: 0.0
    y: 0.0
    z: 0.0
---
header: 
  seq: 240
  stamp: 
    secs: 1722858953
    nsecs: 585660696
  frame_id: ''
twist: 
  linear: 
    x: 0.55915015422268
    y: 0.07022034660184313
    z: 0.0
  angular: 
    x: 0.0
    y: 0.0
    z: 0.0
---
header: 
  seq: 241
  stamp: 
    secs: 1722858953
    nsecs: 633128881
  frame_id: ''
twist: 
  linear: 
    x: 0.5591555889407175
    y: 0.07008453589733403
    z: 0.0
  angular: 
    x: 0.0
    y: 0.0
    z: 0.0
---
header: 
  seq: 242
  stamp: 
    secs: 1722858953
    nsecs: 648751497
  frame_id: ''
twist: 
  linear: 
    x: 0.5591924490871328
    y: 0.07038223651606314
    z: 0.0
  angular: 
    x: 0.0
    y: 0.0
    z: 0.0
---
header: 
  seq: 243
  stamp: 
    secs: 1722858953
    nsecs: 662054061
  frame_id: ''
twist: 
  linear: 
    x: 0.5591947263538692
    y: 0.07034174391055954
    z: 0.0
  angular: 
    x: 0.0
    y: 0.0
    z: 0.0
---
header: 
  seq: 244
  stamp: 
    secs: 1722858953
    nsecs: 682678222
  frame_id: ''
twist: 
  linear: 
    x: 0.5592029755645792
    y: 0.07002068786560633
    z: 0.0
  angular: 
    x: 0.0
    y: 0.0
    z: 0.0
---
header: 
  seq: 245
  stamp: 
    secs: 1722858953
    nsecs: 698158025
  frame_id: ''
twist: 
  linear: 
    x: 0.5591765278469258
    y: 0.06973798534801712
    z: 0.0
  angular: 
    x: 0.0
    y: 0.0
    z: 0.0
---
header: 
  seq: 246
  stamp: 
    secs: 1722858953
    nsecs: 714205741
  frame_id: ''
twist: 
  linear: 
    x: 0.5592206930322925
    y: 0.06987701827187766
    z: 0.0
  angular: 
    x: 0.0
    y: 0.0
    z: 0.0
---
header: 
  seq: 247
  stamp: 
    secs: 1722858953
    nsecs: 730594873
  frame_id: ''
twist: 
  linear: 
    x: 0.5591762327922226
    y: 0.06943374035198123
    z: 0.0
  angular: 
    x: 0.0
    y: 0.0
    z: 0.0
---
header: 
  seq: 248
  stamp: 
    secs: 1722858953
    nsecs: 754507541
  frame_id: ''
twist: 
  linear: 
    x: 0.5592150635644823
    y: 0.06952827902355689
    z: 0.0
  angular: 
    x: 0.0
    y: 0.0
    z: 0.0
---
header: 
  seq: 249
  stamp: 
    secs: 1722858953
    nsecs: 778362512
  frame_id: ''
twist: 
  linear: 
    x: 0.5592631745266305
    y: 0.06986727882452778
    z: 0.0
  angular: 
    x: 0.0
    y: 0.0
    z: 0.0
---
header: 
  seq: 250
  stamp: 
    secs: 1722858953
    nsecs: 802458763
  frame_id: ''
twist: 
  linear: 
    x: 0.5591928004868668
    y: 0.06924263061239755
    z: 0.0
  angular: 
    x: 0.0
    y: 0.0
    z: 0.0
---
header: 
  seq: 251
  stamp: 
    secs: 1722858953
    nsecs: 834046602
  frame_id: ''
twist: 
  linear: 
    x: 0.5592280536297496
    y: 0.0695006101674915
    z: 0.0
  angular: 
    x: 0.0
    y: 0.0
    z: 0.0
---
header: 
  seq: 252
  stamp: 
    secs: 1722858953
    nsecs: 850228309
  frame_id: ''
twist: 
  linear: 
    x: 0.5592329340689017
    y: 0.06949995801544889
    z: 0.0
  angular: 
    x: 0.0
    y: 0.0
    z: 0.0
---
header: 
  seq: 253
  stamp: 
    secs: 1722858953
    nsecs: 893465042
  frame_id: ''
twist: 
  linear: 
    x: 0.5592863685423248
    y: 0.06894144485875679
    z: 0.0
  angular: 
    x: 0.0
    y: 0.0
    z: 0.0
---
header: 
  seq: 254
  stamp: 
    secs: 1722858953
    nsecs: 916672468
  frame_id: ''
twist: 
  linear: 
    x: 0.5593112147031513
    y: 0.06907465724910819
    z: 0.0
  angular: 
    x: 0.0
    y: 0.0
    z: 0.0
---
header: 
  seq: 255
  stamp: 
    secs: 1722858953
    nsecs: 945102453
  frame_id: ''
twist: 
  linear: 
    x: 0.55932795927479
    y: 0.06914758852068267
    z: 0.0
  angular: 
    x: 0.0
    y: 0.0
    z: 0.0
---
header: 
  seq: 256
  stamp: 
    secs: 1722858953
    nsecs: 954029798
  frame_id: ''
twist: 
  linear: 
    x: 0.5593284153076555
    y: 0.06910152500481029
    z: 0.0
  angular: 
    x: 0.0
    y: 0.0
    z: 0.0
---
header: 
  seq: 257
  stamp: 
    secs: 1722858953
    nsecs: 981293678
  frame_id: ''
twist: 
  linear: 
    x: 0.5593387685654087
    y: 0.06912051253788774
    z: 0.0
  angular: 
    x: 0.0
    y: 0.0
    z: 0.0
---
header: 
  seq: 258
  stamp: 
    secs: 1722858953
    nsecs: 988586425
  frame_id: ''
twist: 
  linear: 
    x: 0.559310665447513
    y: 0.0689029076099803
    z: 0.0
  angular: 
    x: 0.0
    y: 0.0
    z: 0.0
---
header: 
  seq: 259
  stamp: 
    secs: 1722858954
    nsecs:  10612010
  frame_id: ''
twist: 
  linear: 
    x: 0.5593344619212907
    y: 0.06900986721674726
    z: 0.0
  angular: 
    x: 0.0
    y: 0.0
    z: 0.0
---
header: 
  seq: 260
  stamp: 
    secs: 1722858954
    nsecs:  37239074
  frame_id: ''
twist: 
  linear: 
    x: 0.5593286630362156
    y: 0.06885665453195572
    z: 0.0
  angular: 
    x: 0.0
    y: 0.0
    z: 0.0
---
header: 
  seq: 261
  stamp: 
    secs: 1722858954
    nsecs:  74193239
  frame_id: ''
twist: 
  linear: 
    x: 0.5593202020595462
    y: 0.06873681584636682
    z: 0.0
  angular: 
    x: 0.0
    y: 0.0
    z: 0.0
---
header: 
  seq: 262
  stamp: 
    secs: 1722858954
    nsecs: 116244792
  frame_id: ''
twist: 
  linear: 
    x: 0.5594404955552958
    y: 0.06802483096605952
    z: 0.0
  angular: 
    x: 0.0
    y: 0.0
    z: 0.0
---
header: 
  seq: 263
  stamp: 
    secs: 1722858954
    nsecs: 129709243
  frame_id: ''
twist: 
  linear: 
    x: 0.5594380842832789
    y: 0.06796972785288108
    z: 0.0
  angular: 
    x: 0.0
    y: 0.0
    z: 0.0
---
header: 
  seq: 264
  stamp: 
    secs: 1722858954
    nsecs: 151137828
  frame_id: ''
twist: 
  linear: 
    x: 0.5594463951208695
    y: 0.06798070027499455
    z: 0.0
  angular: 
    x: 0.0
    y: 0.0
    z: 0.0
---
header: 
  seq: 265
  stamp: 
    secs: 1722858954
    nsecs: 171127796
  frame_id: ''
twist: 
  linear: 
    x: 0.5594470035200131
    y: 0.06779032614203506
    z: 0.0
  angular: 
    x: 0.0
    y: 0.0
    z: 0.0
---
header: 
  seq: 266
  stamp: 
    secs: 1722858954
    nsecs: 180754184
  frame_id: ''
twist: 
  linear: 
    x: 0.5594610867258292
    y: 0.06782995517992409
    z: 0.0
  angular: 
    x: 0.0
    y: 0.0
    z: 0.0
---
header: 
  seq: 267
  stamp: 
    secs: 1722858954
    nsecs: 190569400
  frame_id: ''
twist: 
  linear: 
    x: 0.5594403463009884
    y: 0.06767567519630444
    z: 0.0
  angular: 
    x: 0.0
    y: 0.0
    z: 0.0
---
header: 
  seq: 268
  stamp: 
    secs: 1722858954
    nsecs: 201941728
  frame_id: ''
twist: 
  linear: 
    x: 0.5594884394119857
    y: 0.06788499991996697
    z: 0.0
  angular: 
    x: 0.0
    y: 0.0
    z: 0.0
---
header: 
  seq: 269
  stamp: 
    secs: 1722858954
    nsecs: 216165304
  frame_id: ''
twist: 
  linear: 
    x: 0.5594259107421563
    y: 0.06749750280394165
    z: 0.0
  angular: 
    x: 0.0
    y: 0.0
    z: 0.0
---
header: 
  seq: 270
  stamp: 
    secs: 1722858954
    nsecs: 226581573
  frame_id: ''
twist: 
  linear: 
    x: 0.5594858712831748
    y: 0.06777216066313213
    z: 0.0
  angular: 
    x: 0.0
    y: 0.0
    z: 0.0
---
header: 
  seq: 271
  stamp: 
    secs: 1722858954
    nsecs: 251589775
  frame_id: ''
twist: 
  linear: 
    x: 0.5594484614022964
    y: 0.06750659853237428
    z: 0.0
  angular: 
    x: 0.0
    y: 0.0
    z: 0.0
---
header: 
  seq: 272
  stamp: 
    secs: 1722858954
    nsecs: 259769916
  frame_id: ''
twist: 
  linear: 
    x: 0.5594640523011989
    y: 0.06752067521858679
    z: 0.0
  angular: 
    x: 0.0
    y: 0.0
    z: 0.0
---
header: 
  seq: 273
  stamp: 
    secs: 1722858954
    nsecs: 269059181
  frame_id: ''
twist: 
  linear: 
    x: 0.5594437029299855
    y: 0.06734831029300188
    z: 0.0
  angular: 
    x: 0.0
    y: 0.0
    z: 0.0
---
header: 
  seq: 274
  stamp: 
    secs: 1722858954
    nsecs: 285677671
  frame_id: ''
twist: 
  linear: 
    x: 0.5594918027151774
    y: 0.06754923723536845
    z: 0.0
  angular: 
    x: 0.0
    y: 0.0
    z: 0.0
---
header: 
  seq: 275
  stamp: 
    secs: 1722858954
    nsecs: 298467874
  frame_id: ''
twist: 
  linear: 
    x: 0.5594496131512395
    y: 0.0672758432586429
    z: 0.0
