header: 
  seq: 1865042
  stamp: 
    secs: 1722859469
    nsecs:  64111677
  frame_id: ''
magnetic_x: -9988.5517578125
magnetic_y: 5163.81591796875
magnetic_z: 16110.3125
---
header: 
  seq: 1865043
  stamp: 
    secs: 1722859469
    nsecs:  71111677
  frame_id: ''
magnetic_x: -9981.8876953125
magnetic_y: 5173.2236328125
magnetic_z: 16086.296875
---
header: 
  seq: 1865044
  stamp: 
    secs: 1722859469
    nsecs:  77111677
  frame_id: ''
magnetic_x: -9981.8876953125
magnetic_y: 5172.43994140625
magnetic_z: 16100.201171875
---
header: 
  seq: 1865045
  stamp: 
    secs: 1722859469
    nsecs:  83111677
  frame_id: ''
magnetic_x: -9981.8876953125
magnetic_y: 5170.087890625
magnetic_z: 16089.45703125
---
header: 
  seq: 1865046
  stamp: 
    secs: 1722859469
    nsecs:  89111677
  frame_id: ''
magnetic_x: -9986.2001953125
magnetic_y: 5168.52001953125
magnetic_z: 16104.625
---
header: 
  seq: 1865047
  stamp: 
    secs: 1722859469
    nsecs:  95111677
  frame_id: ''
magnetic_x: -9990.51171875
magnetic_y: 5168.1279296875
magnetic_z: 16088.8251953125
---
header: 
  seq: 1865048
  stamp: 
    secs: 1722859469
    nsecs: 101111677
  frame_id: ''
magnetic_x: -9978.751953125
magnetic_y: 5175.57568359375
magnetic_z: 16088.8251953125
---
header: 
  seq: 1865049
  stamp: 
    secs: 1722859469
    nsecs: 107111677
  frame_id: ''
magnetic_x: -9985.8076171875
magnetic_y: 5166.16796875
magnetic_z: 16091.984375
---
header: 
  seq: 1865050
  stamp: 
    secs: 1722859469
    nsecs: 114111677
  frame_id: ''
magnetic_x: -9981.8876953125
magnetic_y: 5177.14404296875
magnetic_z: 16087.560546875
---
header: 
  seq: 1865051
  stamp: 
    secs: 1722859469
    nsecs: 120111677
  frame_id: ''
magnetic_x: -9983.4560546875
magnetic_y: 5172.83203125
magnetic_z: 16081.873046875
---
header: 
  seq: 1865052
  stamp: 
    secs: 1722859469
    nsecs: 126111677
  frame_id: ''
magnetic_x: -9980.3193359375
magnetic_y: 5166.95166015625
magnetic_z: 16094.5126953125
---
header: 
  seq: 1865053
  stamp: 
    secs: 1722859469
    nsecs: 132111677
  frame_id: ''
magnetic_x: -9983.4560546875
magnetic_y: 5178.31982421875
magnetic_z: 16100.8330078125
---
header: 
  seq: 1865054
  stamp: 
    secs: 1722859469
    nsecs: 138111677
  frame_id: ''
magnetic_x: -9976.7919921875
magnetic_y: 5181.4560546875
magnetic_z: 16103.3603515625
---
header: 
  seq: 1865055
  stamp: 
    secs: 1722859469
    nsecs: 144111677
  frame_id: ''
magnetic_x: -9985.0234375
magnetic_y: 5185.3759765625
magnetic_z: 16089.45703125
---
header: 
  seq: 1865056
  stamp: 
    secs: 1722859469
    nsecs: 150111677
  frame_id: ''
magnetic_x: -9988.5517578125
magnetic_y: 5171.65576171875
magnetic_z: 16083.7685546875
---
header: 
  seq: 1865057
  stamp: 
    secs: 1722859469
    nsecs: 157111677
  frame_id: ''
magnetic_x: -9981.103515625
magnetic_y: 5167.73583984375
magnetic_z: 16090.0888671875
---
header: 
  seq: 1865058
  stamp: 
    secs: 1722859469
    nsecs: 163111677
  frame_id: ''
magnetic_x: -9988.943359375
magnetic_y: 5173.2236328125
magnetic_z: 16102.0966796875
---
header: 
  seq: 1865059
  stamp: 
    secs: 1722859469
    nsecs: 169111677
  frame_id: ''
magnetic_x: -9986.9833984375
magnetic_y: 5175.57568359375
magnetic_z: 16123.5849609375
---
header: 
  seq: 1865060
  stamp: 
    secs: 1722859469
    nsecs: 175111677
  frame_id: ''
magnetic_x: -9987.767578125
magnetic_y: 5173.61572265625
magnetic_z: 16092.6171875
---
header: 
  seq: 1865061
  stamp: 
    secs: 1722859469
    nsecs: 181111677
  frame_id: ''
magnetic_x: -9982.671875
magnetic_y: 5177.14404296875
magnetic_z: 16098.3046875
---
header: 
  seq: 1865062
  stamp: 
    secs: 1722859469
    nsecs: 187111677
  frame_id: ''
magnetic_x: -9983.84765625
magnetic_y: 5170.47998046875
magnetic_z: 16097.041015625
---
header: 
  seq: 1865063
  stamp: 
    secs: 1722859469
    nsecs: 193111677
  frame_id: ''
magnetic_x: -9994.431640625
magnetic_y: 5169.3037109375
magnetic_z: 16101.46484375
---
header: 
  seq: 1865064
  stamp: 
    secs: 1722859469
    nsecs: 200111677
  frame_id: ''
magnetic_x: -9983.84765625
magnetic_y: 5184.19970703125
magnetic_z: 16103.3603515625
---
header: 
  seq: 1865065
  stamp: 
    secs: 1722859469
    nsecs: 206111677
  frame_id: ''
magnetic_x: -9990.1201171875
magnetic_y: 5175.57568359375
magnetic_z: 16098.9365234375
---
header: 
  seq: 1865066
  stamp: 
    secs: 1722859469
    nsecs: 212111677
  frame_id: ''
magnetic_x: -9987.767578125
magnetic_y: 5180.671875
magnetic_z: 16112.208984375
---
header: 
  seq: 1865067
  stamp: 
    secs: 1722859469
    nsecs: 218111677
  frame_id: ''
magnetic_x: -9986.591796875
magnetic_y: 5178.31982421875
magnetic_z: 16095.7763671875
---
header: 
  seq: 1865068
  stamp: 
    secs: 1722859469
    nsecs: 224111677
  frame_id: ''
magnetic_x: -9986.9833984375
magnetic_y: 5174.7919921875
magnetic_z: 16105.2568359375
---
header: 
  seq: 1865069
  stamp: 
    secs: 1722859469
    nsecs: 230111677
  frame_id: ''
magnetic_x: -9983.0634765625
magnetic_y: 5172.43994140625
magnetic_z: 16091.984375
---
header: 
  seq: 1865070
  stamp: 
    secs: 1722859469
    nsecs: 236111677
  frame_id: ''
magnetic_x: -9983.0634765625
magnetic_y: 5177.14404296875
magnetic_z: 16109.6806640625
---
header: 
  seq: 1865071
  stamp: 
    secs: 1722859469
    nsecs: 243111677
  frame_id: ''
magnetic_x: -9984.2392578125
magnetic_y: 5172.43994140625
magnetic_z: 16097.6728515625
---
header: 
  seq: 1865072
  stamp: 
    secs: 1722859469
    nsecs: 249111677
  frame_id: ''
magnetic_x: -9988.5517578125
magnetic_y: 5160.2880859375
magnetic_z: 16097.6728515625
---
header: 
  seq: 1865073
  stamp: 
    secs: 1722859469
    nsecs: 255111677
  frame_id: ''
magnetic_x: -9988.943359375
magnetic_y: 5174.0078125
magnetic_z: 16105.2568359375
---
header: 
  seq: 1865074
  stamp: 
    secs: 1722859469
    nsecs: 261111677
  frame_id: ''
magnetic_x: -9981.49609375
magnetic_y: 5172.83203125
magnetic_z: 16080.6083984375
---
header: 
  seq: 1865075
  stamp: 
    secs: 1722859469
    nsecs: 266111677
  frame_id: ''
magnetic_x: -9981.8876953125
magnetic_y: 5170.8720703125
magnetic_z: 16083.13671875
---
header: 
  seq: 1865076
  stamp: 
    secs: 1722859469
    nsecs: 272111677
  frame_id: ''
magnetic_x: -9990.1201171875
magnetic_y: 5172.83203125
magnetic_z: 16108.4169921875
---
header: 
  seq: 1865077
  stamp: 
    secs: 1722859469
    nsecs: 278111677
  frame_id: ''
magnetic_x: -9996.0
magnetic_y: 5170.8720703125
magnetic_z: 16098.3046875
---
header: 
  seq: 1865078
  stamp: 
    secs: 1722859469
    nsecs: 285111677
  frame_id: ''
magnetic_x: -9981.49609375
magnetic_y: 5169.69580078125
magnetic_z: 16103.3603515625
---
header: 
  seq: 1865079
  stamp: 
    secs: 1722859469
    nsecs: 291111677
  frame_id: ''
magnetic_x: -9986.9833984375
magnetic_y: 5181.4560546875
magnetic_z: 16090.0888671875
---
header: 
  seq: 1865080
  stamp: 
    secs: 1722859469
    nsecs: 297111677
  frame_id: ''
magnetic_x: -9983.0634765625
magnetic_y: 5176.751953125
magnetic_z: 16110.9443359375
---
header: 
  seq: 1865081
  stamp: 
    secs: 1722859469
    nsecs: 303111677
  frame_id: ''
magnetic_x: -9994.0400390625
magnetic_y: 5178.7119140625
magnetic_z: 16095.14453125
---
header: 
  seq: 1865082
  stamp: 
    secs: 1722859469
    nsecs: 309111677
  frame_id: ''
magnetic_x: -9979.1435546875
magnetic_y: 5175.18408203125
magnetic_z: 16101.46484375
---
header: 
  seq: 1865083
  stamp: 
    secs: 1722859469
    nsecs: 315111677
  frame_id: ''
magnetic_x: -9983.84765625
magnetic_y: 5166.56005859375
magnetic_z: 16095.7763671875
---
header: 
  seq: 1865084
  stamp: 
    secs: 1722859469
    nsecs: 321111677
  frame_id: ''
magnetic_x: -9982.279296875
magnetic_y: 5174.39990234375
magnetic_z: 16097.041015625
---
header: 
  seq: 1865085
  stamp: 
    secs: 1722859469
    nsecs: 328111677
  frame_id: ''
magnetic_x: -9991.2958984375
magnetic_y: 5175.57568359375
magnetic_z: 16090.0888671875
---
header: 
  seq: 1865086
  stamp: 
    secs: 1722859469
    nsecs: 334111677
  frame_id: ''
magnetic_x: -9972.087890625
magnetic_y: 5183.02392578125
magnetic_z: 16116.0009765625
---
header: 
  seq: 1865087
  stamp: 
    secs: 1722859469
    nsecs: 340111677
  frame_id: ''
magnetic_x: -9986.2001953125
magnetic_y: 5169.3037109375
magnetic_z: 16086.296875
---
header: 
  seq: 1865088
  stamp: 
    secs: 1722859469
    nsecs: 346111677
  frame_id: ''
magnetic_x: -9990.9033203125
magnetic_y: 5166.95166015625
magnetic_z: 16089.45703125
---
header: 
  seq: 1865089
  stamp: 
    secs: 1722859469
    nsecs: 352111677
  frame_id: ''
magnetic_x: -9982.279296875
magnetic_y: 5166.95166015625
magnetic_z: 16095.7763671875
---
header: 
  seq: 1865090
  stamp: 
    secs: 1722859469
    nsecs: 358111677
  frame_id: ''
magnetic_x: -9988.5517578125
magnetic_y: 5177.927734375
magnetic_z: 16092.6171875
---
header: 
  seq: 1865091
  stamp: 
    secs: 1722859469
    nsecs: 364111677
  frame_id: ''
magnetic_x: -9980.7119140625
magnetic_y: 5166.95166015625
magnetic_z: 16098.9365234375
---
header: 
  seq: 1865092
  stamp: 
    secs: 1722859469
    nsecs: 371111677
  frame_id: ''
magnetic_x: -9992.080078125
magnetic_y: 5175.9677734375
magnetic_z: 16105.2568359375
---
header: 
  seq: 1865093
  stamp: 
    secs: 1722859469
    nsecs: 377111677
  frame_id: ''
magnetic_x: -9979.1435546875
magnetic_y: 5172.43994140625
magnetic_z: 16081.2412109375
---
header: 
  seq: 1865094
  stamp: 
    secs: 1722859469
    nsecs: 383111677
  frame_id: ''
magnetic_x: -9992.86328125
magnetic_y: 5172.83203125
magnetic_z: 16099.568359375
---
header: 
  seq: 1865095
  stamp: 
    secs: 1722859469
    nsecs: 389111677
  frame_id: ''
magnetic_x: -9989.3359375
magnetic_y: 5177.14404296875
magnetic_z: 16086.9287109375
---
header: 
  seq: 1865096
  stamp: 
    secs: 1722859469
    nsecs: 395111677
  frame_id: ''
magnetic_x: -9986.591796875
magnetic_y: 5169.69580078125
magnetic_z: 16104.625
---
header: 
  seq: 1865097
  stamp: 
    secs: 1722859469
    nsecs: 401111677
  frame_id: ''
magnetic_x: -9994.431640625
magnetic_y: 5177.53564453125
magnetic_z: 16100.8330078125
---
header: 
  seq: 1865098
  stamp: 
    secs: 1722859469
    nsecs: 407111677
  frame_id: ''
magnetic_x: -9988.943359375
magnetic_y: 5175.9677734375
magnetic_z: 16091.3525390625
---
header: 
  seq: 1865099
  stamp: 
    secs: 1722859469
    nsecs: 414111677
  frame_id: ''
magnetic_x: -9989.3359375
magnetic_y: 5164.99169921875
magnetic_z: 16090.0888671875
---
header: 
  seq: 1865100
  stamp: 
    secs: 1722859469
    nsecs: 420111677
  frame_id: ''
magnetic_x: -9990.51171875
magnetic_y: 5174.7919921875
magnetic_z: 16094.5126953125
---
header: 
  seq: 1865101
  stamp: 
    secs: 1722859469
    nsecs: 426111677
  frame_id: ''
magnetic_x: -9987.767578125
magnetic_y: 5172.0478515625
magnetic_z: 16097.6728515625
---
header: 
  seq: 1865102
  stamp: 
    secs: 1722859469
    nsecs: 432111677
  frame_id: ''
magnetic_x: -9979.1435546875
magnetic_y: 5174.39990234375
magnetic_z: 16102.728515625
---
header: 
  seq: 1865103
  stamp: 
    secs: 1722859469
    nsecs: 438111677
  frame_id: ''
magnetic_x: -9979.927734375
magnetic_y: 5177.14404296875
magnetic_z: 16100.201171875
---
header: 
  seq: 1865104
  stamp: 
    secs: 1722859469
    nsecs: 444111677
  frame_id: ''
magnetic_x: -9988.16015625
magnetic_y: 5186.94384765625
magnetic_z: 16102.728515625
---
header: 
  seq: 1865105
  stamp: 
    secs: 1722859469
    nsecs: 451111677
  frame_id: ''
magnetic_x: -9980.7119140625
magnetic_y: 5173.61572265625
magnetic_z: 16100.201171875
---
header: 
  seq: 1865106
  stamp: 
    secs: 1722859469
    nsecs: 457111677
  frame_id: ''
magnetic_x: -9996.0
magnetic_y: 5180.671875
magnetic_z: 16093.880859375
---
header: 
  seq: 1865107
  stamp: 
    secs: 1722859469
    nsecs: 463111677
  frame_id: ''
magnetic_x: -9980.3193359375
magnetic_y: 5167.34375
magnetic_z: 16103.3603515625
---
header: 
  seq: 1865108
  stamp: 
    secs: 1722859469
    nsecs: 469111677
  frame_id: ''
magnetic_x: -9988.16015625
magnetic_y: 5172.83203125
magnetic_z: 16107.15234375
---
header: 
  seq: 1865109
  stamp: 
    secs: 1722859469
    nsecs: 475111677
  frame_id: ''
magnetic_x: -9979.1435546875
magnetic_y: 5172.0478515625
magnetic_z: 16090.720703125
---
header: 
  seq: 1865110
  stamp: 
    secs: 1722859469
    nsecs: 481111677
  frame_id: ''
magnetic_x: -9988.943359375
magnetic_y: 5169.69580078125
magnetic_z: 16081.2412109375
---
header: 
  seq: 1865111
  stamp: 
    secs: 1722859469
    nsecs: 487111677
  frame_id: ''
magnetic_x: -9985.8076171875
magnetic_y: 5167.34375
magnetic_z: 16082.5048828125
---
header: 
  seq: 1865112
  stamp: 
    secs: 1722859469
    nsecs: 494111677
  frame_id: ''
magnetic_x: -9976.7919921875
magnetic_y: 5171.263671875
magnetic_z: 16086.296875
---
header: 
  seq: 1865113
  stamp: 
    secs: 1722859469
    nsecs: 500111677
  frame_id: ''
magnetic_x: -9985.8076171875
magnetic_y: 5176.35986328125
magnetic_z: 16103.3603515625
---
header: 
  seq: 1865114
  stamp: 
    secs: 1722859469
    nsecs: 506111677
  frame_id: ''
magnetic_x: -9983.4560546875
magnetic_y: 5166.16796875
magnetic_z: 16096.4091796875
---
header: 
  seq: 1865115
  stamp: 
    secs: 1722859469
    nsecs: 512111677
  frame_id: ''
magnetic_x: -9987.767578125
magnetic_y: 5170.47998046875
magnetic_z: 16098.9365234375
---
header: 
  seq: 1865116
  stamp: 
    secs: 1722859469
    nsecs: 518111677
  frame_id: ''
magnetic_x: -9982.279296875
magnetic_y: 5171.65576171875
magnetic_z: 16091.3525390625
---
header: 
  seq: 1865117
  stamp: 
    secs: 1722859469
    nsecs: 524111677
  frame_id: ''
magnetic_x: -9994.0400390625
magnetic_y: 5174.7919921875
magnetic_z: 16109.6806640625
---
header: 
  seq: 1865118
  stamp: 
    secs: 1722859469
    nsecs: 529111677
  frame_id: ''
magnetic_x: -9989.7275390625
magnetic_y: 5173.61572265625
magnetic_z: 16096.4091796875
---
header: 
  seq: 1865119
  stamp: 
    secs: 1722859469
    nsecs: 535111677
  frame_id: ''
magnetic_x: -9983.4560546875
magnetic_y: 5174.0078125
magnetic_z: 16090.720703125
---
header: 
  seq: 1865120
  stamp: 
    secs: 1722859469
    nsecs: 542111677
  frame_id: ''
magnetic_x: -9990.51171875
magnetic_y: 5185.3759765625
magnetic_z: 16086.9287109375
---
header: 
  seq: 1865121
  stamp: 
    secs: 1722859469
    nsecs: 548111677
  frame_id: ''
magnetic_x: -9984.2392578125
magnetic_y: 5178.31982421875
magnetic_z: 16092.6171875
---
header: 
  seq: 1865122
  stamp: 
    secs: 1722859469
    nsecs: 554111677
  frame_id: ''
magnetic_x: -9978.359375
magnetic_y: 5173.2236328125
magnetic_z: 16094.5126953125
---
header: 
  seq: 1865123
  stamp: 
    secs: 1722859469
    nsecs: 560111677
  frame_id: ''
magnetic_x: -9988.5517578125
magnetic_y: 5174.39990234375
magnetic_z: 16092.6171875
---
header: 
  seq: 1865124
  stamp: 
    secs: 1722859469
    nsecs: 566111677
  frame_id: ''
magnetic_x: -9993.255859375
magnetic_y: 5177.14404296875
magnetic_z: 16084.400390625
---
header: 
  seq: 1865125
  stamp: 
    secs: 1722859469
    nsecs: 572111677
  frame_id: ''
magnetic_x: -9988.16015625
magnetic_y: 5172.0478515625
magnetic_z: 16107.15234375
---
header: 
  seq: 1865126
  stamp: 
    secs: 1722859469
    nsecs: 579111677
  frame_id: ''
magnetic_x: -9976.7919921875
magnetic_y: 5171.65576171875
magnetic_z: 16090.0888671875
---
header: 
  seq: 1865127
  stamp: 
    secs: 1722859469
    nsecs: 585111677
  frame_id: ''
magnetic_x: -9990.1201171875
magnetic_y: 5174.0078125
magnetic_z: 16101.46484375
---
header: 
  seq: 1865128
  stamp: 
    secs: 1722859469
    nsecs: 591111677
  frame_id: ''
magnetic_x: -9984.6318359375
magnetic_y: 5175.9677734375
magnetic_z: 16099.568359375
---
header: 
  seq: 1865129
  stamp: 
    secs: 1722859469
    nsecs: 597111677
  frame_id: ''
magnetic_x: -9993.6474609375
magnetic_y: 5174.0078125
magnetic_z: 16096.4091796875
---
header: 
  seq: 1865130
  stamp: 
    secs: 1722859469
    nsecs: 603111677
  frame_id: ''
magnetic_x: -9979.5361328125
magnetic_y: 5168.1279296875
magnetic_z: 16109.048828125
---
header: 
  seq: 1865131
  stamp: 
    secs: 1722859469
    nsecs: 609111677
  frame_id: ''
magnetic_x: -9988.943359375
magnetic_y: 5176.751953125
magnetic_z: 16110.3125
---
header: 
  seq: 1865132
  stamp: 
    secs: 1722859469
    nsecs: 615111677
  frame_id: ''
magnetic_x: -9988.5517578125
magnetic_y: 5171.65576171875
magnetic_z: 16112.8408203125
---
header: 
  seq: 1865133
  stamp: 
    secs: 1722859469
    nsecs: 622111677
  frame_id: ''
magnetic_x: -9982.671875
magnetic_y: 5181.06396484375
magnetic_z: 16103.9931640625
---
header: 
  seq: 1865134
  stamp: 
    secs: 1722859469
    nsecs: 628111677
  frame_id: ''
magnetic_x: -9997.17578125
magnetic_y: 5172.0478515625
magnetic_z: 16085.6650390625
---
header: 
  seq: 1865135
  stamp: 
    secs: 1722859469
    nsecs: 634111677
  frame_id: ''
magnetic_x: -9997.5673828125
magnetic_y: 5182.23974609375
magnetic_z: 16091.984375
---
header: 
  seq: 1865136
  stamp: 
    secs: 1722859469
    nsecs: 640111677
  frame_id: ''
magnetic_x: -9988.5517578125
magnetic_y: 5173.2236328125
magnetic_z: 16085.033203125
---
header: 
  seq: 1865137
  stamp: 
    secs: 1722859469
    nsecs: 646111677
  frame_id: ''
magnetic_x: -9982.279296875
magnetic_y: 5169.3037109375
magnetic_z: 16093.2490234375
---
header: 
  seq: 1865138
  stamp: 
    secs: 1722859469
    nsecs: 652111677
  frame_id: ''
magnetic_x: -9981.103515625
magnetic_y: 5170.087890625
magnetic_z: 16083.7685546875
---
header: 
  seq: 1865139
  stamp: 
    secs: 1722859469
    nsecs: 658111677
  frame_id: ''
magnetic_x: -9985.416015625
magnetic_y: 5176.35986328125
magnetic_z: 16098.3046875
---
header: 
  seq: 1865140
  stamp: 
    secs: 1722859469
    nsecs: 665111677
  frame_id: ''
magnetic_x: -9977.9677734375
magnetic_y: 5173.61572265625
magnetic_z: 16093.2490234375
---
header: 
  seq: 1865141
  stamp: 
    secs: 1722859469
    nsecs: 671111677
  frame_id: ''
magnetic_x: -9991.2958984375
magnetic_y: 5171.263671875
magnetic_z: 16093.880859375
---
header: 
  seq: 1865142
  stamp: 
    secs: 1722859469
    nsecs: 677111677
  frame_id: ''
magnetic_x: -9986.9833984375
magnetic_y: 5174.7919921875
magnetic_z: 16107.78515625
---
header: 
  seq: 1865143
  stamp: 
    secs: 1722859469
    nsecs: 683111677
  frame_id: ''
magnetic_x: -9983.0634765625
magnetic_y: 5180.671875
magnetic_z: 16090.0888671875
---
header: 
  seq: 1865144
  stamp: 
    secs: 1722859469
    nsecs: 689111677
  frame_id: ''
magnetic_x: -9980.7119140625
magnetic_y: 5166.16796875
magnetic_z: 16095.14453125
---
header: 
  seq: 1865145
  stamp: 
    secs: 1722859469
    nsecs: 695111677
  frame_id: ''
magnetic_x: -9994.431640625
magnetic_y: 5179.10400390625
magnetic_z: 16100.8330078125
---
header: 
  seq: 1865146
  stamp: 
    secs: 1722859469
    nsecs: 701111677
  frame_id: ''
magnetic_x: -9989.3359375
magnetic_y: 5181.4560546875
magnetic_z: 16090.720703125
---
header: 
  seq: 1865147
  stamp: 
    secs: 1722859469
    nsecs: 708111677
  frame_id: ''
magnetic_x: -9990.1201171875
magnetic_y: 5171.263671875
magnetic_z: 16094.5126953125
---
header: 
  seq: 1865148
  stamp: 
    secs: 1722859469
    nsecs: 714111677
  frame_id: ''
magnetic_x: -9989.3359375
magnetic_y: 5178.31982421875
magnetic_z: 16093.880859375
---
header: 
  seq: 1865149
  stamp: 
    secs: 1722859469
    nsecs: 720111677
  frame_id: ''
magnetic_x: -9980.3193359375
magnetic_y: 5181.84765625
magnetic_z: 16086.9287109375
---
header: 
  seq: 1865150
  stamp: 
    secs: 1722859469
    nsecs: 726111677
  frame_id: ''
magnetic_x: -9997.17578125
magnetic_y: 5167.73583984375
magnetic_z: 16105.888671875
---
header: 
  seq: 1865151
  stamp: 
    secs: 1722859469
    nsecs: 732111677
  frame_id: ''
magnetic_x: -9991.6875
magnetic_y: 5169.69580078125
magnetic_z: 16095.7763671875
---
header: 
  seq: 1865152
  stamp: 
    secs: 1722859469
    nsecs: 738111677
  frame_id: ''
magnetic_x: -9989.3359375
magnetic_y: 5179.8876953125
magnetic_z: 16102.728515625
---
header: 
  seq: 1865153
  stamp: 
    secs: 1722859469
    nsecs: 744111677
  frame_id: ''
magnetic_x: -9992.080078125
magnetic_y: 5181.84765625
magnetic_z: 16097.041015625
---
header: 
  seq: 1865154
  stamp: 
    secs: 1722859469
    nsecs: 751111677
  frame_id: ''
magnetic_x: -9987.3759765625
magnetic_y: 5182.23974609375
magnetic_z: 16094.5126953125
---
header: 
  seq: 1865155
  stamp: 
    secs: 1722859469
    nsecs: 757111677
  frame_id: ''
magnetic_x: -9986.9833984375
magnetic_y: 5170.8720703125
magnetic_z: 16085.6650390625
---
header: 
  seq: 1865156
  stamp: 
    secs: 1722859469
    nsecs: 763111677
  frame_id: ''
magnetic_x: -9984.6318359375
magnetic_y: 5168.1279296875
magnetic_z: 16089.45703125
---
header: 
  seq: 1865157
  stamp: 
    secs: 1722859469
    nsecs: 769111677
  frame_id: ''
magnetic_x: -9983.84765625
magnetic_y: 5175.18408203125
magnetic_z: 16097.6728515625
---
header: 
  seq: 1865158
  stamp: 
    secs: 1722859469
    nsecs: 775111677
  frame_id: ''
magnetic_x: -9976.0078125
magnetic_y: 5179.49609375
magnetic_z: 16091.3525390625
---
header: 
  seq: 1865159
  stamp: 
    secs: 1722859469
    nsecs: 781111677
  frame_id: ''
magnetic_x: -9987.3759765625
magnetic_y: 5170.087890625
magnetic_z: 16095.14453125
---
header: 
  seq: 1865160
  stamp: 
    secs: 1722859469
    nsecs: 787111677
  frame_id: ''
magnetic_x: -9986.2001953125
magnetic_y: 5171.65576171875
magnetic_z: 16104.625
---
header: 
  seq: 1865161
  stamp: 
    secs: 1722859469
    nsecs: 793111677
  frame_id: ''
magnetic_x: -9987.3759765625
magnetic_y: 5173.61572265625
magnetic_z: 16074.9208984375
---
header: 
  seq: 1865162
  stamp: 
    secs: 1722859469
    nsecs: 799111677
  frame_id: ''
magnetic_x: -9986.9833984375
magnetic_y: 5175.18408203125
magnetic_z: 16098.9365234375
---
header: 
  seq: 1865163
  stamp: 
    secs: 1722859469
    nsecs: 805111677
  frame_id: ''
magnetic_x: -9989.3359375
magnetic_y: 5172.83203125
magnetic_z: 16093.880859375
---
header: 
  seq: 1865164
  stamp: 
    secs: 1722859469
    nsecs: 811111677
  frame_id: ''
magnetic_x: -9997.5673828125
magnetic_y: 5172.0478515625
magnetic_z: 16091.3525390625
---
header: 
  seq: 1865165
  stamp: 
    secs: 1722859469
    nsecs: 817111677
  frame_id: ''
magnetic_x: -9981.8876953125
magnetic_y: 5171.65576171875
magnetic_z: 16092.6171875
---
header: 
  seq: 1865166
  stamp: 
    secs: 1722859469
    nsecs: 823111677
  frame_id: ''
magnetic_x: -9981.103515625
magnetic_y: 5181.06396484375
magnetic_z: 16109.6806640625
---
header: 
  seq: 1865167
  stamp: 
    secs: 1722859469
    nsecs: 829111677
  frame_id: ''
magnetic_x: -9990.1201171875
magnetic_y: 5164.2080078125
magnetic_z: 16098.3046875
---
header: 
  seq: 1865168
  stamp: 
    secs: 1722859469
    nsecs: 836111677
  frame_id: ''
magnetic_x: -9983.4560546875
magnetic_y: 5166.56005859375
magnetic_z: 16100.201171875
---
header: 
  seq: 1865169
  stamp: 
    secs: 1722859469
    nsecs: 842111677
  frame_id: ''
magnetic_x: -9987.767578125
magnetic_y: 5176.751953125
magnetic_z: 16088.1923828125
---
header: 
  seq: 1865170
  stamp: 
    secs: 1722859469
    nsecs: 848111677
  frame_id: ''
magnetic_x: -9996.7841796875
magnetic_y: 5176.751953125
magnetic_z: 16091.984375
---
header: 
  seq: 1865171
  stamp: 
    secs: 1722859469
    nsecs: 854111677
  frame_id: ''
magnetic_x: -9984.6318359375
magnetic_y: 5185.76806640625
magnetic_z: 16100.8330078125
---
header: 
  seq: 1865172
  stamp: 
    secs: 1722859469
    nsecs: 860111677
  frame_id: ''
magnetic_x: -9983.84765625
magnetic_y: 5179.10400390625
magnetic_z: 16112.8408203125
---
header: 
  seq: 1865173
  stamp: 
    secs: 1722859469
    nsecs: 866111677
  frame_id: ''
magnetic_x: -9989.3359375
magnetic_y: 5184.19970703125
magnetic_z: 16105.2568359375
---
header: 
  seq: 1865174
  stamp: 
    secs: 1722859469
    nsecs: 872111677
  frame_id: ''
magnetic_x: -9982.671875
magnetic_y: 5179.49609375
magnetic_z: 16094.5126953125
---
header: 
  seq: 1865175
  stamp: 
    secs: 1722859469
    nsecs: 879111677
  frame_id: ''
magnetic_x: -9981.103515625
magnetic_y: 5166.56005859375
magnetic_z: 16086.296875
---
header: 
  seq: 1865176
  stamp: 
    secs: 1722859469
    nsecs: 885111677
  frame_id: ''
magnetic_x: -9991.2958984375
magnetic_y: 5169.3037109375
magnetic_z: 16112.208984375
---
header: 
  seq: 1865177
  stamp: 
    secs: 1722859469
    nsecs: 891111677
  frame_id: ''
magnetic_x: -9986.591796875
magnetic_y: 5171.263671875
magnetic_z: 16093.2490234375
---
header: 
  seq: 1865178
  stamp: 
    secs: 1722859469
    nsecs: 897111677
  frame_id: ''
magnetic_x: -9982.671875
magnetic_y: 5163.03173828125
magnetic_z: 16095.7763671875
---
header: 
  seq: 1865179
  stamp: 
    secs: 1722859469
    nsecs: 903111677
  frame_id: ''
magnetic_x: -9991.2958984375
magnetic_y: 5178.31982421875
magnetic_z: 16093.880859375
---
header: 
  seq: 1865180
  stamp: 
    secs: 1722859469
    nsecs: 909111677
  frame_id: ''
magnetic_x: -9993.255859375
magnetic_y: 5174.7919921875
magnetic_z: 16097.6728515625
---
header: 
  seq: 1865181
  stamp: 
    secs: 1722859469
    nsecs: 915111677
  frame_id: ''
magnetic_x: -9989.7275390625
magnetic_y: 5175.57568359375
magnetic_z: 16098.3046875
---
header: 
  seq: 1865182
  stamp: 
    secs: 1722859469
    nsecs: 922111677
  frame_id: ''
magnetic_x: -9992.4716796875
magnetic_y: 5171.65576171875
magnetic_z: 16094.5126953125
---
header: 
  seq: 1865183
  stamp: 
    secs: 1722859469
    nsecs: 928111677
  frame_id: ''
magnetic_x: -9977.18359375
magnetic_y: 5170.47998046875
magnetic_z: 16098.3046875
---
header: 
  seq: 1865184
  stamp: 
    secs: 1722859469
    nsecs: 934111677
  frame_id: ''
magnetic_x: -9990.9033203125
magnetic_y: 5171.263671875
magnetic_z: 16104.625
---
header: 
  seq: 1865185
  stamp: 
    secs: 1722859469
    nsecs: 940111677
  frame_id: ''
magnetic_x: -9975.6162109375
magnetic_y: 5175.57568359375
magnetic_z: 16103.9931640625
---
header: 
  seq: 1865186
  stamp: 
    secs: 1722859469
    nsecs: 946111677
  frame_id: ''
magnetic_x: -9975.2236328125
magnetic_y: 5170.47998046875
magnetic_z: 16080.6083984375
---
header: 
  seq: 1865187
  stamp: 
    secs: 1722859469
    nsecs: 952111677
  frame_id: ''
magnetic_x: -9996.0
magnetic_y: 5174.0078125
magnetic_z: 16086.296875
---
header: 
  seq: 1865188
  stamp: 
    secs: 1722859469
    nsecs: 958111677
  frame_id: ''
magnetic_x: -9984.6318359375
magnetic_y: 5165.3837890625
magnetic_z: 16079.9765625
---
header: 
  seq: 1865189
  stamp: 
    secs: 1722859469
    nsecs: 965111677
  frame_id: ''
magnetic_x: -9996.0
magnetic_y: 5181.84765625
magnetic_z: 16087.560546875
---
header: 
  seq: 1865190
  stamp: 
    secs: 1722859469
    nsecs: 971111677
  frame_id: ''
magnetic_x: -9984.2392578125
magnetic_y: 5181.4560546875
magnetic_z: 16103.9931640625
---
header: 
  seq: 1865191
  stamp: 
    secs: 1722859469
    nsecs: 977111677
  frame_id: ''
magnetic_x: -9988.943359375
magnetic_y: 5178.31982421875
magnetic_z: 16093.2490234375
---
header: 
  seq: 1865192
  stamp: 
    secs: 1722859469
    nsecs: 983111677
  frame_id: ''
magnetic_x: -9974.439453125
magnetic_y: 5170.47998046875
magnetic_z: 16095.7763671875
---
header: 
  seq: 1865193
  stamp: 
    secs: 1722859469
    nsecs: 989111677
  frame_id: ''
magnetic_x: -9983.0634765625
magnetic_y: 5181.84765625
magnetic_z: 16080.6083984375
---
header: 
  seq: 1865194
  stamp: 
    secs: 1722859469
    nsecs: 995111677
  frame_id: ''
magnetic_x: -9987.3759765625
magnetic_y: 5170.47998046875
magnetic_z: 16095.14453125
---
header: 
  seq: 1865195
  stamp: 
    secs: 1722859470
    nsecs:   1111677
  frame_id: ''
magnetic_x: -9981.49609375
magnetic_y: 5176.35986328125
magnetic_z: 16078.0810546875
---
header: 
  seq: 1865196
  stamp: 
    secs: 1722859470
    nsecs:   8111677
  frame_id: ''
magnetic_x: -9997.9599609375
magnetic_y: 5175.57568359375
magnetic_z: 16090.720703125
---
header: 
  seq: 1865197
  stamp: 
    secs: 1722859470
    nsecs:  14111677
  frame_id: ''
magnetic_x: -9984.6318359375
magnetic_y: 5174.0078125
magnetic_z: 16098.3046875
---
header: 
  seq: 1865198
  stamp: 
    secs: 1722859470
    nsecs:  20111677
  frame_id: ''
magnetic_x: -9992.4716796875
magnetic_y: 5182.23974609375
magnetic_z: 16092.6171875
---
header: 
  seq: 1865199
  stamp: 
    secs: 1722859470
    nsecs:  26111677
  frame_id: ''
magnetic_x: -9993.6474609375
magnetic_y: 5175.57568359375
magnetic_z: 16095.7763671875
---
header: 
  seq: 1865200
  stamp: 
    secs: 1722859470
    nsecs:  32111677
  frame_id: ''
magnetic_x: -9980.3193359375
magnetic_y: 5181.06396484375
magnetic_z: 16100.8330078125
---
header: 
  seq: 1865201
  stamp: 
    secs: 1722859470
    nsecs:  38111677
  frame_id: ''
magnetic_x: -10004.6240234375
magnetic_y: 5184.591796875
magnetic_z: 16104.625
---
header: 
  seq: 1865202
  stamp: 
    secs: 1722859470
    nsecs:  44111677
  frame_id: ''
magnetic_x: -9982.279296875
magnetic_y: 5173.2236328125
magnetic_z: 16092.6171875
---
header: 
  seq: 1865203
  stamp: 
    secs: 1722859470
    nsecs:  50111677
  frame_id: ''
magnetic_x: -9986.2001953125
magnetic_y: 5170.47998046875
magnetic_z: 16093.880859375
---
header: 
  seq: 1865204
  stamp: 
    secs: 1722859470
    nsecs:  56111677
  frame_id: ''
magnetic_x: -9987.767578125
magnetic_y: 5176.751953125
magnetic_z: 16079.9765625
---
header: 
  seq: 1865205
  stamp: 
    secs: 1722859470
    nsecs:  62111677
  frame_id: ''
magnetic_x: -9990.1201171875
magnetic_y: 5170.47998046875
magnetic_z: 16090.0888671875
---
header: 
  seq: 1865206
  stamp: 
    secs: 1722859470
    nsecs:  68111677
  frame_id: ''
magnetic_x: -9984.6318359375
magnetic_y: 5165.77587890625
magnetic_z: 16114.736328125
---
header: 
  seq: 1865207
  stamp: 
    secs: 1722859470
    nsecs:  74111677
  frame_id: ''
magnetic_x: -9979.1435546875
magnetic_y: 5182.6318359375
magnetic_z: 16083.13671875
---
header: 
  seq: 1865208
  stamp: 
    secs: 1722859470
    nsecs:  80111677
  frame_id: ''
magnetic_x: -9981.8876953125
magnetic_y: 5170.8720703125
magnetic_z: 16097.041015625
---
header: 
  seq: 1865209
  stamp: 
    secs: 1722859470
    nsecs:  86111677
  frame_id: ''
magnetic_x: -9990.51171875
magnetic_y: 5172.83203125
magnetic_z: 16109.6806640625
---
header: 
  seq: 1865210
  stamp: 
    secs: 1722859470
    nsecs:  93111677
  frame_id: ''
magnetic_x: -9994.82421875
magnetic_y: 5176.35986328125
magnetic_z: 16082.5048828125
---
header: 
  seq: 1865211
  stamp: 
    secs: 1722859470
    nsecs:  99111677
  frame_id: ''
magnetic_x: -9982.671875
magnetic_y: 5173.61572265625
magnetic_z: 16100.201171875
---
header: 
  seq: 1865212
  stamp: 
    secs: 1722859470
    nsecs: 105111677
  frame_id: ''
magnetic_x: -9982.671875
magnetic_y: 5171.263671875
magnetic_z: 16098.3046875
---
header: 
  seq: 1865213
  stamp: 
    secs: 1722859470
    nsecs: 111111677
  frame_id: ''
magnetic_x: -9985.8076171875
magnetic_y: 5174.39990234375
magnetic_z: 16095.14453125
---
header: 
  seq: 1865214
  stamp: 
    secs: 1722859470
    nsecs: 117111677
  frame_id: ''
magnetic_x: -9983.4560546875
magnetic_y: 5177.53564453125
magnetic_z: 16098.3046875
---
header: 
  seq: 1865215
  stamp: 
    secs: 1722859470
    nsecs: 123111677
  frame_id: ''
magnetic_x: -9994.431640625
magnetic_y: 5180.27978515625
magnetic_z: 16095.14453125
---
header: 
  seq: 1865216
  stamp: 
    secs: 1722859470
    nsecs: 129111677
  frame_id: ''
magnetic_x: -9977.18359375
magnetic_y: 5171.65576171875
magnetic_z: 16094.5126953125
---
header: 
  seq: 1865217
  stamp: 
    secs: 1722859470
    nsecs: 136111677
  frame_id: ''
magnetic_x: -9985.8076171875
magnetic_y: 5174.39990234375
magnetic_z: 16095.7763671875
---
header: 
  seq: 1865218
  stamp: 
    secs: 1722859470
    nsecs: 142111677
  frame_id: ''
magnetic_x: -9986.591796875
magnetic_y: 5171.263671875
magnetic_z: 16105.2568359375
---
header: 
  seq: 1865219
  stamp: 
    secs: 1722859470
    nsecs: 148111677
  frame_id: ''
magnetic_x: -9995.607421875
magnetic_y: 5181.84765625
magnetic_z: 16102.728515625
---
header: 
  seq: 1865220
  stamp: 
    secs: 1722859470
    nsecs: 154111677
  frame_id: ''
magnetic_x: -9981.103515625
magnetic_y: 5173.61572265625
magnetic_z: 16089.45703125
---
header: 
  seq: 1865221
  stamp: 
    secs: 1722859470
    nsecs: 160111677
  frame_id: ''
magnetic_x: -9986.591796875
magnetic_y: 5176.751953125
magnetic_z: 16084.400390625
---
header: 
  seq: 1865222
  stamp: 
    secs: 1722859470
    nsecs: 166111677
  frame_id: ''
magnetic_x: -9993.255859375
magnetic_y: 5169.69580078125
magnetic_z: 16091.3525390625
---
header: 
  seq: 1865223
  stamp: 
    secs: 1722859470
    nsecs: 172111677
  frame_id: ''
magnetic_x: -9990.9033203125
magnetic_y: 5183.02392578125
magnetic_z: 16101.46484375
---
header: 
  seq: 1865224
  stamp: 
    secs: 1722859470
    nsecs: 179111677
  frame_id: ''
magnetic_x: -9983.0634765625
magnetic_y: 5176.751953125
magnetic_z: 16088.1923828125
---
header: 
  seq: 1865225
  stamp: 
    secs: 1722859470
    nsecs: 185111677
  frame_id: ''
magnetic_x: -9988.16015625
magnetic_y: 5174.0078125
magnetic_z: 16100.8330078125
---
header: 
  seq: 1865226
  stamp: 
    secs: 1722859470
    nsecs: 191111677
  frame_id: ''
magnetic_x: -9980.7119140625
magnetic_y: 5170.47998046875
magnetic_z: 16092.6171875
---
header: 
  seq: 1865227
  stamp: 
    secs: 1722859470
    nsecs: 197111677
  frame_id: ''
magnetic_x: -9995.607421875
magnetic_y: 5166.56005859375
magnetic_z: 16093.2490234375
---
header: 
  seq: 1865228
  stamp: 
    secs: 1722859470
    nsecs: 203111677
  frame_id: ''
magnetic_x: -9982.279296875
magnetic_y: 5170.087890625
magnetic_z: 16098.9365234375
---
header: 
  seq: 1865229
  stamp: 
    secs: 1722859470
    nsecs: 209111677
  frame_id: ''
magnetic_x: -9985.8076171875
magnetic_y: 5180.27978515625
magnetic_z: 16097.041015625
---
header: 
  seq: 1865230
  stamp: 
    secs: 1722859470
    nsecs: 215111677
  frame_id: ''
magnetic_x: -9989.3359375
magnetic_y: 5164.2080078125
magnetic_z: 16095.7763671875
---
header: 
  seq: 1865231
  stamp: 
    secs: 1722859470
    nsecs: 222111677
  frame_id: ''
magnetic_x: -9982.671875
magnetic_y: 5179.10400390625
magnetic_z: 16101.46484375
---
header: 
  seq: 1865232
  stamp: 
    secs: 1722859470
    nsecs: 228111677
  frame_id: ''
magnetic_x: -9977.18359375
magnetic_y: 5171.263671875
magnetic_z: 16102.0966796875
---
header: 
  seq: 1865233
  stamp: 
    secs: 1722859470
    nsecs: 234111677
  frame_id: ''
magnetic_x: -9987.767578125
magnetic_y: 5177.53564453125
magnetic_z: 16103.9931640625
---
header: 
  seq: 1865234
  stamp: 
    secs: 1722859470
    nsecs: 240111677
  frame_id: ''
magnetic_x: -9980.3193359375
magnetic_y: 5178.31982421875
magnetic_z: 16099.568359375
---
header: 
  seq: 1865235
  stamp: 
    secs: 1722859470
    nsecs: 246111677
  frame_id: ''
magnetic_x: -9981.8876953125
magnetic_y: 5178.31982421875
magnetic_z: 16105.2568359375
---
header: 
  seq: 1865236
  stamp: 
    secs: 1722859470
    nsecs: 252111677
  frame_id: ''
magnetic_x: -9979.1435546875
magnetic_y: 5171.263671875
magnetic_z: 16084.400390625
---
header: 
  seq: 1865237
  stamp: 
    secs: 1722859470
    nsecs: 258111677
  frame_id: ''
magnetic_x: -9983.84765625
magnetic_y: 5159.50390625
magnetic_z: 16102.0966796875
---
header: 
  seq: 1865238
  stamp: 
    secs: 1722859470
    nsecs: 265111677
  frame_id: ''
magnetic_x: -9995.2158203125
magnetic_y: 5174.7919921875
magnetic_z: 16088.8251953125
---
header: 
  seq: 1865239
  stamp: 
    secs: 1722859470
    nsecs: 271111677
  frame_id: ''
magnetic_x: -9986.2001953125
magnetic_y: 5177.927734375
magnetic_z: 16097.041015625
---
header: 
  seq: 1865240
  stamp: 
    secs: 1722859470
    nsecs: 277111677
  frame_id: ''
magnetic_x: -9982.279296875
magnetic_y: 5177.53564453125
magnetic_z: 16092.6171875
---
header: 
  seq: 1865241
  stamp: 
    secs: 1722859470
    nsecs: 283111677
  frame_id: ''
magnetic_x: -9984.2392578125
magnetic_y: 5167.73583984375
magnetic_z: 16088.8251953125
---
header: 
  seq: 1865242
  stamp: 
    secs: 1722859470
    nsecs: 289111677
  frame_id: ''
magnetic_x: -9983.0634765625
magnetic_y: 5181.4560546875
magnetic_z: 16093.880859375
---
header: 
  seq: 1865243
  stamp: 
    secs: 1722859470
    nsecs: 295111677
  frame_id: ''
magnetic_x: -9981.49609375
magnetic_y: 5170.087890625
magnetic_z: 16095.14453125
---
header: 
  seq: 1865244
  stamp: 
    secs: 1722859470
    nsecs: 301111677
  frame_id: ''
magnetic_x: -9980.3193359375
magnetic_y: 5171.263671875
magnetic_z: 16094.5126953125
---
header: 
  seq: 1865245
  stamp: 
    secs: 1722859470
    nsecs: 308111677
  frame_id: ''
magnetic_x: -10004.2314453125
magnetic_y: 5175.18408203125
magnetic_z: 16105.888671875
---
header: 
  seq: 1865246
  stamp: 
    secs: 1722859470
    nsecs: 313111677
  frame_id: ''
magnetic_x: -9990.1201171875
magnetic_y: 5181.4560546875
magnetic_z: 16091.3525390625
---
header: 
  seq: 1865247
  stamp: 
    secs: 1722859470
    nsecs: 319111677
  frame_id: ''
magnetic_x: -9987.3759765625
magnetic_y: 5168.91162109375
magnetic_z: 16098.3046875
---
header: 
  seq: 1865248
  stamp: 
    secs: 1722859470
    nsecs: 325111677
  frame_id: ''
magnetic_x: -9989.3359375
magnetic_y: 5181.4560546875
magnetic_z: 16105.888671875
---
header: 
  seq: 1865249
  stamp: 
    secs: 1722859470
    nsecs: 331111677
  frame_id: ''
magnetic_x: -9981.8876953125
magnetic_y: 5170.087890625
magnetic_z: 16105.888671875
---
header: 
  seq: 1865250
  stamp: 
    secs: 1722859470
    nsecs: 337111677
  frame_id: ''
magnetic_x: -9983.84765625
magnetic_y: 5178.7119140625
magnetic_z: 16083.7685546875
---
header: 
  seq: 1865251
  stamp: 
    secs: 1722859470
    nsecs: 343111677
  frame_id: ''
magnetic_x: -9989.7275390625
magnetic_y: 5166.95166015625
magnetic_z: 16082.5048828125
---
header: 
  seq: 1865252
  stamp: 
    secs: 1722859470
    nsecs: 350111677
  frame_id: ''
magnetic_x: -9981.8876953125
magnetic_y: 5169.69580078125
magnetic_z: 16095.14453125
---
header: 
  seq: 1865253
  stamp: 
    secs: 1722859470
    nsecs: 356111677
  frame_id: ''
magnetic_x: -9986.9833984375
magnetic_y: 5179.49609375
magnetic_z: 16091.3525390625
---
header: 
  seq: 1865254
  stamp: 
    secs: 1722859470
    nsecs: 362111677
  frame_id: ''
magnetic_x: -9985.0234375
magnetic_y: 5167.34375
magnetic_z: 16097.041015625
---
header: 
  seq: 1865255
  stamp: 
    secs: 1722859470
    nsecs: 368111677
  frame_id: ''
magnetic_x: -9980.7119140625
magnetic_y: 5166.95166015625
magnetic_z: 16091.3525390625
---
header: 
  seq: 1865256
  stamp: 
    secs: 1722859470
    nsecs: 374111677
  frame_id: ''
magnetic_x: -9981.49609375
magnetic_y: 5170.47998046875
magnetic_z: 16095.7763671875
---
header: 
  seq: 1865257
  stamp: 
    secs: 1722859470
    nsecs: 380111677
  frame_id: ''
magnetic_x: -9996.0
magnetic_y: 5172.43994140625
magnetic_z: 16097.041015625
---
header: 
  seq: 1865258
  stamp: 
    secs: 1722859470
    nsecs: 386111677
  frame_id: ''
magnetic_x: -9988.16015625
magnetic_y: 5169.3037109375
magnetic_z: 16091.3525390625
---
header: 
  seq: 1865259
  stamp: 
    secs: 1722859470
    nsecs: 393111677
  frame_id: ''
magnetic_x: -9979.927734375
magnetic_y: 5167.34375
magnetic_z: 16100.8330078125
---
header: 
  seq: 1865260
  stamp: 
    secs: 1722859470
    nsecs: 399111677
  frame_id: ''
magnetic_x: -9979.927734375
magnetic_y: 5175.57568359375
magnetic_z: 16102.0966796875
---
header: 
  seq: 1865261
  stamp: 
    secs: 1722859470
    nsecs: 405111677
  frame_id: ''
magnetic_x: -9976.7919921875
magnetic_y: 5186.94384765625
magnetic_z: 16076.1845703125
---
header: 
  seq: 1865262
  stamp: 
    secs: 1722859470
    nsecs: 411111677
  frame_id: ''
magnetic_x: -9988.16015625
magnetic_y: 5164.99169921875
magnetic_z: 16095.14453125
---
header: 
  seq: 1865263
  stamp: 
    secs: 1722859470
    nsecs: 417111677
  frame_id: ''
magnetic_x: -9981.103515625
magnetic_y: 5171.263671875
magnetic_z: 16098.9365234375
---
header: 
  seq: 1865264
  stamp: 
    secs: 1722859470
    nsecs: 423111677
  frame_id: ''
magnetic_x: -9985.416015625
magnetic_y: 5172.43994140625
magnetic_z: 16105.888671875
---
header: 
  seq: 1865265
  stamp: 
    secs: 1722859470
    nsecs: 429111677
  frame_id: ''
magnetic_x: -9990.51171875
magnetic_y: 5164.99169921875
magnetic_z: 16092.6171875
---
header: 
  seq: 1865266
  stamp: 
    secs: 1722859470
    nsecs: 436111677
  frame_id: ''
magnetic_x: -9988.5517578125
magnetic_y: 5178.31982421875
magnetic_z: 16110.9443359375
---
header: 
  seq: 1865267
  stamp: 
    secs: 1722859470
    nsecs: 442111677
  frame_id: ''
magnetic_x: -9980.3193359375
magnetic_y: 5175.57568359375
magnetic_z: 16075.552734375
---
header: 
  seq: 1865268
  stamp: 
    secs: 1722859470
    nsecs: 448111677
  frame_id: ''
magnetic_x: -9993.255859375
magnetic_y: 5167.34375
magnetic_z: 16091.3525390625
---
header: 
  seq: 1865269
  stamp: 
    secs: 1722859470
    nsecs: 454111677
  frame_id: ''
magnetic_x: -9984.2392578125
magnetic_y: 5176.751953125
magnetic_z: 16091.3525390625
---
header: 
  seq: 1865270
  stamp: 
    secs: 1722859470
    nsecs: 460111677
  frame_id: ''
magnetic_x: -9972.087890625
magnetic_y: 5170.087890625
magnetic_z: 16091.984375
---
header: 
  seq: 1865271
  stamp: 
    secs: 1722859470
    nsecs: 466111677
  frame_id: ''
magnetic_x: -9972.087890625
magnetic_y: 5174.0078125
magnetic_z: 16091.984375
---
header: 
  seq: 1865272
  stamp: 
    secs: 1722859470
    nsecs: 472111677
  frame_id: ''
magnetic_x: -9990.1201171875
magnetic_y: 5175.18408203125
magnetic_z: 16094.5126953125
---
header: 
  seq: 1865273
  stamp: 
    secs: 1722859470
    nsecs: 479111677
  frame_id: ''
magnetic_x: -9983.4560546875
magnetic_y: 5183.02392578125
magnetic_z: 16088.8251953125
---
header: 
  seq: 1865274
  stamp: 
    secs: 1722859470
    nsecs: 485111677
  frame_id: ''
magnetic_x: -9988.943359375
magnetic_y: 5176.751953125
magnetic_z: 16088.8251953125
---
header: 
  seq: 1865275
  stamp: 
    secs: 1722859470
    nsecs: 491111677
  frame_id: ''
magnetic_x: -9979.927734375
magnetic_y: 5169.69580078125
magnetic_z: 16091.984375
---
header: 
  seq: 1865276
  stamp: 
    secs: 1722859470
    nsecs: 497111677
  frame_id: ''
magnetic_x: -9987.3759765625
magnetic_y: 5167.73583984375
magnetic_z: 16097.041015625
---
header: 
  seq: 1865277
  stamp: 
    secs: 1722859470
    nsecs: 503111677
  frame_id: ''
magnetic_x: -9997.5673828125
magnetic_y: 5165.77587890625
magnetic_z: 16099.568359375
---
header: 
  seq: 1865278
  stamp: 
    secs: 1722859470
    nsecs: 509111677
  frame_id: ''
magnetic_x: -9989.7275390625
magnetic_y: 5174.0078125
magnetic_z: 16089.45703125
---
header: 
  seq: 1865279
  stamp: 
    secs: 1722859470
    nsecs: 515111677
  frame_id: ''
magnetic_x: -9970.1279296875
magnetic_y: 5176.751953125
magnetic_z: 16084.400390625
---
header: 
  seq: 1865280
  stamp: 
    secs: 1722859470
    nsecs: 522111677
  frame_id: ''
magnetic_x: -9978.751953125
magnetic_y: 5172.83203125
magnetic_z: 16095.7763671875
---
header: 
  seq: 1865281
  stamp: 
    secs: 1722859470
    nsecs: 528111677
  frame_id: ''
magnetic_x: -9980.3193359375
magnetic_y: 5179.8876953125
magnetic_z: 16098.9365234375
---
header: 
  seq: 1865282
  stamp: 
    secs: 1722859470
    nsecs: 534111677
  frame_id: ''
magnetic_x: -9976.7919921875
magnetic_y: 5177.53564453125
magnetic_z: 16101.46484375
---
header: 
  seq: 1865283
  stamp: 
    secs: 1722859470
    nsecs: 540111677
  frame_id: ''
magnetic_x: -9988.5517578125
magnetic_y: 5180.671875
magnetic_z: 16103.9931640625
---
header: 
  seq: 1865284
  stamp: 
    secs: 1722859470
    nsecs: 546111677
  frame_id: ''
magnetic_x: -9981.8876953125
magnetic_y: 5174.39990234375
magnetic_z: 16092.6171875
---
header: 
  seq: 1865285
  stamp: 
    secs: 1722859470
    nsecs: 552111677
  frame_id: ''
magnetic_x: -9983.84765625
magnetic_y: 5180.671875
magnetic_z: 16097.041015625
---
header: 
  seq: 1865286
  stamp: 
    secs: 1722859470
    nsecs: 558111677
  frame_id: ''
magnetic_x: -9989.3359375
magnetic_y: 5175.9677734375
magnetic_z: 16084.400390625
---
header: 
  seq: 1865287
  stamp: 
    secs: 1722859470
    nsecs: 565111677
  frame_id: ''
magnetic_x: -9992.4716796875
magnetic_y: 5176.35986328125
magnetic_z: 16103.3603515625
---
header: 
  seq: 1865288
  stamp: 
    secs: 1722859470
    nsecs: 571111677
  frame_id: ''
magnetic_x: -9989.7275390625
magnetic_y: 5177.927734375
magnetic_z: 16095.14453125
---
header: 
  seq: 1865289
  stamp: 
    secs: 1722859470
    nsecs: 576111677
  frame_id: ''
magnetic_x: -9984.6318359375
magnetic_y: 5170.47998046875
magnetic_z: 16096.4091796875
---
header: 
  seq: 1865290
  stamp: 
    secs: 1722859470
    nsecs: 582111677
  frame_id: ''
magnetic_x: -9988.943359375
magnetic_y: 5168.1279296875
magnetic_z: 16085.6650390625
---
header: 
  seq: 1865291
  stamp: 
    secs: 1722859470
    nsecs: 588111677
  frame_id: ''
magnetic_x: -9994.0400390625
magnetic_y: 5178.7119140625
magnetic_z: 16100.201171875
---
header: 
  seq: 1865292
  stamp: 
    secs: 1722859470
    nsecs: 594111677
  frame_id: ''
magnetic_x: -9985.8076171875
magnetic_y: 5170.8720703125
magnetic_z: 16091.984375
---
header: 
  seq: 1865293
  stamp: 
    secs: 1722859470
    nsecs: 600111677
  frame_id: ''
magnetic_x: -9995.2158203125
magnetic_y: 5179.10400390625
magnetic_z: 16110.9443359375
---
header: 
  seq: 1865294
  stamp: 
    secs: 1722859470
    nsecs: 607111677
  frame_id: ''
magnetic_x: -9976.3994140625
magnetic_y: 5170.8720703125
magnetic_z: 16097.6728515625
---
header: 
  seq: 1865295
  stamp: 
    secs: 1722859470
    nsecs: 613111677
  frame_id: ''
magnetic_x: -9980.7119140625
magnetic_y: 5170.8720703125
magnetic_z: 16096.4091796875
---
header: 
  seq: 1865296
  stamp: 
    secs: 1722859470
    nsecs: 619111677
  frame_id: ''
magnetic_x: -9998.744140625
magnetic_y: 5169.69580078125
magnetic_z: 16099.568359375
---
header: 
  seq: 1865297
  stamp: 
    secs: 1722859470
    nsecs: 625111677
  frame_id: ''
magnetic_x: -9985.8076171875
magnetic_y: 5173.61572265625
magnetic_z: 16088.8251953125
---
header: 
  seq: 1865298
  stamp: 
    secs: 1722859470
    nsecs: 631111677
  frame_id: ''
magnetic_x: -9983.0634765625
magnetic_y: 5161.4638671875
magnetic_z: 16089.45703125
---
header: 
  seq: 1865299
  stamp: 
    secs: 1722859470
    nsecs: 637111677
  frame_id: ''
magnetic_x: -9982.671875
magnetic_y: 5176.35986328125
magnetic_z: 16100.8330078125
---
header: 
  seq: 1865300
  stamp: 
    secs: 1722859470
    nsecs: 643111677
  frame_id: ''
magnetic_x: -9986.2001953125
magnetic_y: 5177.927734375
magnetic_z: 16088.1923828125
---
header: 
  seq: 1865301
  stamp: 
    secs: 1722859470
    nsecs: 650111677
  frame_id: ''
magnetic_x: -9986.2001953125
magnetic_y: 5178.7119140625
magnetic_z: 16106.5205078125
---
header: 
  seq: 1865302
  stamp: 
    secs: 1722859470
    nsecs: 656111677
  frame_id: ''
magnetic_x: -9980.7119140625
magnetic_y: 5175.9677734375
magnetic_z: 16112.208984375
---
header: 
  seq: 1865303
  stamp: 
    secs: 1722859470
    nsecs: 662111677
  frame_id: ''
magnetic_x: -9977.18359375
magnetic_y: 5169.69580078125
magnetic_z: 16093.880859375
---
header: 
  seq: 1865304
  stamp: 
    secs: 1722859470
    nsecs: 668111677
  frame_id: ''
magnetic_x: -9992.86328125
magnetic_y: 5176.35986328125
magnetic_z: 16109.6806640625
---
header: 
  seq: 1865305
  stamp: 
    secs: 1722859470
    nsecs: 674111677
  frame_id: ''
magnetic_x: -9982.671875
magnetic_y: 5177.14404296875
magnetic_z: 16102.728515625
---
header: 
  seq: 1865306
  stamp: 
    secs: 1722859470
    nsecs: 680111677
  frame_id: ''
magnetic_x: -9991.6875
magnetic_y: 5171.263671875
magnetic_z: 16093.2490234375
---
header: 
  seq: 1865307
  stamp: 
    secs: 1722859470
    nsecs: 686111677
  frame_id: ''
magnetic_x: -9986.2001953125
magnetic_y: 5174.0078125
magnetic_z: 16097.6728515625
---
header: 
  seq: 1865308
  stamp: 
    secs: 1722859470
    nsecs: 693111677
  frame_id: ''
magnetic_x: -9988.943359375
magnetic_y: 5177.53564453125
magnetic_z: 16089.45703125
---
header: 
  seq: 1865309
  stamp: 
    secs: 1722859470
    nsecs: 699111677
  frame_id: ''
magnetic_x: -9984.6318359375
magnetic_y: 5180.27978515625
magnetic_z: 16083.13671875
---
header: 
  seq: 1865310
  stamp: 
    secs: 1722859470
    nsecs: 705111677
  frame_id: ''
magnetic_x: -9986.591796875
magnetic_y: 5178.31982421875
magnetic_z: 16103.3603515625
---
header: 
  seq: 1865311
  stamp: 
    secs: 1722859470
    nsecs: 711111677
  frame_id: ''
magnetic_x: -9986.2001953125
magnetic_y: 5174.39990234375
magnetic_z: 16099.568359375
---
header: 
  seq: 1865312
  stamp: 
    secs: 1722859470
    nsecs: 717111677
  frame_id: ''
magnetic_x: -9985.8076171875
magnetic_y: 5172.0478515625
magnetic_z: 16093.880859375
---
header: 
  seq: 1865313
  stamp: 
    secs: 1722859470
    nsecs: 723111677
  frame_id: ''
magnetic_x: -9979.5361328125
magnetic_y: 5168.91162109375
magnetic_z: 16106.5205078125
---
header: 
  seq: 1865314
  stamp: 
    secs: 1722859470
    nsecs: 729111677
  frame_id: ''
magnetic_x: -9989.3359375
magnetic_y: 5165.77587890625
magnetic_z: 16098.9365234375
---
header: 
  seq: 1865315
  stamp: 
    secs: 1722859470
    nsecs: 736111677
  frame_id: ''
magnetic_x: -9999.1357421875
magnetic_y: 5167.73583984375
magnetic_z: 16091.3525390625
---
header: 
  seq: 1865316
  stamp: 
    secs: 1722859470
    nsecs: 742111677
  frame_id: ''
magnetic_x: -9994.431640625
magnetic_y: 5175.9677734375
magnetic_z: 16086.296875
---
header: 
  seq: 1865317
  stamp: 
    secs: 1722859470
    nsecs: 748111677
  frame_id: ''
magnetic_x: -9985.416015625
magnetic_y: 5176.35986328125
magnetic_z: 16105.888671875
---
header: 
  seq: 1865318
  stamp: 
    secs: 1722859470
    nsecs: 754111677
  frame_id: ''
magnetic_x: -9982.279296875
magnetic_y: 5177.53564453125
magnetic_z: 16086.296875
---
header: 
  seq: 1865319
  stamp: 
    secs: 1722859470
    nsecs: 760111677
  frame_id: ''
magnetic_x: -9992.080078125
magnetic_y: 5183.02392578125
magnetic_z: 16099.568359375
---
header: 
  seq: 1865320
  stamp: 
    secs: 1722859470
    nsecs: 766111677
  frame_id: ''
magnetic_x: -9991.2958984375
magnetic_y: 5177.927734375
magnetic_z: 16073.0244140625
---
header: 
  seq: 1865321
  stamp: 
    secs: 1722859470
    nsecs: 772111677
  frame_id: ''
magnetic_x: -9987.3759765625
magnetic_y: 5177.14404296875
magnetic_z: 16103.9931640625
---
header: 
  seq: 1865322
  stamp: 
    secs: 1722859470
    nsecs: 779111677
  frame_id: ''
magnetic_x: -9986.9833984375
magnetic_y: 5175.9677734375
magnetic_z: 16090.0888671875
---
header: 
  seq: 1865323
  stamp: 
    secs: 1722859470
    nsecs: 785111677
  frame_id: ''
magnetic_x: -9974.0478515625
magnetic_y: 5180.671875
magnetic_z: 16106.5205078125
---
header: 
  seq: 1865324
  stamp: 
    secs: 1722859470
    nsecs: 791111677
  frame_id: ''
magnetic_x: -9992.080078125
magnetic_y: 5174.7919921875
magnetic_z: 16094.5126953125
---
header: 
  seq: 1865325
  stamp: 
    secs: 1722859470
    nsecs: 797111677
  frame_id: ''
magnetic_x: -9991.6875
magnetic_y: 5168.91162109375
magnetic_z: 16083.13671875
---
header: 
  seq: 1865326
  stamp: 
    secs: 1722859470
    nsecs: 803111677
  frame_id: ''
magnetic_x: -9977.9677734375
magnetic_y: 5177.53564453125
magnetic_z: 16085.6650390625
---
header: 
  seq: 1865327
  stamp: 
    secs: 1722859470
    nsecs: 809111677
  frame_id: ''
magnetic_x: -9985.416015625
magnetic_y: 5184.19970703125
magnetic_z: 16091.3525390625
---
header: 
  seq: 1865328
  stamp: 
    secs: 1722859470
    nsecs: 815111677
  frame_id: ''
magnetic_x: -9982.671875
magnetic_y: 5164.60009765625
magnetic_z: 16097.041015625
---
header: 
  seq: 1865329
  stamp: 
    secs: 1722859470
    nsecs: 822111677
  frame_id: ''
magnetic_x: -9981.8876953125
magnetic_y: 5181.84765625
magnetic_z: 16099.568359375
---
header: 
  seq: 1865330
  stamp: 
    secs: 1722859470
    nsecs: 828111677
  frame_id: ''
magnetic_x: -9986.9833984375
magnetic_y: 5174.7919921875
magnetic_z: 16105.888671875
---
header: 
  seq: 1865331
  stamp: 
    secs: 1722859470
    nsecs: 833111677
  frame_id: ''
magnetic_x: -9984.2392578125
magnetic_y: 5180.27978515625
magnetic_z: 16109.6806640625
---
header: 
  seq: 1865332
  stamp: 
    secs: 1722859470
    nsecs: 839111677
  frame_id: ''
magnetic_x: -9983.4560546875
magnetic_y: 5175.18408203125
magnetic_z: 16109.6806640625
---
header: 
  seq: 1865333
  stamp: 
    secs: 1722859470
    nsecs: 845111677
  frame_id: ''
magnetic_x: -9992.4716796875
magnetic_y: 5183.80810546875
magnetic_z: 16093.2490234375
---
header: 
  seq: 1865334
  stamp: 
    secs: 1722859470
    nsecs: 851111677
  frame_id: ''
magnetic_x: -9980.3193359375
magnetic_y: 5170.47998046875
magnetic_z: 16074.9208984375
---
header: 
  seq: 1865335
  stamp: 
    secs: 1722859470
    nsecs: 857111677
  frame_id: ''
magnetic_x: -9996.3916015625
magnetic_y: 5179.8876953125
magnetic_z: 16095.14453125
---
header: 
  seq: 1865336
  stamp: 
    secs: 1722859470
    nsecs: 864111677
  frame_id: ''
magnetic_x: -9981.8876953125
magnetic_y: 5176.751953125
magnetic_z: 16103.9931640625
---
header: 
  seq: 1865337
  stamp: 
    secs: 1722859470
    nsecs: 870111677
  frame_id: ''
magnetic_x: -9984.6318359375
magnetic_y: 5172.43994140625
magnetic_z: 16105.888671875
---
header: 
  seq: 1865338
  stamp: 
    secs: 1722859470
    nsecs: 876111677
  frame_id: ''
magnetic_x: -9979.5361328125
magnetic_y: 5176.35986328125
magnetic_z: 16112.8408203125
---
header: 
  seq: 1865339
  stamp: 
    secs: 1722859470
    nsecs: 882111677
  frame_id: ''
magnetic_x: -9979.927734375
magnetic_y: 5163.03173828125
magnetic_z: 16088.8251953125
---
header: 
  seq: 1865340
  stamp: 
    secs: 1722859470
    nsecs: 888111677
  frame_id: ''
magnetic_x: -9986.591796875
magnetic_y: 5178.31982421875
magnetic_z: 16090.720703125
---
header: 
  seq: 1865341
  stamp: 
    secs: 1722859470
    nsecs: 894111677
  frame_id: ''
magnetic_x: -9987.767578125
magnetic_y: 5181.4560546875
magnetic_z: 16105.888671875
---
header: 
  seq: 1865342
  stamp: 
    secs: 1722859470
    nsecs: 900111677
  frame_id: ''
magnetic_x: -9994.431640625
magnetic_y: 5174.0078125
magnetic_z: 16083.13671875
---
header: 
  seq: 1865343
  stamp: 
    secs: 1722859470
    nsecs: 907111677
  frame_id: ''
magnetic_x: -9985.8076171875
magnetic_y: 5172.43994140625
magnetic_z: 16104.625
---
header: 
  seq: 1865344
  stamp: 
    secs: 1722859470
    nsecs: 913111677
  frame_id: ''
magnetic_x: -9981.103515625
magnetic_y: 5174.39990234375
magnetic_z: 16102.728515625
---
header: 
  seq: 1865345
  stamp: 
    secs: 1722859470
    nsecs: 919111677
  frame_id: ''
magnetic_x: -9988.16015625
magnetic_y: 5168.1279296875
magnetic_z: 16092.6171875
---
header: 
  seq: 1865346
  stamp: 
    secs: 1722859470
    nsecs: 925111677
  frame_id: ''
magnetic_x: -9983.0634765625
magnetic_y: 5176.35986328125
magnetic_z: 16106.5205078125
---
header: 
  seq: 1865347
  stamp: 
    secs: 1722859470
    nsecs: 931111677
  frame_id: ''
magnetic_x: -9976.3994140625
magnetic_y: 5182.23974609375
magnetic_z: 16097.6728515625
---
header: 
  seq: 1865348
  stamp: 
    secs: 1722859470
    nsecs: 937111677
  frame_id: ''
magnetic_x: -9988.16015625
magnetic_y: 5182.6318359375
magnetic_z: 16078.0810546875
---
header: 
  seq: 1865349
  stamp: 
    secs: 1722859470
    nsecs: 943111677
  frame_id: ''
magnetic_x: -9992.4716796875
magnetic_y: 5177.927734375
magnetic_z: 16103.3603515625
---
header: 
  seq: 1865350
  stamp: 
    secs: 1722859470
    nsecs: 950111677
  frame_id: ''
magnetic_x: -9987.767578125
magnetic_y: 5179.49609375
magnetic_z: 16096.4091796875
---
header: 
  seq: 1865351
  stamp: 
    secs: 1722859470
    nsecs: 956111677
  frame_id: ''
magnetic_x: -9975.6162109375
magnetic_y: 5172.43994140625
magnetic_z: 16094.5126953125
---
header: 
  seq: 1865352
  stamp: 
    secs: 1722859470
    nsecs: 962111677
  frame_id: ''
magnetic_x: -9996.0
magnetic_y: 5184.98388671875
magnetic_z: 16105.2568359375
---
header: 
  seq: 1865353
  stamp: 
    secs: 1722859470
    nsecs: 968111677
  frame_id: ''
magnetic_x: -9984.6318359375
magnetic_y: 5168.1279296875
magnetic_z: 16101.46484375
---
header: 
  seq: 1865354
  stamp: 
    secs: 1722859470
    nsecs: 974111677
  frame_id: ''
magnetic_x: -9991.2958984375
magnetic_y: 5170.47998046875
magnetic_z: 16097.6728515625
---
header: 
  seq: 1865355
  stamp: 
    secs: 1722859470
    nsecs: 980111677
  frame_id: ''
magnetic_x: -9980.7119140625
magnetic_y: 5179.10400390625
magnetic_z: 16086.296875
---
header: 
  seq: 1865356
  stamp: 
    secs: 1722859470
    nsecs: 987111677
  frame_id: ''
magnetic_x: -9985.0234375
magnetic_y: 5170.087890625
magnetic_z: 16108.4169921875
---
header: 
  seq: 1865357
  stamp: 
    secs: 1722859470
    nsecs: 993111677
  frame_id: ''
magnetic_x: -9988.16015625
magnetic_y: 5173.2236328125
magnetic_z: 16113.47265625
---
header: 
  seq: 1865358
  stamp: 
    secs: 1722859470
    nsecs: 999111677
  frame_id: ''
magnetic_x: -9992.86328125
magnetic_y: 5178.31982421875
magnetic_z: 16096.4091796875
---
header: 
  seq: 1865359
  stamp: 
    secs: 1722859471
    nsecs:   5111677
  frame_id: ''
magnetic_x: -9988.5517578125
magnetic_y: 5172.43994140625
magnetic_z: 16090.720703125
---
header: 
  seq: 1865360
  stamp: 
    secs: 1722859471
    nsecs:  11111677
  frame_id: ''
magnetic_x: -9986.591796875
magnetic_y: 5174.0078125
magnetic_z: 16092.6171875
---
header: 
  seq: 1865361
  stamp: 
    secs: 1722859471
    nsecs:  17111677
  frame_id: ''
magnetic_x: -9976.7919921875
magnetic_y: 5178.31982421875
magnetic_z: 16098.3046875
---
header: 
  seq: 1865362
  stamp: 
    secs: 1722859471
    nsecs:  23111677
  frame_id: ''
magnetic_x: -9986.591796875
magnetic_y: 5167.34375
magnetic_z: 16100.201171875
---
header: 
  seq: 1865363
  stamp: 
    secs: 1722859471
    nsecs:  30111677
  frame_id: ''
magnetic_x: -9986.9833984375
magnetic_y: 5177.53564453125
magnetic_z: 16093.880859375
---
header: 
  seq: 1865364
  stamp: 
    secs: 1722859471
    nsecs:  36111677
  frame_id: ''
magnetic_x: -9982.671875
magnetic_y: 5175.9677734375
magnetic_z: 16099.568359375
---
header: 
  seq: 1865365
  stamp: 
    secs: 1722859471
    nsecs:  42111677
  frame_id: ''
magnetic_x: -9984.2392578125
magnetic_y: 5174.39990234375
magnetic_z: 16098.9365234375
---
header: 
  seq: 1865366
  stamp: 
    secs: 1722859471
    nsecs:  48111677
  frame_id: ''
magnetic_x: -9985.416015625
magnetic_y: 5175.57568359375
magnetic_z: 16099.568359375
---
header: 
  seq: 1865367
  stamp: 
    secs: 1722859471
    nsecs:  54111677
  frame_id: ''
magnetic_x: -9986.591796875
magnetic_y: 5168.91162109375
magnetic_z: 16099.568359375
---
header: 
  seq: 1865368
  stamp: 
    secs: 1722859471
    nsecs:  60111677
  frame_id: ''
magnetic_x: -9989.3359375
magnetic_y: 5176.35986328125
magnetic_z: 16086.296875
---
header: 
  seq: 1865369
  stamp: 
    secs: 1722859471
    nsecs:  66111677
  frame_id: ''
magnetic_x: -9989.7275390625
magnetic_y: 5174.7919921875
magnetic_z: 16097.6728515625
---
header: 
  seq: 1865370
  stamp: 
    secs: 1722859471
    nsecs:  73111677
  frame_id: ''
magnetic_x: -9981.49609375
magnetic_y: 5176.35986328125
magnetic_z: 16101.46484375
---
header: 
  seq: 1865371
  stamp: 
    secs: 1722859471
    nsecs:  79111677
  frame_id: ''
magnetic_x: -9975.6162109375
magnetic_y: 5181.84765625
magnetic_z: 16088.1923828125
---
header: 
  seq: 1865372
  stamp: 
    secs: 1722859471
    nsecs:  85111677
  frame_id: ''
magnetic_x: -9989.7275390625
magnetic_y: 5167.34375
magnetic_z: 16094.5126953125
---
header: 
  seq: 1865373
  stamp: 
    secs: 1722859471
    nsecs:  91111677
  frame_id: ''
magnetic_x: -9982.279296875
magnetic_y: 5172.43994140625
magnetic_z: 16093.2490234375
---
header: 
  seq: 1865374
  stamp: 
    secs: 1722859471
    nsecs:  96111677
  frame_id: ''
magnetic_x: -9983.0634765625
magnetic_y: 5174.39990234375
magnetic_z: 16081.2412109375
---
header: 
  seq: 1865375
  stamp: 
    secs: 1722859471
    nsecs: 102111677
  frame_id: ''
magnetic_x: -9986.591796875
magnetic_y: 5179.10400390625
magnetic_z: 16089.45703125
---
header: 
  seq: 1865376
  stamp: 
    secs: 1722859471
    nsecs: 108111677
  frame_id: ''
magnetic_x: -9984.2392578125
magnetic_y: 5166.56005859375
magnetic_z: 16109.048828125
---
header: 
  seq: 1865377
  stamp: 
