header: 
  seq: 1
  stamp: 
    secs: 1722859488
    nsecs: 638314008
  frame_id: ''
twist: 
  linear: 
    x: 0.5556478948421911
    y: 0.08209740904435132
    z: 0.0
  angular: 
    x: 0.0
    y: 0.0
    z: 0.0
---
header: 
  seq: 2
  stamp: 
    secs: 1722859488
    nsecs: 649307489
  frame_id: ''
twist: 
  linear: 
    x: 0.5556513305894015
    y: 0.08203829528435669
    z: 0.0
  angular: 
    x: 0.0
    y: 0.0
    z: 0.0
---
header: 
  seq: 3
  stamp: 
    secs: 1722859488
    nsecs: 659461021
  frame_id: ''
twist: 
  linear: 
    x: 0.5556126825393726
    y: 0.08188847711935485
    z: 0.0
  angular: 
    x: 0.0
    y: 0.0
    z: 0.0
---
header: 
  seq: 4
  stamp: 
    secs: 1722859488
    nsecs: 672880887
  frame_id: ''
twist: 
  linear: 
    x: 0.555717307946364
    y: 0.08194966161136556
    z: 0.0
  angular: 
    x: 0.0
    y: 0.0
    z: 0.0
---
header: 
  seq: 5
  stamp: 
    secs: 1722859488
    nsecs: 686964273
  frame_id: ''
twist: 
  linear: 
    x: 0.555635085812011
    y: 0.08178154301907399
    z: 0.0
  angular: 
    x: 0.0
    y: 0.0
    z: 0.0
---
header: 
  seq: 6
  stamp: 
    secs: 1722859488
    nsecs: 693577289
  frame_id: ''
twist: 
  linear: 
    x: 0.5557515284570571
    y: 0.0819059590612321
    z: 0.0
  angular: 
    x: 0.0
    y: 0.0
    z: 0.0
---
header: 
  seq: 7
  stamp: 
    secs: 1722859488
    nsecs: 711194276
  frame_id: ''
twist: 
  linear: 
    x: 0.5558164967188889
    y: 0.08184403376628958
    z: 0.0
  angular: 
    x: 0.0
    y: 0.0
    z: 0.0
---
header: 
  seq: 8
  stamp: 
    secs: 1722859488
    nsecs: 729013204
  frame_id: ''
twist: 
  linear: 
    x: 0.5557433464935808
    y: 0.08168580343089374
    z: 0.0
  angular: 
    x: 0.0
    y: 0.0
    z: 0.0
---
header: 
  seq: 9
  stamp: 
    secs: 1722859488
    nsecs: 748894453
  frame_id: ''
twist: 
  linear: 
    x: 0.5558265804411361
    y: 0.08175932372509952
    z: 0.0
  angular: 
    x: 0.0
    y: 0.0
    z: 0.0
---
header: 
  seq: 10
  stamp: 
    secs: 1722859488
    nsecs: 770453214
  frame_id: ''
twist: 
  linear: 
    x: 0.5557283976129781
    y: 0.08156127088063783
    z: 0.0
  angular: 
    x: 0.0
    y: 0.0
    z: 0.0
---
header: 
  seq: 11
  stamp: 
    secs: 1722859488
    nsecs: 784991025
  frame_id: ''
twist: 
  linear: 
    x: 0.5558754690324361
    y: 0.0817233668565727
    z: 0.0
  angular: 
    x: 0.0
    y: 0.0
    z: 0.0
---
header: 
  seq: 12
  stamp: 
    secs: 1722859488
    nsecs: 803960561
  frame_id: ''
twist: 
  linear: 
    x: 0.5559347496044799
    y: 0.08160986968765377
    z: 0.0
  angular: 
    x: 0.0
    y: 0.0
    z: 0.0
---
header: 
  seq: 13
  stamp: 
    secs: 1722859488
    nsecs: 824391365
  frame_id: ''
twist: 
  linear: 
    x: 0.5560345169017263
    y: 0.08171649641034166
    z: 0.0
  angular: 
    x: 0.0
    y: 0.0
    z: 0.0
---
header: 
  seq: 14
  stamp: 
    secs: 1722859488
    nsecs: 840905427
  frame_id: ''
twist: 
  linear: 
    x: 0.5560599798425376
    y: 0.08170870516180681
    z: 0.0
  angular: 
    x: 0.0
    y: 0.0
    z: 0.0
---
header: 
  seq: 15
  stamp: 
    secs: 1722859488
    nsecs: 849678754
  frame_id: ''
twist: 
  linear: 
    x: 0.5560621439654775
    y: 0.0816620463711104
    z: 0.0
  angular: 
    x: 0.0
    y: 0.0
    z: 0.0
---
header: 
  seq: 16
  stamp: 
    secs: 1722859488
    nsecs: 885307550
  frame_id: ''
twist: 
  linear: 
    x: 0.5564381734539147
    y: 0.08136047024427297
    z: 0.0
  angular: 
    x: 0.0
    y: 0.0
    z: 0.0
---
header: 
  seq: 17
  stamp: 
    secs: 1722859488
    nsecs: 900285243
  frame_id: ''
twist: 
  linear: 
    x: 0.5564411375968078
    y: 0.08131707325641087
    z: 0.0
  angular: 
    x: 0.0
    y: 0.0
    z: 0.0
---
header: 
  seq: 18
  stamp: 
    secs: 1722859488
    nsecs: 909907102
  frame_id: ''
twist: 
  linear: 
    x: 0.556552232641583
    y: 0.08146552557132768
    z: 0.0
  angular: 
    x: 0.0
    y: 0.0
    z: 0.0
---
header: 
  seq: 19
  stamp: 
    secs: 1722859488
    nsecs: 921579360
  frame_id: ''
twist: 
  linear: 
    x: 0.5564724524602822
    y: 0.08127893223078295
    z: 0.0
  angular: 
    x: 0.0
    y: 0.0
    z: 0.0
---
header: 
  seq: 20
  stamp: 
    secs: 1722859488
    nsecs: 940851449
  frame_id: ''
twist: 
  linear: 
    x: 0.5565981947888817
    y: 0.08122658399589652
    z: 0.0
  angular: 
    x: 0.0
    y: 0.0
    z: 0.0
---
header: 
  seq: 21
  stamp: 
    secs: 1722859488
    nsecs: 955618381
  frame_id: ''
twist: 
  linear: 
    x: 0.556555813386914
    y: 0.08109931644521677
    z: 0.0
  angular: 
    x: 0.0
    y: 0.0
    z: 0.0
---
header: 
  seq: 22
  stamp: 
    secs: 1722859488
    nsecs: 975624561
  frame_id: ''
twist: 
  linear: 
    x: 0.5567407761451673
    y: 0.08107859249578694
    z: 0.0
  angular: 
    x: 0.0
    y: 0.0
    z: 0.0
---
header: 
  seq: 23
  stamp: 
    secs: 1722859488
    nsecs: 998833656
  frame_id: ''
twist: 
  linear: 
    x: 0.5567416983256557
    y: 0.081035890916591
    z: 0.0
  angular: 
    x: 0.0
    y: 0.0
    z: 0.0
---
header: 
  seq: 24
  stamp: 
    secs: 1722859489
    nsecs:  27859210
  frame_id: ''
twist: 
  linear: 
    x: 0.5568642714956712
    y: 0.0809670197104488
    z: 0.0
  angular: 
    x: 0.0
    y: 0.0
    z: 0.0
---
header: 
  seq: 25
  stamp: 
    secs: 1722859489
    nsecs:  68792104
  frame_id: ''
twist: 
  linear: 
    x: 0.5569048558462223
    y: 0.08077935711719239
    z: 0.0
  angular: 
    x: 0.0
    y: 0.0
    z: 0.0
---
header: 
  seq: 26
  stamp: 
    secs: 1722859489
    nsecs:  98747491
  frame_id: ''
twist: 
  linear: 
    x: 0.5571022413172682
    y: 0.08088689763636207
    z: 0.0
  angular: 
    x: 0.0
    y: 0.0
    z: 0.0
---
header: 
  seq: 27
  stamp: 
    secs: 1722859489
    nsecs: 108704328
  frame_id: ''
twist: 
  linear: 
    x: 0.5571232494794782
    y: 0.08088007108115906
    z: 0.0
  angular: 
    x: 0.0
    y: 0.0
    z: 0.0
---
header: 
  seq: 28
  stamp: 
    secs: 1722859489
    nsecs: 124944686
  frame_id: ''
twist: 
  linear: 
    x: 0.5570223444807711
    y: 0.08062548235385208
    z: 0.0
  angular: 
    x: 0.0
    y: 0.0
    z: 0.0
---
header: 
  seq: 29
  stamp: 
    secs: 1722859489
    nsecs: 142750978
  frame_id: ''
twist: 
  linear: 
    x: 0.5570610439968711
    y: 0.08065630929979901
    z: 0.0
  angular: 
    x: 0.0
    y: 0.0
    z: 0.0
---
header: 
  seq: 30
  stamp: 
    secs: 1722859489
    nsecs: 165839672
  frame_id: ''
twist: 
  linear: 
    x: 0.5570465274638373
    y: 0.0806033813122831
    z: 0.0
  angular: 
    x: 0.0
    y: 0.0
    z: 0.0
---
header: 
  seq: 31
  stamp: 
    secs: 1722859489
    nsecs: 179995536
  frame_id: ''
twist: 
  linear: 
    x: 0.5571802878101955
    y: 0.08079671460746757
    z: 0.0
  angular: 
    x: 0.0
    y: 0.0
    z: 0.0
---
header: 
  seq: 32
  stamp: 
    secs: 1722859489
    nsecs: 187960147
  frame_id: ''
twist: 
  linear: 
    x: 0.5571930338208045
    y: 0.080778479657919
    z: 0.0
  angular: 
    x: 0.0
    y: 0.0
    z: 0.0
---
header: 
  seq: 33
  stamp: 
    secs: 1722859489
    nsecs: 200062513
  frame_id: ''
twist: 
  linear: 
    x: 0.5571654161228325
    y: 0.08067102890041357
    z: 0.0
  angular: 
    x: 0.0
    y: 0.0
    z: 0.0
---
header: 
  seq: 34
  stamp: 
    secs: 1722859489
    nsecs: 210635423
  frame_id: ''
twist: 
  linear: 
    x: 0.5571134883355484
    y: 0.0805162007903092
    z: 0.0
  angular: 
    x: 0.0
    y: 0.0
    z: 0.0
---
header: 
  seq: 35
  stamp: 
    secs: 1722859489
    nsecs: 222472667
  frame_id: ''
twist: 
  linear: 
    x: 0.5571553692171597
    y: 0.0805544270025604
    z: 0.0
  angular: 
    x: 0.0
    y: 0.0
    z: 0.0
---
header: 
  seq: 36
  stamp: 
    secs: 1722859489
    nsecs: 236431121
  frame_id: ''
twist: 
  linear: 
    x: 0.5571743691904526
    y: 0.08008689509470386
    z: 0.0
  angular: 
    x: 0.0
    y: 0.0
    z: 0.0
---
header: 
  seq: 37
  stamp: 
    secs: 1722859489
    nsecs: 259624719
  frame_id: ''
twist: 
  linear: 
    x: 0.5573430729721163
    y: 0.07909753523031435
    z: 0.0
  angular: 
    x: 0.0
    y: 0.0
    z: 0.0
---
header: 
  seq: 38
  stamp: 
    secs: 1722859489
    nsecs: 270741939
  frame_id: ''
twist: 
  linear: 
    x: 0.5572757881428846
    y: 0.07893250880923941
    z: 0.0
  angular: 
    x: 0.0
    y: 0.0
    z: 0.0
---
header: 
  seq: 39
  stamp: 
    secs: 1722859489
    nsecs: 285755872
  frame_id: ''
twist: 
  linear: 
    x: 0.5572981225065108
    y: 0.07893718870381505
    z: 0.0
  angular: 
    x: 0.0
    y: 0.0
    z: 0.0
---
header: 
  seq: 40
  stamp: 
    secs: 1722859489
    nsecs: 306773185
  frame_id: ''
twist: 
  linear: 
    x: 0.5575200006105837
    y: 0.07903133634072645
    z: 0.0
  angular: 
    x: 0.0
    y: 0.0
    z: 0.0
---
header: 
  seq: 41
  stamp: 
    secs: 1722859489
    nsecs: 317680835
  frame_id: ''
twist: 
  linear: 
    x: 0.5574590482498354
    y: 0.07887008553199129
    z: 0.0
  angular: 
    x: 0.0
    y: 0.0
    z: 0.0
---
header: 
  seq: 42
  stamp: 
    secs: 1722859489
    nsecs: 325681447
  frame_id: ''
twist: 
  linear: 
    x: 0.5575284221767989
    y: 0.0790315551920781
    z: 0.0
  angular: 
    x: 0.0
    y: 0.0
    z: 0.0
---
header: 
  seq: 43
  stamp: 
    secs: 1722859489
    nsecs: 343902349
  frame_id: ''
twist: 
  linear: 
    x: 0.5574986295281323
    y: 0.07895563343639769
    z: 0.0
  angular: 
    x: 0.0
    y: 0.0
    z: 0.0
---
header: 
  seq: 44
  stamp: 
    secs: 1722859489
    nsecs: 355993747
  frame_id: ''
twist: 
  linear: 
    x: 0.5575328257230385
    y: 0.07903081491478951
    z: 0.0
  angular: 
    x: 0.0
    y: 0.0
    z: 0.0
---
header: 
  seq: 45
  stamp: 
    secs: 1722859489
    nsecs: 376756191
  frame_id: ''
twist: 
  linear: 
    x: 0.5575832146525131
    y: 0.07911836547907415
    z: 0.0
  angular: 
    x: 0.0
    y: 0.0
    z: 0.0
---
header: 
  seq: 46
  stamp: 
    secs: 1722859489
    nsecs: 389831066
  frame_id: ''
twist: 
  linear: 
    x: 0.5574396289775865
    y: 0.07875504964156013
    z: 0.0
  angular: 
    x: 0.0
    y: 0.0
    z: 0.0
---
header: 
  seq: 47
  stamp: 
    secs: 1722859489
    nsecs: 423403501
  frame_id: ''
twist: 
  linear: 
    x: 0.557709837156231
    y: 0.07843662943200531
    z: 0.0
  angular: 
    x: 0.0
    y: 0.0
    z: 0.0
---
header: 
  seq: 48
  stamp: 
    secs: 1722859489
    nsecs: 434645652
  frame_id: ''
twist: 
  linear: 
    x: 0.5577435277413697
    y: 0.07852930179277517
    z: 0.0
  angular: 
    x: 0.0
    y: 0.0
    z: 0.0
---
header: 
  seq: 49
  stamp: 
    secs: 1722859489
    nsecs: 448114633
  frame_id: ''
twist: 
  linear: 
    x: 0.5577599274967097
    y: 0.07855971419107619
    z: 0.0
  angular: 
    x: 0.0
    y: 0.0
    z: 0.0
---
header: 
  seq: 50
  stamp: 
    secs: 1722859489
    nsecs: 467064380
  frame_id: ''
twist: 
  linear: 
    x: 0.5577392383910369
    y: 0.07849413834456608
    z: 0.0
  angular: 
    x: 0.0
    y: 0.0
    z: 0.0
---
header: 
  seq: 51
  stamp: 
    secs: 1722859489
    nsecs: 477893590
  frame_id: ''
twist: 
  linear: 
    x: 0.5577178621696655
    y: 0.07842792670429918
    z: 0.0
  angular: 
    x: 0.0
    y: 0.0
    z: 0.0
---
header: 
  seq: 52
  stamp: 
    secs: 1722859489
    nsecs: 488532781
  frame_id: ''
twist: 
  linear: 
    x: 0.5577608920020696
    y: 0.07854147245099664
    z: 0.0
  angular: 
    x: 0.0
    y: 0.0
    z: 0.0
---
header: 
  seq: 53
  stamp: 
    secs: 1722859489
    nsecs: 513182640
  frame_id: ''
twist: 
  linear: 
    x: 0.5577634298974447
    y: 0.07849033085758708
    z: 0.0
  angular: 
    x: 0.0
    y: 0.0
    z: 0.0
---
header: 
  seq: 54
  stamp: 
    secs: 1722859489
    nsecs: 531339883
  frame_id: ''
twist: 
  linear: 
    x: 0.5577301381575743
    y: 0.07839182524850102
    z: 0.0
  angular: 
    x: 0.0
    y: 0.0
    z: 0.0
---
header: 
  seq: 55
  stamp: 
    secs: 1722859489
    nsecs: 557660102
  frame_id: ''
twist: 
  linear: 
    x: 0.5578397570738407
    y: 0.07869566229574214
    z: 0.0
  angular: 
    x: 0.0
    y: 0.0
    z: 0.0
---
header: 
  seq: 56
  stamp: 
    secs: 1722859489
    nsecs: 568663835
  frame_id: ''
twist: 
  linear: 
    x: 0.557783312170422
    y: 0.07851855695554155
    z: 0.0
  angular: 
    x: 0.0
    y: 0.0
    z: 0.0
---
header: 
  seq: 57
  stamp: 
    secs: 1722859489
    nsecs: 581065177
  frame_id: ''
twist: 
  linear: 
    x: 0.5578553476751938
    y: 0.0787152010249204
    z: 0.0
  angular: 
    x: 0.0
    y: 0.0
    z: 0.0
---
header: 
  seq: 58
  stamp: 
    secs: 1722859489
    nsecs: 603675842
  frame_id: ''
twist: 
  linear: 
    x: 0.5578862604033532
    y: 0.07837630063424599
    z: 0.0
  angular: 
    x: 0.0
    y: 0.0
    z: 0.0
---
header: 
  seq: 59
  stamp: 
    secs: 1722859489
    nsecs: 611492633
  frame_id: ''
twist: 
  linear: 
    x: 0.557890167054408
    y: 0.07838101680316828
    z: 0.0
  angular: 
    x: 0.0
    y: 0.0
    z: 0.0
---
header: 
  seq: 60
  stamp: 
    secs: 1722859489
    nsecs: 625317096
  frame_id: ''
twist: 
  linear: 
    x: 0.5578595472710702
    y: 0.0782776911316766
    z: 0.0
  angular: 
    x: 0.0
    y: 0.0
    z: 0.0
---
header: 
  seq: 61
  stamp: 
    secs: 1722859489
    nsecs: 641727447
  frame_id: ''
twist: 
  linear: 
    x: 0.5578966368808963
    y: 0.07838545219881944
    z: 0.0
  angular: 
    x: 0.0
    y: 0.0
    z: 0.0
---
header: 
  seq: 62
  stamp: 
    secs: 1722859489
    nsecs: 661650896
  frame_id: ''
twist: 
  linear: 
    x: 0.5579143345342173
    y: 0.0783626105638459
    z: 0.0
  angular: 
    x: 0.0
    y: 0.0
    z: 0.0
---
header: 
  seq: 63
  stamp: 
    secs: 1722859489
    nsecs: 677559137
  frame_id: ''
twist: 
  linear: 
    x: 0.557896281270239
    y: 0.0782941301454829
    z: 0.0
  angular: 
    x: 0.0
    y: 0.0
    z: 0.0
---
header: 
  seq: 64
  stamp: 
    secs: 1722859489
    nsecs: 698778390
  frame_id: ''
twist: 
  linear: 
    x: 0.5579373812560875
    y: 0.07841734546029042
    z: 0.0
  angular: 
    x: 0.0
    y: 0.0
    z: 0.0
---
header: 
  seq: 65
  stamp: 
    secs: 1722859489
    nsecs: 710308313
  frame_id: ''
twist: 
  linear: 
    x: 0.5579364091190461
    y: 0.0784006045714523
    z: 0.0
  angular: 
    x: 0.0
    y: 0.0
    z: 0.0
---
header: 
  seq: 66
  stamp: 
    secs: 1722859489
    nsecs: 729394674
  frame_id: ''
twist: 
  linear: 
    x: 0.5579283646806097
    y: 0.07836488057303381
    z: 0.0
  angular: 
    x: 0.0
    y: 0.0
    z: 0.0
---
header: 
  seq: 67
  stamp: 
    secs: 1722859489
    nsecs: 741321563
  frame_id: ''
twist: 
  linear: 
    x: 0.5579124157962345
    y: 0.07831289308790361
    z: 0.0
  angular: 
    x: 0.0
    y: 0.0
    z: 0.0
---
header: 
  seq: 68
  stamp: 
    secs: 1722859489
    nsecs: 757750511
  frame_id: ''
twist: 
  linear: 
    x: 0.5580014347458566
    y: 0.07858481172130313
    z: 0.0
  angular: 
    x: 0.0
    y: 0.0
    z: 0.0
---
header: 
  seq: 69
  stamp: 
    secs: 1722859489
    nsecs: 774018526
  frame_id: ''
twist: 
  linear: 
    x: 0.5579175420852986
    y: 0.07832027813773938
    z: 0.0
  angular: 
    x: 0.0
    y: 0.0
    z: 0.0
---
header: 
  seq: 70
  stamp: 
    secs: 1722859489
    nsecs: 784636497
  frame_id: ''
twist: 
  linear: 
    x: 0.5579707956174879
    y: 0.07846328946154364
    z: 0.0
  angular: 
    x: 0.0
    y: 0.0
    z: 0.0
---
header: 
  seq: 71
  stamp: 
    secs: 1722859489
    nsecs: 796921014
  frame_id: ''
twist: 
  linear: 
    x: 0.5579827636959251
    y: 0.07849113774204548
    z: 0.0
  angular: 
    x: 0.0
    y: 0.0
    z: 0.0
---
header: 
  seq: 72
  stamp: 
    secs: 1722859489
    nsecs: 815357685
  frame_id: ''
twist: 
  linear: 
    x: 0.5580068979154911
    y: 0.07856797897396796
    z: 0.0
  angular: 
    x: 0.0
    y: 0.0
    z: 0.0
---
header: 
  seq: 73
  stamp: 
    secs: 1722859489
    nsecs: 829788684
  frame_id: ''
twist: 
  linear: 
    x: 0.5580005576425232
    y: 0.0785359380327667
    z: 0.0
  angular: 
    x: 0.0
    y: 0.0
    z: 0.0
---
header: 
  seq: 74
  stamp: 
    secs: 1722859489
    nsecs: 844346523
  frame_id: ''
twist: 
  linear: 
    x: 0.5580015419894087
    y: 0.07853307429016966
    z: 0.0
  angular: 
    x: 0.0
    y: 0.0
    z: 0.0
---
header: 
  seq: 75
  stamp: 
    secs: 1722859489
    nsecs: 864466667
  frame_id: ''
twist: 
  linear: 
    x: 0.5580786420919899
    y: 0.0787845504305634
    z: 0.0
  angular: 
    x: 0.0
    y: 0.0
    z: 0.0
---
header: 
  seq: 76
  stamp: 
    secs: 1722859489
    nsecs: 890752553
  frame_id: ''
twist: 
  linear: 
    x: 0.5580815133384106
    y: 0.07879045519729029
    z: 0.0
  angular: 
    x: 0.0
    y: 0.0
    z: 0.0
---
header: 
  seq: 77
  stamp: 
    secs: 1722859489
    nsecs: 899167776
  frame_id: ''
twist: 
  linear: 
    x: 0.5581200134593826
    y: 0.07891749339682727
    z: 0.0
  angular: 
    x: 0.0
    y: 0.0
    z: 0.0
---
header: 
  seq: 78
  stamp: 
    secs: 1722859489
    nsecs: 907870292
  frame_id: ''
twist: 
  linear: 
    x: 0.558012768702385
    y: 0.0785444560089026
    z: 0.0
  angular: 
    x: 0.0
    y: 0.0
    z: 0.0
---
header: 
  seq: 79
  stamp: 
    secs: 1722859489
    nsecs: 917227506
  frame_id: ''
twist: 
  linear: 
    x: 0.5581453940832438
    y: 0.07898531331120748
    z: 0.0
  angular: 
    x: 0.0
    y: 0.0
    z: 0.0
---
header: 
  seq: 80
  stamp: 
    secs: 1722859489
    nsecs: 924091339
  frame_id: ''
twist: 
  linear: 
    x: 0.558068786791961
    y: 0.07868970390153632
    z: 0.0
  angular: 
    x: 0.0
    y: 0.0
    z: 0.0
---
header: 
  seq: 81
  stamp: 
    secs: 1722859489
    nsecs: 941166400
  frame_id: ''
twist: 
  linear: 
    x: 0.5581175225524593
    y: 0.07886688913917751
    z: 0.0
  angular: 
    x: 0.0
    y: 0.0
    z: 0.0
---
header: 
  seq: 82
  stamp: 
    secs: 1722859489
    nsecs: 953659534
  frame_id: ''
twist: 
  linear: 
    x: 0.5580567590810683
    y: 0.07867023279800946
    z: 0.0
  angular: 
    x: 0.0
    y: 0.0
    z: 0.0
---
header: 
  seq: 83
  stamp: 
    secs: 1722859489
    nsecs: 969384193
  frame_id: ''
twist: 
  linear: 
    x: 0.5581454416442823
    y: 0.07895115165640486
    z: 0.0
  angular: 
    x: 0.0
    y: 0.0
    z: 0.0
---
header: 
  seq: 84
  stamp: 
    secs: 1722859489
    nsecs: 993931055
  frame_id: ''
twist: 
  linear: 
    x: 0.5581526664008694
    y: 0.07896956617870812
    z: 0.0
  angular: 
    x: 0.0
    y: 0.0
    z: 0.0
---
header: 
  seq: 85
  stamp: 
    secs: 1722859490
    nsecs:  56735515
  frame_id: ''
twist: 
  linear: 
    x: 0.5586145769315765
    y: 0.07816237016100697
    z: 0.0
  angular: 
    x: 0.0
    y: 0.0
    z: 0.0
---
header: 
  seq: 86
  stamp: 
    secs: 1722859490
    nsecs:  84964513
  frame_id: ''
twist: 
  linear: 
    x: 0.5586442378512723
    y: 0.07809656779057676
    z: 0.0
  angular: 
    x: 0.0
    y: 0.0
    z: 0.0
---
header: 
  seq: 87
  stamp: 
    secs: 1722859490
    nsecs: 108777999
  frame_id: ''
twist: 
  linear: 
    x: 0.5586650016763054
    y: 0.07817405937123283
    z: 0.0
  angular: 
    x: 0.0
    y: 0.0
    z: 0.0
---
header: 
  seq: 88
  stamp: 
    secs: 1722859490
    nsecs: 125028133
  frame_id: ''
twist: 
  linear: 
    x: 0.5586363992577594
    y: 0.07792834511534102
    z: 0.0
  angular: 
    x: 0.0
    y: 0.0
    z: 0.0
---
header: 
  seq: 89
  stamp: 
    secs: 1722859490
    nsecs: 138177633
  frame_id: ''
twist: 
  linear: 
    x: 0.5586652899310188
    y: 0.07806018193956489
    z: 0.0
  angular: 
    x: 0.0
    y: 0.0
    z: 0.0
---
header: 
  seq: 90
  stamp: 
    secs: 1722859490
    nsecs: 144705057
  frame_id: ''
twist: 
  linear: 
    x: 0.5586697763769722
    y: 0.07803515031844672
    z: 0.0
  angular: 
    x: 0.0
    y: 0.0
    z: 0.0
---
header: 
  seq: 91
  stamp: 
    secs: 1722859490
    nsecs: 162552356
  frame_id: ''
twist: 
  linear: 
    x: 0.5587026779580946
    y: 0.07808077082641729
    z: 0.0
  angular: 
    x: 0.0
    y: 0.0
    z: 0.0
---
header: 
  seq: 92
  stamp: 
    secs: 1722859490
    nsecs: 181692600
  frame_id: ''
twist: 
  linear: 
    x: 0.5586916172519216
    y: 0.07787586669769496
    z: 0.0
  angular: 
    x: 0.0
    y: 0.0
    z: 0.0
---
header: 
  seq: 93
  stamp: 
    secs: 1722859490
    nsecs: 194374084
  frame_id: ''
twist: 
  linear: 
    x: 0.5587211503760756
    y: 0.07804452214663564
    z: 0.0
  angular: 
    x: 0.0
    y: 0.0
    z: 0.0
---
header: 
  seq: 94
  stamp: 
    secs: 1722859490
    nsecs: 209750413
  frame_id: ''
twist: 
  linear: 
    x: 0.5586977670057772
    y: 0.07782356350329456
    z: 0.0
  angular: 
    x: 0.0
    y: 0.0
    z: 0.0
---
header: 
  seq: 95
  stamp: 
    secs: 1722859490
    nsecs: 221324682
  frame_id: ''
twist: 
  linear: 
    x: 0.5587042350010092
    y: 0.07783780699078231
    z: 0.0
  angular: 
    x: 0.0
    y: 0.0
    z: 0.0
---
header: 
  seq: 96
  stamp: 
    secs: 1722859490
    nsecs: 233666419
  frame_id: ''
twist: 
  linear: 
    x: 0.5587171932032643
    y: 0.07787588398316256
    z: 0.0
  angular: 
    x: 0.0
    y: 0.0
    z: 0.0
---
header: 
  seq: 97
  stamp: 
    secs: 1722859490
    nsecs: 243436813
  frame_id: ''
twist: 
  linear: 
    x: 0.5587250065086837
    y: 0.0778816878867108
    z: 0.0
  angular: 
    x: 0.0
    y: 0.0
    z: 0.0
---
header: 
  seq: 98
  stamp: 
    secs: 1722859490
    nsecs: 273776531
  frame_id: ''
twist: 
  linear: 
    x: 0.5588069950896989
    y: 0.07775434329799005
    z: 0.0
  angular: 
    x: 0.0
    y: 0.0
    z: 0.0
---
header: 
  seq: 99
  stamp: 
    secs: 1722859490
    nsecs: 286424398
  frame_id: ''
twist: 
  linear: 
    x: 0.5587683412241342
    y: 0.07732772905550873
    z: 0.0
  angular: 
    x: 0.0
    y: 0.0
    z: 0.0
---
header: 
  seq: 100
  stamp: 
    secs: 1722859490
    nsecs: 293145179
  frame_id: ''
twist: 
  linear: 
    x: 0.5587808717277298
    y: 0.07736871856310448
    z: 0.0
  angular: 
    x: 0.0
    y: 0.0
    z: 0.0
---
header: 
  seq: 101
  stamp: 
    secs: 1722859490
    nsecs: 311133384
  frame_id: ''
twist: 
  linear: 
    x: 0.5587941754919417
    y: 0.07744406351511335
    z: 0.0
  angular: 
    x: 0.0
    y: 0.0
    z: 0.0
---
header: 
  seq: 102
  stamp: 
    secs: 1722859490
    nsecs: 324995279
  frame_id: ''
twist: 
  linear: 
    x: 0.5587916098558571
    y: 0.07736654915159552
    z: 0.0
  angular: 
    x: 0.0
    y: 0.0
    z: 0.0
---
header: 
  seq: 103
  stamp: 
    secs: 1722859490
    nsecs: 344485998
  frame_id: ''
twist: 
  linear: 
    x: 0.5588018746238577
    y: 0.07741482188303914
    z: 0.0
  angular: 
    x: 0.0
    y: 0.0
    z: 0.0
---
header: 
  seq: 104
  stamp: 
    secs: 1722859490
    nsecs: 358799934
  frame_id: ''
twist: 
  linear: 
    x: 0.5587971945043204
    y: 0.07731239570532238
    z: 0.0
  angular: 
    x: 0.0
    y: 0.0
    z: 0.0
---
header: 
  seq: 105
  stamp: 
    secs: 1722859490
    nsecs: 377228260
  frame_id: ''
twist: 
  linear: 
    x: 0.5588114363593085
    y: 0.07740214719494934
    z: 0.0
  angular: 
    x: 0.0
    y: 0.0
    z: 0.0
---
header: 
  seq: 106
  stamp: 
    secs: 1722859490
    nsecs: 392166852
  frame_id: ''
twist: 
  linear: 
    x: 0.5588189920418917
    y: 0.07746522913703172
    z: 0.0
  angular: 
    x: 0.0
    y: 0.0
    z: 0.0
---
header: 
  seq: 107
  stamp: 
    secs: 1722859490
    nsecs: 405076026
  frame_id: ''
twist: 
  linear: 
    x: 0.5588030993400012
    y: 0.07727001546469381
    z: 0.0
  angular: 
    x: 0.0
    y: 0.0
    z: 0.0
---
header: 
  seq: 108
  stamp: 
    secs: 1722859490
    nsecs: 421694278
  frame_id: ''
twist: 
  linear: 
    x: 0.5588158828124323
    y: 0.07732520090410674
    z: 0.0
  angular: 
    x: 0.0
    y: 0.0
    z: 0.0
---
header: 
  seq: 109
  stamp: 
    secs: 1722859490
    nsecs: 442992210
  frame_id: ''
twist: 
  linear: 
    x: 0.5587997741417122
    y: 0.07661173151172702
    z: 0.0
  angular: 
    x: 0.0
    y: 0.0
    z: 0.0
---
header: 
  seq: 110
  stamp: 
    secs: 1722859490
    nsecs: 469603061
  frame_id: ''
twist: 
  linear: 
    x: 0.5588057558353712
    y: 0.07666869181111163
    z: 0.0
  angular: 
    x: 0.0
    y: 0.0
    z: 0.0
---
header: 
  seq: 111
  stamp: 
    secs: 1722859490
    nsecs: 482651233
  frame_id: ''
twist: 
  linear: 
    x: 0.5588110160776235
    y: 0.07673882255764558
    z: 0.0
  angular: 
    x: 0.0
    y: 0.0
    z: 0.0
---
header: 
  seq: 112
  stamp: 
    secs: 1722859490
    nsecs: 509030818
  frame_id: ''
twist: 
  linear: 
    x: 0.5588268046738234
    y: 0.07693811894913374
    z: 0.0
  angular: 
    x: 0.0
    y: 0.0
    z: 0.0
---
header: 
  seq: 113
  stamp: 
    secs: 1722859490
    nsecs: 528695583
  frame_id: ''
twist: 
  linear: 
    x: 0.5588128731306976
    y: 0.07677831025700944
    z: 0.0
  angular: 
    x: 0.0
    y: 0.0
    z: 0.0
---
header: 
  seq: 114
  stamp: 
    secs: 1722859490
    nsecs: 544813156
  frame_id: ''
twist: 
  linear: 
    x: 0.5588142622083156
    y: 0.07678775696112931
    z: 0.0
  angular: 
    x: 0.0
    y: 0.0
    z: 0.0
---
header: 
  seq: 115
  stamp: 
    secs: 1722859490
    nsecs: 566452264
  frame_id: ''
twist: 
  linear: 
    x: 0.5588144410159779
    y: 0.07680144847383226
    z: 0.0
  angular: 
    x: 0.0
    y: 0.0
    z: 0.0
---
header: 
  seq: 116
  stamp: 
    secs: 1722859490
    nsecs: 584828615
  frame_id: ''
twist: 
  linear: 
    x: 0.5588041676515366
    y: 0.07669061399789645
    z: 0.0
  angular: 
    x: 0.0
    y: 0.0
    z: 0.0
---
header: 
  seq: 117
  stamp: 
    secs: 1722859490
    nsecs: 600519418
  frame_id: ''
twist: 
  linear: 
    x: 0.5588230310791655
    y: 0.07691787340604037
    z: 0.0
  angular: 
    x: 0.0
    y: 0.0
    z: 0.0
---
header: 
  seq: 118
  stamp: 
    secs: 1722859490
    nsecs: 611508369
  frame_id: ''
twist: 
  linear: 
    x: 0.5588174568089996
    y: 0.07687751886232853
    z: 0.0
  angular: 
    x: 0.0
    y: 0.0
    z: 0.0
---
header: 
  seq: 119
  stamp: 
    secs: 1722859490
    nsecs: 661406278
  frame_id: ''
twist: 
  linear: 
    x: 0.5589024744066838
    y: 0.0763416226179616
    z: 0.0
  angular: 
    x: 0.0
    y: 0.0
    z: 0.0
---
header: 
  seq: 120
  stamp: 
    secs: 1722859490
    nsecs: 681173324
  frame_id: ''
twist: 
  linear: 
    x: 0.5588933773460071
    y: 0.07609664440676436
    z: 0.0
  angular: 
    x: 0.0
    y: 0.0
    z: 0.0
---
header: 
  seq: 121
  stamp: 
    secs: 1722859490
    nsecs: 691438198
  frame_id: ''
twist: 
  linear: 
    x: 0.5589029276350158
    y: 0.07621038045456352
    z: 0.0
  angular: 
    x: 0.0
    y: 0.0
    z: 0.0
---
header: 
  seq: 122
  stamp: 
    secs: 1722859490
    nsecs: 707341670
  frame_id: ''
twist: 
  linear: 
    x: 0.5588930857287052
    y: 0.0759656791567984
    z: 0.0
  angular: 
    x: 0.0
    y: 0.0
    z: 0.0
---
header: 
  seq: 123
  stamp: 
    secs: 1722859490
    nsecs: 727637290
  frame_id: ''
twist: 
  linear: 
    x: 0.5589187728633875
    y: 0.07613873024915162
    z: 0.0
  angular: 
    x: 0.0
    y: 0.0
    z: 0.0
---
header: 
  seq: 124
  stamp: 
    secs: 1722859490
    nsecs: 753689289
  frame_id: ''
twist: 
  linear: 
    x: 0.5589235315205923
    y: 0.07618291096807592
    z: 0.0
  angular: 
    x: 0.0
    y: 0.0
    z: 0.0
---
header: 
  seq: 125
  stamp: 
    secs: 1722859490
    nsecs: 761600017
  frame_id: ''
twist: 
  linear: 
    x: 0.5589024515247751
    y: 0.07578835669541148
    z: 0.0
  angular: 
    x: 0.0
    y: 0.0
    z: 0.0
---
header: 
  seq: 126
  stamp: 
    secs: 1722859490
    nsecs: 774465322
  frame_id: ''
twist: 
  linear: 
    x: 0.5589141682808383
    y: 0.07601102152848249
    z: 0.0
  angular: 
    x: 0.0
    y: 0.0
    z: 0.0
---
header: 
  seq: 127
  stamp: 
    secs: 1722859490
    nsecs: 794552087
  frame_id: ''
twist: 
  linear: 
    x: 0.5589115565900683
    y: 0.075876602775372
    z: 0.0
  angular: 
    x: 0.0
    y: 0.0
    z: 0.0
---
header: 
  seq: 128
  stamp: 
    secs: 1722859490
    nsecs: 820361137
  frame_id: ''
twist: 
  linear: 
    x: 0.5589205084941192
    y: 0.07590518735162226
    z: 0.0
  angular: 
    x: 0.0
    y: 0.0
    z: 0.0
---
header: 
  seq: 129
  stamp: 
    secs: 1722859490
    nsecs: 833540439
  frame_id: ''
twist: 
  linear: 
    x: 0.5589152048690543
    y: 0.07573729866380974
    z: 0.0
  angular: 
    x: 0.0
    y: 0.0
    z: 0.0
---
header: 
  seq: 130
  stamp: 
    secs: 1722859490
    nsecs: 845805883
  frame_id: ''
twist: 
  linear: 
    x: 0.558916461698647
    y: 0.07571812492059463
    z: 0.0
  angular: 
    x: 0.0
    y: 0.0
    z: 0.0
---
header: 
  seq: 131
  stamp: 
    secs: 1722859490
    nsecs: 864576578
  frame_id: ''
twist: 
  linear: 
    x: 0.5589153896111028
    y: 0.07562095775313027
    z: 0.0
  angular: 
    x: 0.0
    y: 0.0
    z: 0.0
---
header: 
  seq: 132
  stamp: 
    secs: 1722859490
    nsecs: 878322362
  frame_id: ''
twist: 
  linear: 
    x: 0.5589205415609421
    y: 0.07569184051491695
    z: 0.0
  angular: 
    x: 0.0
    y: 0.0
    z: 0.0
---
header: 
  seq: 133
  stamp: 
    secs: 1722859490
    nsecs: 889691114
  frame_id: ''
twist: 
  linear: 
    x: 0.5589207346600668
    y: 0.07558268209250366
    z: 0.0
  angular: 
    x: 0.0
    y: 0.0
    z: 0.0
---
header: 
  seq: 134
  stamp: 
    secs: 1722859490
    nsecs: 926041126
  frame_id: ''
twist: 
  linear: 
    x: 0.5589446221978732
    y: 0.07516870026858169
    z: 0.0
  angular: 
    x: 0.0
    y: 0.0
    z: 0.0
---
header: 
  seq: 135
  stamp: 
    secs: 1722859490
    nsecs: 949109554
  frame_id: ''
twist: 
  linear: 
    x: 0.5589430858840772
    y: 0.07507734972667533
    z: 0.0
  angular: 
    x: 0.0
    y: 0.0
    z: 0.0
---
header: 
  seq: 136
  stamp: 
    secs: 1722859490
    nsecs: 963393211
  frame_id: ''
twist: 
  linear: 
    x: 0.5589423843230795
    y: 0.07497748241686425
    z: 0.0
  angular: 
    x: 0.0
    y: 0.0
    z: 0.0
---
header: 
  seq: 137
  stamp: 
    secs: 1722859490
    nsecs: 988857746
  frame_id: ''
twist: 
  linear: 
    x: 0.5589467495319616
    y: 0.07506053709938548
    z: 0.0
  angular: 
    x: 0.0
    y: 0.0
    z: 0.0
---
header: 
  seq: 138
  stamp: 
    secs: 1722859490
    nsecs: 996736764
  frame_id: ''
twist: 
  linear: 
    x: 0.5589438779257213
    y: 0.07499078890559918
    z: 0.0
  angular: 
    x: 0.0
    y: 0.0
    z: 0.0
---
header: 
  seq: 139
  stamp: 
    secs: 1722859491
    nsecs:  27548789
  frame_id: ''
twist: 
  linear: 
    x: 0.5589624218357955
    y: 0.07480276967324372
    z: 0.0
  angular: 
    x: 0.0
    y: 0.0
    z: 0.0
---
header: 
  seq: 140
  stamp: 
    secs: 1722859491
    nsecs:  40037870
  frame_id: ''
twist: 
  linear: 
    x: 0.5589623391836086
    y: 0.07470746415914636
    z: 0.0
  angular: 
    x: 0.0
    y: 0.0
    z: 0.0
---
header: 
  seq: 141
  stamp: 
    secs: 1722859491
    nsecs:  54561376
  frame_id: ''
twist: 
  linear: 
    x: 0.5589588371459129
    y: 0.07443439288734555
    z: 0.0
  angular: 
    x: 0.0
    y: 0.0
    z: 0.0
---
header: 
  seq: 142
  stamp: 
    secs: 1722859491
    nsecs:  71568012
  frame_id: ''
twist: 
  linear: 
    x: 0.5589637905555401
    y: 0.07463616668134568
    z: 0.0
  angular: 
    x: 0.0
    y: 0.0
    z: 0.0
---
header: 
  seq: 143
  stamp: 
    secs: 1722859491
    nsecs:  81032752
  frame_id: ''
twist: 
  linear: 
    x: 0.5589606694600515
    y: 0.07442856255067978
    z: 0.0
  angular: 
    x: 0.0
    y: 0.0
    z: 0.0
---
header: 
  seq: 144
  stamp: 
    secs: 1722859491
    nsecs: 114054918
  frame_id: ''
twist: 
  linear: 
    x: 0.5589747524404598
    y: 0.07460137322472837
    z: 0.0
  angular: 
    x: 0.0
    y: 0.0
    z: 0.0
---
header: 
  seq: 145
  stamp: 
    secs: 1722859491
    nsecs: 140995264
  frame_id: ''
twist: 
  linear: 
    x: 0.5589744909173873
    y: 0.07441243081204639
    z: 0.0
  angular: 
    x: 0.0
    y: 0.0
    z: 0.0
---
header: 
  seq: 146
  stamp: 
    secs: 1722859491
    nsecs: 153335571
  frame_id: ''
twist: 
  linear: 
    x: 0.5589697310282472
    y: 0.07411157389071932
    z: 0.0
  angular: 
    x: 0.0
    y: 0.0
    z: 0.0
---
header: 
  seq: 147
  stamp: 
    secs: 1722859491
    nsecs: 167246580
  frame_id: ''
twist: 
  linear: 
    x: 0.5589757891367716
    y: 0.0742580256433137
    z: 0.0
  angular: 
    x: 0.0
    y: 0.0
    z: 0.0
---
header: 
  seq: 148
  stamp: 
    secs: 1722859491
    nsecs: 176839590
  frame_id: ''
twist: 
  linear: 
    x: 0.5589789580423814
    y: 0.07427542828486643
    z: 0.0
  angular: 
    x: 0.0
    y: 0.0
    z: 0.0
---
header: 
  seq: 149
  stamp: 
    secs: 1722859491
    nsecs: 190765142
  frame_id: ''
twist: 
  linear: 
    x: 0.5589777512660579
    y: 0.07414076300916292
    z: 0.0
  angular: 
    x: 0.0
    y: 0.0
    z: 0.0
---
header: 
  seq: 150
  stamp: 
    secs: 1722859491
    nsecs: 206521034
  frame_id: ''
twist: 
  linear: 
    x: 0.5589807768866654
    y: 0.0741918734794926
    z: 0.0
  angular: 
    x: 0.0
    y: 0.0
    z: 0.0
---
header: 
  seq: 151
  stamp: 
    secs: 1722859491
    nsecs: 213129520
  frame_id: ''
twist: 
  linear: 
    x: 0.5589864807391822
    y: 0.07437291985645156
    z: 0.0
  angular: 
    x: 0.0
    y: 0.0
    z: 0.0
---
header: 
  seq: 152
  stamp: 
    secs: 1722859491
    nsecs: 240430831
  frame_id: ''
twist: 
  linear: 
    x: 0.5589818188615834
    y: 0.07409665000644397
    z: 0.0
  angular: 
    x: 0.0
    y: 0.0
    z: 0.0
---
header: 
  seq: 153
  stamp: 
    secs: 1722859491
    nsecs: 259491682
  frame_id: ''
twist: 
  linear: 
    x: 0.5589795583209426
    y: 0.07400271051347411
    z: 0.0
  angular: 
    x: 0.0
    y: 0.0
    z: 0.0
---
header: 
  seq: 154
  stamp: 
    secs: 1722859491
    nsecs: 270706892
  frame_id: ''
twist: 
  linear: 
    x: 0.5589798874928344
    y: 0.07393343293898444
    z: 0.0
  angular: 
    x: 0.0
    y: 0.0
    z: 0.0
---
header: 
  seq: 155
  stamp: 
    secs: 1722859491
    nsecs: 282255172
  frame_id: ''
twist: 
  linear: 
    x: 0.5589831105207804
    y: 0.07403979560137762
    z: 0.0
  angular: 
    x: 0.0
    y: 0.0
    z: 0.0
---
header: 
  seq: 156
  stamp: 
    secs: 1722859491
    nsecs: 298860549
  frame_id: ''
twist: 
  linear: 
    x: 0.5589779245092033
    y: 0.07359918929723229
    z: 0.0
  angular: 
    x: 0.0
    y: 0.0
    z: 0.0
---
header: 
  seq: 157
  stamp: 
    secs: 1722859491
    nsecs: 326330900
  frame_id: ''
twist: 
  linear: 
    x: 0.5589860834487795
    y: 0.07364876575484937
    z: 0.0
  angular: 
    x: 0.0
    y: 0.0
    z: 0.0
---
header: 
  seq: 158
  stamp: 
    secs: 1722859491
    nsecs: 344965696
  frame_id: ''
twist: 
  linear: 
    x: 0.5589894475444307
    y: 0.07376864644687481
    z: 0.0
  angular: 
    x: 0.0
    y: 0.0
    z: 0.0
---
header: 
  seq: 159
  stamp: 
    secs: 1722859491
    nsecs: 357759714
  frame_id: ''
twist: 
  linear: 
    x: 0.5589868655525883
    y: 0.07370383229544542
    z: 0.0
  angular: 
    x: 0.0
    y: 0.0
    z: 0.0
---
header: 
  seq: 160
  stamp: 
    secs: 1722859491
    nsecs: 370654821
  frame_id: ''
twist: 
  linear: 
    x: 0.5589886460270082
    y: 0.07381753698373059
    z: 0.0
  angular: 
    x: 0.0
    y: 0.0
    z: 0.0
---
header: 
  seq: 161
  stamp: 
    secs: 1722859491
    nsecs: 379387140
  frame_id: ''
twist: 
  linear: 
    x: 0.5589894173069698
    y: 0.07369140066178803
    z: 0.0
  angular: 
    x: 0.0
    y: 0.0
    z: 0.0
---
header: 
  seq: 162
  stamp: 
    secs: 1722859491
    nsecs: 389726400
  frame_id: ''
twist: 
  linear: 
    x: 0.5589890519451617
    y: 0.07381587011146078
    z: 0.0
  angular: 
    x: 0.0
    y: 0.0
    z: 0.0
---
header: 
  seq: 163
  stamp: 
    secs: 1722859491
    nsecs: 401972055
  frame_id: ''
twist: 
  linear: 
    x: 0.5589908279460272
    y: 0.07391285958110771
    z: 0.0
  angular: 
    x: 0.0
    y: 0.0
    z: 0.0
---
header: 
  seq: 164
  stamp: 
    secs: 1722859491
    nsecs: 459915876
  frame_id: ''
twist: 
  linear: 
    x: 0.559012755050532
    y: 0.07308649480997773
    z: 0.0
  angular: 
    x: 0.0
    y: 0.0
    z: 0.0
---
header: 
  seq: 165
  stamp: 
    secs: 1722859491
    nsecs: 476178884
  frame_id: ''
twist: 
  linear: 
    x: 0.5590135250504368
    y: 0.07296390611436815
    z: 0.0
  angular: 
    x: 0.0
    y: 0.0
    z: 0.0
---
header: 
  seq: 166
  stamp: 
    secs: 1722859491
    nsecs: 494302511
  frame_id: ''
twist: 
  linear: 
    x: 0.5590176348985192
    y: 0.07305405998242828
    z: 0.0
  angular: 
    x: 0.0
    y: 0.0
    z: 0.0
---
header: 
  seq: 167
  stamp: 
    secs: 1722859491
    nsecs: 512791395
  frame_id: ''
twist: 
  linear: 
    x: 0.5590225554530501
    y: 0.07293875157429894
    z: 0.0
  angular: 
    x: 0.0
    y: 0.0
    z: 0.0
---
header: 
  seq: 168
  stamp: 
    secs: 1722859491
    nsecs: 525926828
  frame_id: ''
twist: 
  linear: 
    x: 0.559029372949379
    y: 0.07313165321509474
    z: 0.0
  angular: 
    x: 0.0
    y: 0.0
    z: 0.0
---
header: 
  seq: 169
  stamp: 
    secs: 1722859491
    nsecs: 550344228
  frame_id: ''
twist: 
  linear: 
    x: 0.5590301116692364
    y: 0.07314906404233415
    z: 0.0
  angular: 
    x: 0.0
    y: 0.0
    z: 0.0
---
header: 
  seq: 170
  stamp: 
    secs: 1722859491
    nsecs: 564281225
  frame_id: ''
twist: 
  linear: 
    x: 0.559022537301676
    y: 0.07291267026172343
    z: 0.0
  angular: 
    x: 0.0
    y: 0.0
    z: 0.0
---
header: 
  seq: 171
  stamp: 
    secs: 1722859491
    nsecs: 587575435
  frame_id: ''
twist: 
  linear: 
    x: 0.5590185887064298
    y: 0.07279629504180618
    z: 0.0
  angular: 
    x: 0.0
    y: 0.0
    z: 0.0
---
header: 
  seq: 172
  stamp: 
    secs: 1722859491
    nsecs: 597789525
  frame_id: ''
twist: 
  linear: 
    x: 0.5590284110771997
    y: 0.07292371531046299
    z: 0.0
  angular: 
    x: 0.0
    y: 0.0
    z: 0.0
---
header: 
  seq: 173
  stamp: 
    secs: 1722859491
    nsecs: 617711067
  frame_id: ''
twist: 
  linear: 
    x: 0.5590287609904262
    y: 0.07291168601371546
    z: 0.0
  angular: 
    x: 0.0
    y: 0.0
    z: 0.0
---
header: 
  seq: 174
  stamp: 
    secs: 1722859491
    nsecs: 649697303
  frame_id: ''
twist: 
  linear: 
    x: 0.5590371391329698
    y: 0.07241122016929727
    z: 0.0
  angular: 
    x: 0.0
    y: 0.0
    z: 0.0
---
header: 
  seq: 175
  stamp: 
    secs: 1722859491
    nsecs: 662018060
  frame_id: ''
twist: 
  linear: 
    x: 0.559051271134991
    y: 0.07269248593605418
    z: 0.0
  angular: 
    x: 0.0
    y: 0.0
    z: 0.0
---
header: 
  seq: 176
  stamp: 
    secs: 1722859491
    nsecs: 680065631
  frame_id: ''
twist: 
  linear: 
    x: 0.5590500586375938
    y: 0.0723915494666067
    z: 0.0
  angular: 
    x: 0.0
    y: 0.0
    z: 0.0
---
header: 
  seq: 177
  stamp: 
    secs: 1722859491
    nsecs: 694927453
  frame_id: ''
twist: 
  linear: 
    x: 0.559054105287561
    y: 0.07249461426550864
    z: 0.0
  angular: 
    x: 0.0
    y: 0.0
    z: 0.0
---
header: 
  seq: 178
  stamp: 
    secs: 1722859491
    nsecs: 715632915
  frame_id: ''
twist: 
  linear: 
    x: 0.5590413478068927
    y: 0.07216116971954033
    z: 0.0
  angular: 
    x: 0.0
    y: 0.0
    z: 0.0
---
header: 
  seq: 179
  stamp: 
    secs: 1722859491
    nsecs: 727022886
  frame_id: ''
twist: 
  linear: 
    x: 0.5590494369007389
    y: 0.07239693050546571
    z: 0.0
  angular: 
    x: 0.0
    y: 0.0
    z: 0.0
---
header: 
  seq: 180
  stamp: 
    secs: 1722859491
    nsecs: 741968870
  frame_id: ''
twist: 
  linear: 
    x: 0.5590429040715943
    y: 0.07217372150892042
    z: 0.0
  angular: 
    x: 0.0
    y: 0.0
    z: 0.0
---
header: 
  seq: 181
  stamp: 
    secs: 1722859491
    nsecs: 752483367
  frame_id: ''
twist: 
  linear: 
    x: 0.5590577922822675
    y: 0.07248039858482566
    z: 0.0
  angular: 
    x: 0.0
    y: 0.0
    z: 0.0
---
header: 
  seq: 182
  stamp: 
    secs: 1722859491
    nsecs: 762649059
  frame_id: ''
twist: 
  linear: 
    x: 0.5590556761683578
    y: 0.0724233133650578
    z: 0.0
  angular: 
    x: 0.0
    y: 0.0
    z: 0.0
---
header: 
  seq: 183
  stamp: 
    secs: 1722859491
    nsecs: 776825904
  frame_id: ''
twist: 
  linear: 
    x: 0.5590489145861524
    y: 0.07217224215900676
    z: 0.0
  angular: 
    x: 0.0
    y: 0.0
    z: 0.0
---
header: 
  seq: 184
  stamp: 
    secs: 1722859491
    nsecs: 794851303
  frame_id: ''
twist: 
  linear: 
    x: 0.5590553560131112
    y: 0.07226783847349294
    z: 0.0
  angular: 
    x: 0.0
    y: 0.0
    z: 0.0
---
header: 
  seq: 185
  stamp: 
    secs: 1722859491
    nsecs: 807780981
  frame_id: ''
twist: 
  linear: 
    x: 0.559063696060243
    y: 0.07239569692095386
    z: 0.0
  angular: 
    x: 0.0
    y: 0.0
    z: 0.0
---
header: 
  seq: 186
  stamp: 
    secs: 1722859491
    nsecs: 813416481
  frame_id: ''
twist: 
  linear: 
    x: 0.5590530634590882
    y: 0.07211129426440545
    z: 0.0
  angular: 
    x: 0.0
    y: 0.0
    z: 0.0
---
header: 
  seq: 187
  stamp: 
    secs: 1722859491
    nsecs: 825308084
  frame_id: ''
twist: 
  linear: 
    x: 0.5590661048511207
    y: 0.07227321056478017
    z: 0.0
  angular: 
    x: 0.0
    y: 0.0
    z: 0.0
---
header: 
  seq: 188
  stamp: 
    secs: 1722859491
    nsecs: 842702865
  frame_id: ''
twist: 
  linear: 
    x: 0.5590663978572787
    y: 0.07220342107368889
    z: 0.0
  angular: 
    x: 0.0
    y: 0.0
    z: 0.0
---
header: 
  seq: 189
  stamp: 
    secs: 1722859491
    nsecs: 857360363
  frame_id: ''
twist: 
  linear: 
    x: 0.5590626211365558
    y: 0.07207055722309925
    z: 0.0
  angular: 
    x: 0.0
    y: 0.0
    z: 0.0
---
header: 
  seq: 190
  stamp: 
    secs: 1722859491
    nsecs: 871212959
  frame_id: ''
twist: 
  linear: 
    x: 0.559067010968204
    y: 0.07203070728792857
    z: 0.0
  angular: 
    x: 0.0
    y: 0.0
    z: 0.0
---
header: 
  seq: 191
  stamp: 
    secs: 1722859491
    nsecs: 889856100
  frame_id: ''
twist: 
  linear: 
    x: 0.5590655988436535
    y: 0.07187228540862335
    z: 0.0
  angular: 
    x: 0.0
    y: 0.0
    z: 0.0
---
header: 
  seq: 192
  stamp: 
    secs: 1722859491
    nsecs: 920585632
  frame_id: ''
twist: 
  linear: 
    x: 0.5590640558798493
    y: 0.07146507124229268
    z: 0.0
  angular: 
    x: 0.0
    y: 0.0
    z: 0.0
---
header: 
  seq: 193
  stamp: 
    secs: 1722859491
    nsecs: 927390098
  frame_id: ''
twist: 
  linear: 
    x: 0.5590703078149946
    y: 0.0715597419752361
    z: 0.0
  angular: 
    x: 0.0
    y: 0.0
    z: 0.0
---
header: 
  seq: 194
  stamp: 
    secs: 1722859491
    nsecs: 950158596
  frame_id: ''
twist: 
  linear: 
    x: 0.5590894792503462
    y: 0.07171006851135034
    z: 0.0
  angular: 
    x: 0.0
    y: 0.0
    z: 0.0
---
header: 
  seq: 195
  stamp: 
    secs: 1722859491
    nsecs: 962510108
  frame_id: ''
twist: 
  linear: 
    x: 0.5590758147691985
    y: 0.07136911426987022
    z: 0.0
  angular: 
    x: 0.0
    y: 0.0
    z: 0.0
---
header: 
  seq: 196
  stamp: 
    secs: 1722859491
    nsecs: 986961603
  frame_id: ''
twist: 
  linear: 
    x: 0.5590945835564105
    y: 0.07121437702439531
    z: 0.0
  angular: 
    x: 0.0
    y: 0.0
    z: 0.0
---
header: 
  seq: 197
  stamp: 
    secs: 1722859492
    nsecs:   1461505
  frame_id: ''
twist: 
  linear: 
    x: 0.559099560128731
    y: 0.07121599940131607
    z: 0.0
  angular: 
    x: 0.0
    y: 0.0
    z: 0.0
---
header: 
  seq: 198
  stamp: 
    secs: 1722859492
    nsecs:   8374929
  frame_id: ''
twist: 
  linear: 
    x: 0.5591016252091412
    y: 0.07121583478455751
    z: 0.0
  angular: 
    x: 0.0
    y: 0.0
    z: 0.0
---
header: 
  seq: 199
  stamp: 
    secs: 1722859492
    nsecs:  14946460
  frame_id: ''
twist: 
  linear: 
    x: 0.5591094525996285
    y: 0.07123753293931087
    z: 0.0
  angular: 
    x: 0.0
    y: 0.0
    z: 0.0
---
header: 
  seq: 200
  stamp: 
    secs: 1722859492
    nsecs:  26811122
  frame_id: ''
twist: 
  linear: 
    x: 0.5591077487615764
    y: 0.07116631987064564
    z: 0.0
  angular: 
    x: 0.0
    y: 0.0
    z: 0.0
---
header: 
  seq: 201
  stamp: 
    secs: 1722859492
    nsecs:  44745922
  frame_id: ''
twist: 
  linear: 
    x: 0.5591074737446112
    y: 0.07110121565269507
    z: 0.0
  angular: 
    x: 0.0
    y: 0.0
    z: 0.0
---
header: 
  seq: 202
  stamp: 
    secs: 1722859492
    nsecs:  55979728
  frame_id: ''
twist: 
  linear: 
    x: 0.5591164919967169
    y: 0.07118635812961575
    z: 0.0
  angular: 
    x: 0.0
    y: 0.0
    z: 0.0
---
header: 
  seq: 203
  stamp: 
    secs: 1722859492
    nsecs:  94049215
  frame_id: ''
twist: 
  linear: 
    x: 0.5591192721368442
    y: 0.07083864138358513
    z: 0.0
  angular: 
    x: 0.0
    y: 0.0
    z: 0.0
---
header: 
  seq: 204
  stamp: 
    secs: 1722859492
    nsecs: 109929323
  frame_id: ''
twist: 
  linear: 
    x: 0.5591294861371054
    y: 0.07091535105334787
    z: 0.0
  angular: 
    x: 0.0
    y: 0.0
    z: 0.0
---
header: 
  seq: 205
  stamp: 
    secs: 1722859492
    nsecs: 117387771
  frame_id: ''
twist: 
  linear: 
    x: 0.5591195380938326
    y: 0.07076144555864508
    z: 0.0
  angular: 
    x: 0.0
    y: 0.0
    z: 0.0
---
header: 
  seq: 206
  stamp: 
    secs: 1722859492
    nsecs: 130486488
  frame_id: ''
twist: 
  linear: 
    x: 0.5591284332887455
    y: 0.07083771125460708
    z: 0.0
  angular: 
    x: 0.0
    y: 0.0
    z: 0.0
---
header: 
  seq: 207
  stamp: 
    secs: 1722859492
    nsecs: 145029067
  frame_id: ''
twist: 
  linear: 
    x: 0.5591063112595105
    y: 0.07013108942184865
    z: 0.0
  angular: 
    x: 0.0
    y: 0.0
    z: 0.0
---
header: 
  seq: 208
  stamp: 
    secs: 1722859492
    nsecs: 154085397
  frame_id: ''
twist: 
  linear: 
    x: 0.5591465225949019
    y: 0.07063307934730287
    z: 0.0
  angular: 
    x: 0.0
    y: 0.0
    z: 0.0
---
header: 
  seq: 209
  stamp: 
    secs: 1722859492
    nsecs: 161320209
  frame_id: ''
twist: 
  linear: 
    x: 0.5591474104754817
    y: 0.07061298914510192
    z: 0.0
  angular: 
    x: 0.0
    y: 0.0
    z: 0.0
---
header: 
  seq: 210
  stamp: 
    secs: 1722859492
    nsecs: 171331405
  frame_id: ''
twist: 
  linear: 
    x: 0.5591626996682274
    y: 0.07068215738140585
    z: 0.0
  angular: 
    x: 0.0
    y: 0.0
    z: 0.0
---
header: 
  seq: 211
  stamp: 
    secs: 1722859492
    nsecs: 190331459
  frame_id: ''
twist: 
  linear: 
    x: 0.559148601266156
    y: 0.0704742481045884
    z: 0.0
  angular: 
    x: 0.0
    y: 0.0
    z: 0.0
---
header: 
  seq: 212
  stamp: 
    secs: 1722859492
    nsecs: 195841073
  frame_id: ''
twist: 
  linear: 
    x: 0.5591685342558245
    y: 0.07064227247793615
    z: 0.0
  angular: 
    x: 0.0
    y: 0.0
    z: 0.0
---
header: 
  seq: 213
  stamp: 
    secs: 1722859492
    nsecs: 216807603
  frame_id: ''
twist: 
  linear: 
    x: 0.5591718934706214
    y: 0.07045420628145581
    z: 0.0
  angular: 
    x: 0.0
    y: 0.0
    z: 0.0
---
header: 
  seq: 214
  stamp: 
    secs: 1722859492
    nsecs: 227965116
  frame_id: ''
twist: 
  linear: 
    x: 0.5591776272293701
    y: 0.07027890466235472
    z: 0.0
  angular: 
    x: 0.0
    y: 0.0
    z: 0.0
---
header: 
  seq: 215
  stamp: 
    secs: 1722859492
    nsecs: 234902381
  frame_id: ''
twist: 
  linear: 
    x: 0.5591653836127624
    y: 0.07009079700027264
    z: 0.0
  angular: 
    x: 0.0
    y: 0.0
    z: 0.0
---
header: 
  seq: 216
  stamp: 
    secs: 1722859492
    nsecs: 254576921
  frame_id: ''
twist: 
  linear: 
    x: 0.5591926503773914
    y: 0.07032312251518097
    z: 0.0
  angular: 
    x: 0.0
    y: 0.0
    z: 0.0
---
header: 
  seq: 217
  stamp: 
    secs: 1722859492
    nsecs: 263362646
  frame_id: ''
twist: 
  linear: 
    x: 0.5591948981911377
    y: 0.07028898015668882
    z: 0.0
  angular: 
    x: 0.0
    y: 0.0
    z: 0.0
---
header: 
  seq: 218
  stamp: 
    secs: 1722859492
    nsecs: 287863492
  frame_id: ''
twist: 
  linear: 
    x: 0.5591946178766628
    y: 0.0700871502994859
    z: 0.0
  angular: 
    x: 0.0
    y: 0.0
    z: 0.0
---
header: 
  seq: 219
  stamp: 
    secs: 1722859492
    nsecs: 294656753
  frame_id: ''
twist: 
  linear: 
    x: 0.5592033629388417
    y: 0.07016600803520191
    z: 0.0
  angular: 
    x: 0.0
    y: 0.0
    z: 0.0
---
header: 
  seq: 220
  stamp: 
    secs: 1722859492
    nsecs: 301443576
  frame_id: ''
twist: 
  linear: 
    x: 0.5591947953893629
    y: 0.07001181436637091
    z: 0.0
  angular: 
    x: 0.0
    y: 0.0
    z: 0.0
---
header: 
  seq: 221
  stamp: 
    secs: 1722859492
    nsecs: 318878173
  frame_id: ''
twist: 
  linear: 
    x: 0.5592185621955125
    y: 0.07023259385189254
    z: 0.0
  angular: 
    x: 0.0
    y: 0.0
    z: 0.0
---
header: 
  seq: 222
  stamp: 
    secs: 1722859492
    nsecs: 330396413
  frame_id: ''
twist: 
  linear: 
    x: 0.559205842196187
    y: 0.0700534410323902
    z: 0.0
  angular: 
    x: 0.0
    y: 0.0
    z: 0.0
---
header: 
  seq: 223
  stamp: 
    secs: 1722859492
    nsecs: 359435081
  frame_id: ''
twist: 
  linear: 
    x: 0.559178886410938
    y: 0.06949984329306566
    z: 0.0
  angular: 
    x: 0.0
    y: 0.0
    z: 0.0
---
header: 
  seq: 224
  stamp: 
    secs: 1722859492
    nsecs: 366858959
  frame_id: ''
twist: 
  linear: 
    x: 0.5591760148167748
    y: 0.06944397213690061
    z: 0.0
  angular: 
    x: 0.0
    y: 0.0
    z: 0.0
---
header: 
  seq: 225
  stamp: 
    secs: 1722859492
    nsecs: 387041807
  frame_id: ''
twist: 
  linear: 
    x: 0.5592148268044153
    y: 0.06977065262959364
    z: 0.0
  angular: 
    x: 0.0
    y: 0.0
    z: 0.0
---
header: 
  seq: 226
  stamp: 
    secs: 1722859492
    nsecs: 398058891
  frame_id: ''
twist: 
  linear: 
    x: 0.559219690096879
    y: 0.06976417971432024
    z: 0.0
  angular: 
    x: 0.0
    y: 0.0
    z: 0.0
---
header: 
  seq: 227
  stamp: 
    secs: 1722859492
    nsecs: 410361766
  frame_id: ''
twist: 
  linear: 
    x: 0.5591983887707958
    y: 0.06945939724000652
    z: 0.0
  angular: 
    x: 0.0
    y: 0.0
    z: 0.0
---
header: 
  seq: 228
  stamp: 
    secs: 1722859492
    nsecs: 422105312
  frame_id: ''
twist: 
  linear: 
    x: 0.5591973340972054
    y: 0.06939339502525746
    z: 0.0
  angular: 
    x: 0.0
    y: 0.0
    z: 0.0
---
header: 
  seq: 229
  stamp: 
    secs: 1722859492
    nsecs: 438603162
  frame_id: ''
twist: 
  linear: 
    x: 0.5592247920888487
    y: 0.06940780661374903
    z: 0.0
  angular: 
    x: 0.0
    y: 0.0
    z: 0.0
---
header: 
  seq: 230
  stamp: 
    secs: 1722859492
    nsecs: 446640491
  frame_id: ''
twist: 
  linear: 
    x: 0.5591944103919356
    y: 0.06907946941275926
    z: 0.0
  angular: 
    x: 0.0
    y: 0.0
    z: 0.0
---
header: 
  seq: 231
  stamp: 
    secs: 1722859492
    nsecs: 479498863
  frame_id: ''
twist: 
  linear: 
    x: 0.5592433996310713
    y: 0.06947372011189615
    z: 0.0
  angular: 
    x: 0.0
    y: 0.0
    z: 0.0
---
header: 
  seq: 232
  stamp: 
    secs: 1722859492
    nsecs: 500748634
  frame_id: ''
twist: 
  linear: 
    x: 0.5592161595918985
    y: 0.06919771842604878
    z: 0.0
  angular: 
    x: 0.0
    y: 0.0
    z: 0.0
---
header: 
  seq: 233
  stamp: 
    secs: 1722859492
    nsecs: 512710809
  frame_id: ''
twist: 
  linear: 
    x: 0.5592379354405519
    y: 0.06936169026670502
    z: 0.0
  angular: 
    x: 0.0
    y: 0.0
    z: 0.0
---
header: 
  seq: 234
  stamp: 
    secs: 1722859492
    nsecs: 525238513
  frame_id: ''
twist: 
  linear: 
    x: 0.5592274171761297
    y: 0.06921446290947064
    z: 0.0
  angular: 
    x: 0.0
    y: 0.0
    z: 0.0
---
header: 
  seq: 235
  stamp: 
    secs: 1722859492
    nsecs: 538798809
  frame_id: ''
twist: 
  linear: 
    x: 0.5592312226604839
    y: 0.06919751809578203
    z: 0.0
  angular: 
    x: 0.0
    y: 0.0
    z: 0.0
---
header: 
  seq: 236
  stamp: 
    secs: 1722859492
    nsecs: 550893306
  frame_id: ''
twist: 
  linear: 
    x: 0.5592524324257233
    y: 0.06935067200130683
    z: 0.0
  angular: 
    x: 0.0
    y: 0.0
    z: 0.0
---
header: 
  seq: 237
  stamp: 
    secs: 1722859492
    nsecs: 562195777
  frame_id: ''
twist: 
  linear: 
    x: 0.5592384092849417
    y: 0.06916343185719959
    z: 0.0
  angular: 
    x: 0.0
    y: 0.0
    z: 0.0
---
header: 
  seq: 238
  stamp: 
    secs: 1722859492
    nsecs: 580141305
  frame_id: ''
twist: 
  linear: 
    x: 0.5592442519858476
    y: 0.06914509562796424
    z: 0.0
  angular: 
    x: 0.0
    y: 0.0
    z: 0.0
---
header: 
  seq: 239
  stamp: 
    secs: 1722859492
    nsecs: 596958398
  frame_id: ''
twist: 
  linear: 
    x: 0.5592403194828924
    y: 0.06905846032436323
    z: 0.0
  angular: 
    x: 0.0
    y: 0.0
    z: 0.0
---
header: 
  seq: 240
  stamp: 
    secs: 1722859492
    nsecs: 623784542
  frame_id: ''
twist: 
  linear: 
    x: 0.559253942701857
    y: 0.06910767561823698
    z: 0.0
  angular: 
    x: 0.0
    y: 0.0
    z: 0.0
---
header: 
  seq: 241
  stamp: 
    secs: 1722859492
    nsecs: 647635936
  frame_id: ''
twist: 
  linear: 
    x: 0.5592234799108123
    y: 0.06877055720179859
    z: 0.0
  angular: 
    x: 0.0
    y: 0.0
    z: 0.0
---
header: 
  seq: 242
  stamp: 
    secs: 1722859492
    nsecs: 660302877
  frame_id: ''
twist: 
  linear: 
    x: 0.5592344028805032
    y: 0.06880949661745298
    z: 0.0
  angular: 
    x: 0.0
    y: 0.0
    z: 0.0
---
header: 
  seq: 243
  stamp: 
    secs: 1722859492
    nsecs: 680207967
  frame_id: ''
twist: 
  linear: 
    x: 0.5593001038801717
    y: 0.06866678563930839
    z: 0.0
  angular: 
    x: 0.0
    y: 0.0
    z: 0.0
---
header: 
  seq: 244
  stamp: 
    secs: 1722859492
    nsecs: 691723823
  frame_id: ''
twist: 
  linear: 
    x: 0.5592688703541565
    y: 0.06839484944012676
    z: 0.0
  angular: 
    x: 0.0
    y: 0.0
    z: 0.0
---
header: 
  seq: 245
  stamp: 
    secs: 1722859492
    nsecs: 703247308
  frame_id: ''
twist: 
  linear: 
    x: 0.559267290728697
    y: 0.06838732717965379
    z: 0.0
  angular: 
    x: 0.0
    y: 0.0
    z: 0.0
---
header: 
  seq: 246
  stamp: 
    secs: 1722859492
    nsecs: 722386121
  frame_id: ''
twist: 
  linear: 
    x: 0.5592401264618995
    y: 0.06820313620423894
    z: 0.0
  angular: 
    x: 0.0
    y: 0.0
    z: 0.0
---
header: 
  seq: 247
  stamp: 
    secs: 1722859492
    nsecs: 741335630
  frame_id: ''
twist: 
  linear: 
    x: 0.5592713208210585
    y: 0.06797491443834591
    z: 0.0
  angular: 
    x: 0.0
    y: 0.0
    z: 0.0
---
header: 
  seq: 248
  stamp: 
    secs: 1722859492
    nsecs: 748492717
  frame_id: ''
twist: 
  linear: 
    x: 0.5592564166845276
    y: 0.06785180257575177
    z: 0.0
  angular: 
    x: 0.0
    y: 0.0
    z: 0.0
---
header: 
  seq: 249
  stamp: 
    secs: 1722859492
    nsecs: 761371135
  frame_id: ''
twist: 
  linear: 
    x: 0.5592572804987009
    y: 0.06783767248456421
    z: 0.0
  angular: 
    x: 0.0
    y: 0.0
    z: 0.0
---
header: 
  seq: 250
  stamp: 
    secs: 1722859492
    nsecs: 775644302
  frame_id: ''
twist: 
  linear: 
    x: 0.559273393198925
    y: 0.06798152813913438
    z: 0.0
  angular: 
    x: 0.0
    y: 0.0
    z: 0.0
---
header: 
  seq: 251
  stamp: 
    secs: 1722859492
    nsecs: 796503782
  frame_id: ''
twist: 
  linear: 
    x: 0.559277353856495
    y: 0.06799707719694216
    z: 0.0
  angular: 
    x: 0.0
    y: 0.0
    z: 0.0
---
header: 
  seq: 252
  stamp: 
    secs: 1722859492
    nsecs: 812707185
  frame_id: ''
twist: 
  linear: 
    x: 0.5593112628344077
    y: 0.06820724542493162
    z: 0.0
  angular: 
    x: 0.0
    y: 0.0
    z: 0.0
---
header: 
  seq: 253
  stamp: 
    secs: 1722859492
    nsecs: 838738203
  frame_id: ''
twist: 
  linear: 
    x: 0.5594266841475386
    y: 0.06620320731388675
    z: 0.0
  angular: 
    x: 0.0
    y: 0.0
    z: 0.0
---
header: 
  seq: 254
  stamp: 
    secs: 1722859492
    nsecs: 850705862
  frame_id: ''
twist: 
  linear: 
    x: 0.5594191163145309
    y: 0.06614227745086551
    z: 0.0
  angular: 
    x: 0.0
    y: 0.0
    z: 0.0
---
header: 
  seq: 255
  stamp: 
    secs: 1722859492
    nsecs: 863297224
  frame_id: ''
twist: 
  linear: 
    x: 0.5594226131758434
    y: 0.06615635792691554
    z: 0.0
  angular: 
    x: 0.0
    y: 0.0
    z: 0.0
---
header: 
  seq: 256
  stamp: 
    secs: 1722859492
    nsecs: 876494884
  frame_id: ''
twist: 
  linear: 
    x: 0.5594432777271039
    y: 0.06627051510455044
    z: 0.0
  angular: 
    x: 0.0
    y: 0.0
    z: 0.0
---
header: 
  seq: 257
  stamp: 
    secs: 1722859492
    nsecs: 894578933
  frame_id: ''
twist: 
  linear: 
    x: 0.5594253290018238
    y: 0.06615327512503211
    z: 0.0
  angular: 
    x: 0.0
    y: 0.0
    z: 0.0
---
header: 
  seq: 258
  stamp: 
    secs: 1722859492
    nsecs: 904896736
  frame_id: ''
twist: 
  linear: 
    x: 0.5594553382320049
    y: 0.06633095356381863
    z: 0.0
  angular: 
    x: 0.0
    y: 0.0
    z: 0.0
---
header: 
  seq: 259
  stamp: 
    secs: 1722859492
    nsecs: 914873838
  frame_id: ''
twist: 
  linear: 
    x: 0.559439292657675
    y: 0.06623555423252647
    z: 0.0
  angular: 
    x: 0.0
    y: 0.0
    z: 0.0
---
header: 
  seq: 260
  stamp: 
    secs: 1722859492
    nsecs: 932540655
  frame_id: ''
twist: 
  linear: 
    x: 0.5594546258709195
    y: 0.0662658648120201
    z: 0.0
  angular: 
    x: 0.0
    y: 0.0
    z: 0.0
---
header: 
  seq: 261
  stamp: 
    secs: 1722859492
    nsecs: 948403120
  frame_id: ''
twist: 
  linear: 
    x: 0.5594430789839763
    y: 0.06618508714598312
    z: 0.0
  angular: 
    x: 0.0
    y: 0.0
    z: 0.0
---
header: 
  seq: 262
  stamp: 
    secs: 1722859492
    nsecs: 966651439
  frame_id: ''
twist: 
  linear: 
    x: 0.5593625778259221
    y: 0.06561516421618416
    z: 0.0
  angular: 
    x: 0.0
    y: 0.0
    z: 0.0
---
header: 
  seq: 263
  stamp: 
    secs: 1722859492
    nsecs: 975634336
  frame_id: ''
twist: 
  linear: 
    x: 0.559572007802097
    y: 0.06678292555736871
    z: 0.0
  angular: 
    x: 0.0
    y: 0.0
    z: 0.0
---
header: 
  seq: 264
  stamp: 
    secs: 1722859492
    nsecs: 980181217
  frame_id: ''
twist: 
  linear: 
    x: 0.5594565698190288
    y: 0.06617843293801706
    z: 0.0
  angular: 
    x: 0.0
    y: 0.0
    z: 0.0
---
header: 
  seq: 265
  stamp: 
    secs: 1722859492
    nsecs: 998918294
  frame_id: ''
twist: 
  linear: 
    x: 0.5594823292393364
    y: 0.0663211981207534
    z: 0.0
  angular: 
    x: 0.0
    y: 0.0
    z: 0.0
---
header: 
  seq: 266
  stamp: 
    secs: 1722859493
    nsecs:  21849393
  frame_id: ''
twist: 
  linear: 
    x: 0.5594660804099133
    y: 0.06589300370683465
    z: 0.0
  angular: 
    x: 0.0
    y: 0.0
    z: 0.0
---
header: 
  seq: 267
  stamp: 
    secs: 1722859493
    nsecs:  32428264
  frame_id: ''
twist: 
  linear: 
    x: 0.5594576222712877
    y: 0.06584034674371576
    z: 0.0
  angular: 
    x: 0.0
    y: 0.0
    z: 0.0
---
header: 
  seq: 268
  stamp: 
    secs: 1722859493
    nsecs:  38452386
  frame_id: ''
twist: 
  linear: 
    x: 0.5594620190751677
    y: 0.0658577499060437
    z: 0.0
  angular: 
    x: 0.0
    y: 0.0
    z: 0.0
---
header: 
  seq: 269
  stamp: 
    secs: 1722859493
    nsecs:  59989929
  frame_id: ''
twist: 
  linear: 
    x: 0.5594540883870996
    y: 0.06581269798923062
    z: 0.0
  angular: 
    x: 0.0
    y: 0.0
    z: 0.0
---
header: 
  seq: 270
  stamp: 
    secs: 1722859493
    nsecs:  75148582
  frame_id: ''
twist: 
  linear: 
    x: 0.559535848079308
    y: 0.06622649002268821
    z: 0.0
  angular: 
    x: 0.0
    y: 0.0
    z: 0.0
---
header: 
  seq: 271
  stamp: 
    secs: 1722859493
    nsecs: 100246667
  frame_id: ''
twist: 
  linear: 
    x: 0.5595144056310907
    y: 0.06612128286352614
    z: 0.0
  angular: 
    x: 0.0
    y: 0.0
    z: 0.0
---
header: 
  seq: 272
  stamp: 
    secs: 1722859493
    nsecs: 129734754
  frame_id: ''
twist: 
  linear: 
    x: 0.5595173984677437
    y: 0.06592568372475595
    z: 0.0
  angular: 
    x: 0.0
    y: 0.0
    z: 0.0
---
header: 
  seq: 273
  stamp: 
    secs: 1722859493
    nsecs: 152775526
  frame_id: ''
twist: 
  linear: 
    x: 0.559514258328895
    y: 0.06589663095737178
    z: 0.0
  angular: 
    x: 0.0
    y: 0.0
    z: 0.0
---
header: 
  seq: 274
  stamp: 
    secs: 1722859493
    nsecs: 163509607
  frame_id: ''
twist: 
  linear: 
    x: 0.5594491069616123
    y: 0.06552002997534259
    z: 0.0
  angular: 
    x: 0.0
    y: 0.0
    z: 0.0
---
header: 
  seq: 275
  stamp: 
    secs: 1722859493
    nsecs: 177291870
  frame_id: ''
twist: 
  linear: 
    x: 0.5595188667414739
    y: 0.06590438136285479
