header: 
  seq: 1754209
  stamp: 
    secs: 1722858789
    nsecs: 764777975
  frame_id: ''
magnetic_x: -9962.6796875
magnetic_y: 5170.47998046875
magnetic_z: 16067.3369140625
---
header: 
  seq: 1754210
  stamp: 
    secs: 1722858789
    nsecs: 770777975
  frame_id: ''
magnetic_x: -9959.5439453125
magnetic_y: 5167.73583984375
magnetic_z: 16039.5283203125
---
header: 
  seq: 1754211
  stamp: 
    secs: 1722858789
    nsecs: 776777975
  frame_id: ''
magnetic_x: -9965.8154296875
magnetic_y: 5171.263671875
magnetic_z: 16070.4970703125
---
header: 
  seq: 1754212
  stamp: 
    secs: 1722858789
    nsecs: 782777975
  frame_id: ''
magnetic_x: -9960.7197265625
magnetic_y: 5164.99169921875
magnetic_z: 16064.80859375
---
header: 
  seq: 1754213
  stamp: 
    secs: 1722858789
    nsecs: 788777975
  frame_id: ''
magnetic_x: -9964.6396484375
magnetic_y: 5166.16796875
magnetic_z: 16062.9130859375
---
header: 
  seq: 1754214
  stamp: 
    secs: 1722858789
    nsecs: 794777975
  frame_id: ''
magnetic_x: -9962.2880859375
magnetic_y: 5168.91162109375
magnetic_z: 16061.6484375
---
header: 
  seq: 1754215
  stamp: 
    secs: 1722858789
    nsecs: 800777975
  frame_id: ''
magnetic_x: -9959.935546875
magnetic_y: 5164.60009765625
magnetic_z: 16059.12109375
---
header: 
  seq: 1754216
  stamp: 
    secs: 1722858789
    nsecs: 807777975
  frame_id: ''
magnetic_x: -9971.3037109375
magnetic_y: 5173.2236328125
magnetic_z: 16043.953125
---
header: 
  seq: 1754217
  stamp: 
    secs: 1722858789
    nsecs: 813777975
  frame_id: ''
magnetic_x: -9960.7197265625
magnetic_y: 5165.3837890625
magnetic_z: 16049.640625
---
header: 
  seq: 1754218
  stamp: 
    secs: 1722858789
    nsecs: 819777975
  frame_id: ''
magnetic_x: -9967.775390625
magnetic_y: 5168.52001953125
magnetic_z: 16061.0166015625
---
header: 
  seq: 1754219
  stamp: 
    secs: 1722858789
    nsecs: 825777975
  frame_id: ''
magnetic_x: -9970.1279296875
magnetic_y: 5169.3037109375
magnetic_z: 16045.8486328125
---
header: 
  seq: 1754220
  stamp: 
    secs: 1722858789
    nsecs: 831777975
  frame_id: ''
magnetic_x: -9960.7197265625
magnetic_y: 5172.43994140625
magnetic_z: 16057.8564453125
---
header: 
  seq: 1754221
  stamp: 
    secs: 1722858789
    nsecs: 837777975
  frame_id: ''
magnetic_x: -9969.7353515625
magnetic_y: 5170.8720703125
magnetic_z: 16069.232421875
---
header: 
  seq: 1754222
  stamp: 
    secs: 1722858789
    nsecs: 843777975
  frame_id: ''
magnetic_x: -9956.015625
magnetic_y: 5163.03173828125
magnetic_z: 16074.2890625
---
header: 
  seq: 1754223
  stamp: 
    secs: 1722858789
    nsecs: 850777975
  frame_id: ''
magnetic_x: -9963.4638671875
magnetic_y: 5164.99169921875
magnetic_z: 16051.537109375
---
header: 
  seq: 1754224
  stamp: 
    secs: 1722858789
    nsecs: 856777975
  frame_id: ''
magnetic_x: -9962.6796875
magnetic_y: 5173.61572265625
magnetic_z: 16058.48828125
---
header: 
  seq: 1754225
  stamp: 
    secs: 1722858789
    nsecs: 862777975
  frame_id: ''
magnetic_x: -9958.3681640625
magnetic_y: 5170.47998046875
magnetic_z: 16052.80078125
---
header: 
  seq: 1754226
  stamp: 
    secs: 1722858789
    nsecs: 868777975
  frame_id: ''
magnetic_x: -9962.6796875
magnetic_y: 5166.56005859375
magnetic_z: 16055.9609375
---
header: 
  seq: 1754227
  stamp: 
    secs: 1722858789
    nsecs: 874777975
  frame_id: ''
magnetic_x: -9956.7998046875
magnetic_y: 5159.11181640625
magnetic_z: 16062.2802734375
---
header: 
  seq: 1754228
  stamp: 
    secs: 1722858789
    nsecs: 880777975
  frame_id: ''
magnetic_x: -9965.423828125
magnetic_y: 5169.3037109375
magnetic_z: 16058.48828125
---
header: 
  seq: 1754229
  stamp: 
    secs: 1722858789
    nsecs: 886777975
  frame_id: ''
magnetic_x: -9963.4638671875
magnetic_y: 5169.69580078125
magnetic_z: 16059.7529296875
---
header: 
  seq: 1754230
  stamp: 
    secs: 1722858789
    nsecs: 893777975
  frame_id: ''
magnetic_x: -9970.912109375
magnetic_y: 5174.39990234375
magnetic_z: 16064.80859375
---
header: 
  seq: 1754231
  stamp: 
    secs: 1722858789
    nsecs: 899777975
  frame_id: ''
magnetic_x: -9959.935546875
magnetic_y: 5165.77587890625
magnetic_z: 16061.6484375
---
header: 
  seq: 1754232
  stamp: 
    secs: 1722858789
    nsecs: 905777975
  frame_id: ''
magnetic_x: -9968.16796875
magnetic_y: 5169.69580078125
magnetic_z: 16047.7451171875
---
header: 
  seq: 1754233
  stamp: 
    secs: 1722858789
    nsecs: 911777975
  frame_id: ''
magnetic_x: -9973.6552734375
magnetic_y: 5168.1279296875
magnetic_z: 16059.12109375
---
header: 
  seq: 1754234
  stamp: 
    secs: 1722858789
    nsecs: 916777975
  frame_id: ''
magnetic_x: -9972.087890625
magnetic_y: 5165.77587890625
magnetic_z: 16062.9130859375
---
header: 
  seq: 1754235
  stamp: 
    secs: 1722858789
    nsecs: 922777975
  frame_id: ''
magnetic_x: -9963.85546875
magnetic_y: 5169.69580078125
magnetic_z: 16064.80859375
---
header: 
  seq: 1754236
  stamp: 
    secs: 1722858789
    nsecs: 928777975
  frame_id: ''
magnetic_x: -9953.271484375
magnetic_y: 5170.8720703125
magnetic_z: 16056.5927734375
---
header: 
  seq: 1754237
  stamp: 
    secs: 1722858789
    nsecs: 935777975
  frame_id: ''
magnetic_x: -9964.6396484375
magnetic_y: 5171.65576171875
magnetic_z: 16057.224609375
---
header: 
  seq: 1754238
  stamp: 
    secs: 1722858789
    nsecs: 941777975
  frame_id: ''
magnetic_x: -9955.6240234375
magnetic_y: 5172.43994140625
magnetic_z: 16076.1845703125
---
header: 
  seq: 1754239
  stamp: 
    secs: 1722858789
    nsecs: 947777975
  frame_id: ''
magnetic_x: -9964.6396484375
magnetic_y: 5158.7197265625
magnetic_z: 16059.12109375
---
header: 
  seq: 1754240
  stamp: 
    secs: 1722858789
    nsecs: 953777975
  frame_id: ''
magnetic_x: -9972.8720703125
magnetic_y: 5178.7119140625
magnetic_z: 16068.6005859375
---
header: 
  seq: 1754241
  stamp: 
    secs: 1722858789
    nsecs: 959777975
  frame_id: ''
magnetic_x: -9967.775390625
magnetic_y: 5172.43994140625
magnetic_z: 16065.4404296875
---
header: 
  seq: 1754242
  stamp: 
    secs: 1722858789
    nsecs: 965777975
  frame_id: ''
magnetic_x: -9961.111328125
magnetic_y: 5165.77587890625
magnetic_z: 16043.953125
---
header: 
  seq: 1754243
  stamp: 
    secs: 1722858789
    nsecs: 971777975
  frame_id: ''
magnetic_x: -9961.50390625
magnetic_y: 5170.47998046875
magnetic_z: 16073.6572265625
---
header: 
  seq: 1754244
  stamp: 
    secs: 1722858789
    nsecs: 978777975
  frame_id: ''
magnetic_x: -9977.9677734375
magnetic_y: 5175.57568359375
magnetic_z: 16052.1689453125
---
header: 
  seq: 1754245
  stamp: 
    secs: 1722858789
    nsecs: 984777975
  frame_id: ''
magnetic_x: -9973.263671875
magnetic_y: 5174.7919921875
magnetic_z: 16066.705078125
---
header: 
  seq: 1754246
  stamp: 
    secs: 1722858789
    nsecs: 990777975
  frame_id: ''
magnetic_x: -9966.2080078125
magnetic_y: 5166.56005859375
magnetic_z: 16072.392578125
---
header: 
  seq: 1754247
  stamp: 
    secs: 1722858789
    nsecs: 996777975
  frame_id: ''
magnetic_x: -9961.8955078125
magnetic_y: 5168.52001953125
magnetic_z: 16041.4248046875
---
header: 
  seq: 1754248
  stamp: 
    secs: 1722858790
    nsecs:   2777975
  frame_id: ''
magnetic_x: -9969.34375
magnetic_y: 5169.69580078125
magnetic_z: 16064.80859375
---
header: 
  seq: 1754249
  stamp: 
    secs: 1722858790
    nsecs:   8777975
  frame_id: ''
magnetic_x: -9974.83203125
magnetic_y: 5180.27978515625
magnetic_z: 16059.12109375
---
header: 
  seq: 1754250
  stamp: 
    secs: 1722858790
    nsecs:  14777975
  frame_id: ''
magnetic_x: -9962.6796875
magnetic_y: 5168.1279296875
magnetic_z: 16069.8642578125
---
header: 
  seq: 1754251
  stamp: 
    secs: 1722858790
    nsecs:  21777975
  frame_id: ''
magnetic_x: -9963.85546875
magnetic_y: 5169.3037109375
magnetic_z: 16057.8564453125
---
header: 
  seq: 1754252
  stamp: 
    secs: 1722858790
    nsecs:  27777975
  frame_id: ''
magnetic_x: -9968.5595703125
magnetic_y: 5164.99169921875
magnetic_z: 16057.8564453125
---
header: 
  seq: 1754253
  stamp: 
    secs: 1722858790
    nsecs:  33777975
  frame_id: ''
magnetic_x: -9965.8154296875
magnetic_y: 5173.61572265625
magnetic_z: 16053.4326171875
---
header: 
  seq: 1754254
  stamp: 
    secs: 1722858790
    nsecs:  39777975
  frame_id: ''
magnetic_x: -9965.8154296875
magnetic_y: 5170.47998046875
magnetic_z: 16054.6962890625
---
header: 
  seq: 1754255
  stamp: 
    secs: 1722858790
    nsecs:  45777975
  frame_id: ''
magnetic_x: -9975.2236328125
magnetic_y: 5173.2236328125
magnetic_z: 16062.9130859375
---
header: 
  seq: 1754256
  stamp: 
    secs: 1722858790
    nsecs:  51777975
  frame_id: ''
magnetic_x: -9967.775390625
magnetic_y: 5173.2236328125
magnetic_z: 16061.6484375
---
header: 
  seq: 1754257
  stamp: 
    secs: 1722858790
    nsecs:  57777975
  frame_id: ''
magnetic_x: -9961.50390625
magnetic_y: 5167.34375
magnetic_z: 16060.384765625
---
header: 
  seq: 1754258
  stamp: 
    secs: 1722858790
    nsecs:  64777975
  frame_id: ''
magnetic_x: -9962.6796875
magnetic_y: 5172.43994140625
magnetic_z: 16077.44921875
---
header: 
  seq: 1754259
  stamp: 
    secs: 1722858790
    nsecs:  70777975
  frame_id: ''
magnetic_x: -9963.0712890625
magnetic_y: 5164.99169921875
magnetic_z: 16061.6484375
---
header: 
  seq: 1754260
  stamp: 
    secs: 1722858790
    nsecs:  76777975
  frame_id: ''
magnetic_x: -9965.0322265625
magnetic_y: 5171.263671875
magnetic_z: 16064.80859375
---
header: 
  seq: 1754261
  stamp: 
    secs: 1722858790
    nsecs:  82777975
  frame_id: ''
magnetic_x: -9968.5595703125
magnetic_y: 5173.2236328125
magnetic_z: 16060.384765625
---
header: 
  seq: 1754262
  stamp: 
    secs: 1722858790
    nsecs:  88777975
  frame_id: ''
magnetic_x: -9962.6796875
magnetic_y: 5167.34375
magnetic_z: 16050.2724609375
---
header: 
  seq: 1754263
  stamp: 
    secs: 1722858790
    nsecs:  94777975
  frame_id: ''
magnetic_x: -9966.599609375
magnetic_y: 5175.57568359375
magnetic_z: 16039.5283203125
---
header: 
  seq: 1754264
  stamp: 
    secs: 1722858790
    nsecs: 100777975
  frame_id: ''
magnetic_x: -9967.775390625
magnetic_y: 5165.3837890625
magnetic_z: 16065.4404296875
---
header: 
  seq: 1754265
  stamp: 
    secs: 1722858790
    nsecs: 107777975
  frame_id: ''
magnetic_x: -9968.5595703125
magnetic_y: 5175.9677734375
magnetic_z: 16061.6484375
---
header: 
  seq: 1754266
  stamp: 
    secs: 1722858790
    nsecs: 113777975
  frame_id: ''
magnetic_x: -9968.9521484375
magnetic_y: 5167.34375
magnetic_z: 16060.384765625
---
header: 
  seq: 1754267
  stamp: 
    secs: 1722858790
    nsecs: 119777975
  frame_id: ''
magnetic_x: -9967.775390625
magnetic_y: 5169.69580078125
magnetic_z: 16054.064453125
---
header: 
  seq: 1754268
  stamp: 
    secs: 1722858790
    nsecs: 125777975
  frame_id: ''
magnetic_x: -9958.759765625
magnetic_y: 5171.65576171875
magnetic_z: 16061.6484375
---
header: 
  seq: 1754269
  stamp: 
    secs: 1722858790
    nsecs: 131777975
  frame_id: ''
magnetic_x: -9968.9521484375
magnetic_y: 5170.8720703125
magnetic_z: 16064.80859375
---
header: 
  seq: 1754270
  stamp: 
    secs: 1722858790
    nsecs: 137777975
  frame_id: ''
magnetic_x: -9966.9921875
magnetic_y: 5172.0478515625
magnetic_z: 16071.12890625
---
header: 
  seq: 1754271
  stamp: 
    secs: 1722858790
    nsecs: 143777975
  frame_id: ''
magnetic_x: -9969.7353515625
magnetic_y: 5175.9677734375
magnetic_z: 16054.064453125
---
header: 
  seq: 1754272
  stamp: 
    secs: 1722858790
    nsecs: 150777975
  frame_id: ''
magnetic_x: -9966.9921875
magnetic_y: 5165.77587890625
magnetic_z: 16064.80859375
---
header: 
  seq: 1754273
  stamp: 
    secs: 1722858790
    nsecs: 156777975
  frame_id: ''
magnetic_x: -9959.935546875
magnetic_y: 5166.95166015625
magnetic_z: 16061.6484375
---
header: 
  seq: 1754274
  stamp: 
    secs: 1722858790
    nsecs: 162777975
  frame_id: ''
magnetic_x: -9959.935546875
magnetic_y: 5159.89599609375
magnetic_z: 16073.6572265625
---
header: 
  seq: 1754275
  stamp: 
    secs: 1722858790
    nsecs: 168777975
  frame_id: ''
magnetic_x: -9965.8154296875
magnetic_y: 5168.52001953125
magnetic_z: 16059.7529296875
---
header: 
  seq: 1754276
  stamp: 
    secs: 1722858790
    nsecs: 174777975
  frame_id: ''
magnetic_x: -9965.423828125
magnetic_y: 5171.263671875
magnetic_z: 16057.8564453125
---
header: 
  seq: 1754277
  stamp: 
    secs: 1722858790
    nsecs: 179777975
  frame_id: ''
magnetic_x: -9962.6796875
magnetic_y: 5170.47998046875
magnetic_z: 16060.384765625
---
header: 
  seq: 1754278
  stamp: 
    secs: 1722858790
    nsecs: 185777975
  frame_id: ''
magnetic_x: -9969.34375
magnetic_y: 5163.03173828125
magnetic_z: 16061.6484375
---
header: 
  seq: 1754279
  stamp: 
    secs: 1722858790
    nsecs: 192777975
  frame_id: ''
magnetic_x: -9965.8154296875
magnetic_y: 5165.77587890625
magnetic_z: 16041.4248046875
---
header: 
  seq: 1754280
  stamp: 
    secs: 1722858790
    nsecs: 198777975
  frame_id: ''
magnetic_x: -9956.015625
magnetic_y: 5166.95166015625
magnetic_z: 16054.6962890625
---
header: 
  seq: 1754281
  stamp: 
    secs: 1722858790
    nsecs: 204777975
  frame_id: ''
magnetic_x: -9963.85546875
magnetic_y: 5174.7919921875
magnetic_z: 16059.7529296875
---
header: 
  seq: 1754282
  stamp: 
    secs: 1722858790
    nsecs: 210777975
  frame_id: ''
magnetic_x: -9967.3837890625
magnetic_y: 5174.7919921875
magnetic_z: 16059.12109375
---
header: 
  seq: 1754283
  stamp: 
    secs: 1722858790
    nsecs: 216777975
  frame_id: ''
magnetic_x: -9960.7197265625
magnetic_y: 5163.03173828125
magnetic_z: 16054.6962890625
---
header: 
  seq: 1754284
  stamp: 
    secs: 1722858790
    nsecs: 222777975
  frame_id: ''
magnetic_x: -9964.248046875
magnetic_y: 5166.95166015625
magnetic_z: 16063.544921875
---
header: 
  seq: 1754285
  stamp: 
    secs: 1722858790
    nsecs: 228777975
  frame_id: ''
magnetic_x: -9971.3037109375
magnetic_y: 5166.16796875
magnetic_z: 16063.544921875
---
header: 
  seq: 1754286
  stamp: 
    secs: 1722858790
    nsecs: 235777975
  frame_id: ''
magnetic_x: -9967.775390625
magnetic_y: 5171.65576171875
magnetic_z: 16048.376953125
---
header: 
  seq: 1754287
  stamp: 
    secs: 1722858790
    nsecs: 241777975
  frame_id: ''
magnetic_x: -9957.583984375
magnetic_y: 5168.91162109375
magnetic_z: 16046.48046875
---
header: 
  seq: 1754288
  stamp: 
    secs: 1722858790
    nsecs: 247777975
  frame_id: ''
magnetic_x: -9965.8154296875
magnetic_y: 5160.2880859375
magnetic_z: 16064.1767578125
---
header: 
  seq: 1754289
  stamp: 
    secs: 1722858790
    nsecs: 253777975
  frame_id: ''
magnetic_x: -9961.8955078125
magnetic_y: 5163.423828125
magnetic_z: 16053.4326171875
---
header: 
  seq: 1754290
  stamp: 
    secs: 1722858790
    nsecs: 259777975
  frame_id: ''
magnetic_x: -9961.111328125
magnetic_y: 5169.69580078125
magnetic_z: 16049.640625
---
header: 
  seq: 1754291
  stamp: 
    secs: 1722858790
    nsecs: 265777975
  frame_id: ''
magnetic_x: -9956.015625
magnetic_y: 5158.7197265625
magnetic_z: 16059.12109375
---
header: 
  seq: 1754292
  stamp: 
    secs: 1722858790
    nsecs: 271777975
  frame_id: ''
magnetic_x: -9975.6162109375
magnetic_y: 5172.83203125
magnetic_z: 16060.384765625
---
header: 
  seq: 1754293
  stamp: 
    secs: 1722858790
    nsecs: 278777975
  frame_id: ''
magnetic_x: -9965.8154296875
magnetic_y: 5168.52001953125
magnetic_z: 16049.0087890625
---
header: 
  seq: 1754294
  stamp: 
    secs: 1722858790
    nsecs: 284777975
  frame_id: ''
magnetic_x: -9971.6953125
magnetic_y: 5172.0478515625
magnetic_z: 16058.48828125
---
header: 
  seq: 1754295
  stamp: 
    secs: 1722858790
    nsecs: 290777975
  frame_id: ''
magnetic_x: -9964.6396484375
magnetic_y: 5161.85595703125
magnetic_z: 16070.4970703125
---
header: 
  seq: 1754296
  stamp: 
    secs: 1722858790
    nsecs: 296777975
  frame_id: ''
magnetic_x: -9966.2080078125
magnetic_y: 5166.16796875
magnetic_z: 16063.544921875
---
header: 
  seq: 1754297
  stamp: 
    secs: 1722858790
    nsecs: 302777975
  frame_id: ''
magnetic_x: -9973.263671875
magnetic_y: 5168.1279296875
magnetic_z: 16065.4404296875
---
header: 
  seq: 1754298
  stamp: 
    secs: 1722858790
    nsecs: 308777975
  frame_id: ''
magnetic_x: -9962.6796875
magnetic_y: 5165.3837890625
magnetic_z: 16064.80859375
---
header: 
  seq: 1754299
  stamp: 
    secs: 1722858790
    nsecs: 314777975
  frame_id: ''
magnetic_x: -9974.83203125
magnetic_y: 5151.27197265625
magnetic_z: 16066.705078125
---
header: 
  seq: 1754300
  stamp: 
    secs: 1722858790
    nsecs: 321777975
  frame_id: ''
magnetic_x: -9959.935546875
magnetic_y: 5169.3037109375
magnetic_z: 16050.904296875
---
header: 
  seq: 1754301
  stamp: 
    secs: 1722858790
    nsecs: 327777975
  frame_id: ''
magnetic_x: -9973.6552734375
magnetic_y: 5171.65576171875
magnetic_z: 16059.12109375
---
header: 
  seq: 1754302
  stamp: 
    secs: 1722858790
    nsecs: 333777975
  frame_id: ''
magnetic_x: -9962.6796875
magnetic_y: 5172.0478515625
magnetic_z: 16074.9208984375
---
header: 
  seq: 1754303
  stamp: 
    secs: 1722858790
    nsecs: 339777975
  frame_id: ''
magnetic_x: -9956.7998046875
magnetic_y: 5168.52001953125
magnetic_z: 16060.384765625
---
header: 
  seq: 1754304
  stamp: 
    secs: 1722858790
    nsecs: 345777975
  frame_id: ''
magnetic_x: -9970.912109375
magnetic_y: 5169.69580078125
magnetic_z: 16052.80078125
---
header: 
  seq: 1754305
  stamp: 
    secs: 1722858790
    nsecs: 351777975
  frame_id: ''
magnetic_x: -9973.263671875
magnetic_y: 5168.1279296875
magnetic_z: 16059.12109375
---
header: 
  seq: 1754306
  stamp: 
    secs: 1722858790
    nsecs: 357777975
  frame_id: ''
magnetic_x: -9968.5595703125
magnetic_y: 5170.087890625
magnetic_z: 16056.5927734375
---
header: 
  seq: 1754307
  stamp: 
    secs: 1722858790
    nsecs: 364777975
  frame_id: ''
magnetic_x: -9960.7197265625
magnetic_y: 5170.8720703125
magnetic_z: 16069.8642578125
---
header: 
  seq: 1754308
  stamp: 
    secs: 1722858790
    nsecs: 370777975
  frame_id: ''
magnetic_x: -9970.1279296875
magnetic_y: 5170.087890625
magnetic_z: 16059.12109375
---
header: 
  seq: 1754309
  stamp: 
    secs: 1722858790
    nsecs: 376777975
  frame_id: ''
magnetic_x: -9957.19140625
magnetic_y: 5174.0078125
magnetic_z: 16047.7451171875
---
header: 
  seq: 1754310
  stamp: 
    secs: 1722858790
    nsecs: 382777975
  frame_id: ''
magnetic_x: -9972.4794921875
magnetic_y: 5172.0478515625
magnetic_z: 16057.224609375
---
header: 
  seq: 1754311
  stamp: 
    secs: 1722858790
    nsecs: 388777975
  frame_id: ''
magnetic_x: -9960.7197265625
magnetic_y: 5159.89599609375
magnetic_z: 16069.8642578125
---
header: 
  seq: 1754312
  stamp: 
    secs: 1722858790
    nsecs: 394777975
  frame_id: ''
magnetic_x: -9959.935546875
magnetic_y: 5170.087890625
magnetic_z: 16061.6484375
---
header: 
  seq: 1754313
  stamp: 
    secs: 1722858790
    nsecs: 401777975
  frame_id: ''
magnetic_x: -9973.263671875
magnetic_y: 5174.39990234375
magnetic_z: 16060.384765625
---
header: 
  seq: 1754314
  stamp: 
    secs: 1722858790
    nsecs: 407777975
  frame_id: ''
magnetic_x: -9964.248046875
magnetic_y: 5161.07177734375
magnetic_z: 16048.376953125
---
header: 
  seq: 1754315
  stamp: 
    secs: 1722858790
    nsecs: 413777975
  frame_id: ''
magnetic_x: -9959.935546875
magnetic_y: 5176.751953125
magnetic_z: 16059.7529296875
---
header: 
  seq: 1754316
  stamp: 
    secs: 1722858790
    nsecs: 419777975
  frame_id: ''
magnetic_x: -9963.85546875
magnetic_y: 5168.52001953125
magnetic_z: 16062.9130859375
---
header: 
  seq: 1754317
  stamp: 
    secs: 1722858790
    nsecs: 425777975
  frame_id: ''
magnetic_x: -9955.6240234375
magnetic_y: 5169.3037109375
magnetic_z: 16079.9765625
---
header: 
  seq: 1754318
  stamp: 
    secs: 1722858790
    nsecs: 431777975
  frame_id: ''
magnetic_x: -9965.0322265625
magnetic_y: 5163.423828125
magnetic_z: 16057.8564453125
---
header: 
  seq: 1754319
  stamp: 
    secs: 1722858790
    nsecs: 436777975
  frame_id: ''
magnetic_x: -9967.775390625
magnetic_y: 5166.16796875
magnetic_z: 16057.8564453125
---
header: 
  seq: 1754320
  stamp: 
    secs: 1722858790
    nsecs: 442777975
  frame_id: ''
magnetic_x: -9964.6396484375
magnetic_y: 5172.43994140625
magnetic_z: 16049.640625
---
header: 
  seq: 1754321
  stamp: 
    secs: 1722858790
    nsecs: 449777975
  frame_id: ''
magnetic_x: -9972.4794921875
magnetic_y: 5166.16796875
magnetic_z: 16054.064453125
---
header: 
  seq: 1754322
  stamp: 
    secs: 1722858790
    nsecs: 455777975
  frame_id: ''
magnetic_x: -9977.576171875
magnetic_y: 5161.4638671875
magnetic_z: 16058.48828125
---
header: 
  seq: 1754323
  stamp: 
    secs: 1722858790
    nsecs: 461777975
  frame_id: ''
magnetic_x: -9970.912109375
magnetic_y: 5170.47998046875
magnetic_z: 16060.384765625
---
header: 
  seq: 1754324
  stamp: 
    secs: 1722858790
    nsecs: 467777975
  frame_id: ''
magnetic_x: -9964.248046875
magnetic_y: 5172.83203125
magnetic_z: 16058.48828125
---
header: 
  seq: 1754325
  stamp: 
    secs: 1722858790
    nsecs: 473777975
  frame_id: ''
magnetic_x: -9962.6796875
magnetic_y: 5169.3037109375
magnetic_z: 16056.5927734375
---
header: 
  seq: 1754326
  stamp: 
    secs: 1722858790
    nsecs: 479777975
  frame_id: ''
magnetic_x: -9963.85546875
magnetic_y: 5170.47998046875
magnetic_z: 16069.8642578125
---
header: 
  seq: 1754327
  stamp: 
    secs: 1722858790
    nsecs: 485777975
  frame_id: ''
magnetic_x: -9956.7998046875
magnetic_y: 5171.263671875
magnetic_z: 16054.064453125
---
header: 
  seq: 1754328
  stamp: 
    secs: 1722858790
    nsecs: 492777975
  frame_id: ''
magnetic_x: -9973.6552734375
magnetic_y: 5166.95166015625
magnetic_z: 16057.8564453125
---
header: 
  seq: 1754329
  stamp: 
    secs: 1722858790
    nsecs: 498777975
  frame_id: ''
magnetic_x: -9962.2880859375
magnetic_y: 5161.07177734375
magnetic_z: 16059.12109375
---
header: 
  seq: 1754330
  stamp: 
    secs: 1722858790
    nsecs: 504777975
  frame_id: ''
magnetic_x: -9953.271484375
magnetic_y: 5166.95166015625
magnetic_z: 16054.064453125
---
header: 
  seq: 1754331
  stamp: 
    secs: 1722858790
    nsecs: 510777975
  frame_id: ''
magnetic_x: -9966.9921875
magnetic_y: 5167.34375
magnetic_z: 16079.3447265625
---
header: 
  seq: 1754332
  stamp: 
    secs: 1722858790
    nsecs: 516777975
  frame_id: ''
magnetic_x: -9966.2080078125
magnetic_y: 5174.39990234375
magnetic_z: 16050.2724609375
---
header: 
  seq: 1754333
  stamp: 
    secs: 1722858790
    nsecs: 522777975
  frame_id: ''
magnetic_x: -9962.6796875
magnetic_y: 5166.16796875
magnetic_z: 16063.544921875
---
header: 
  seq: 1754334
  stamp: 
    secs: 1722858790
    nsecs: 529777975
  frame_id: ''
magnetic_x: -9961.50390625
magnetic_y: 5176.751953125
magnetic_z: 16061.0166015625
---
header: 
  seq: 1754335
  stamp: 
    secs: 1722858790
    nsecs: 535777975
  frame_id: ''
magnetic_x: -9958.759765625
magnetic_y: 5179.8876953125
magnetic_z: 16065.4404296875
---
header: 
  seq: 1754336
  stamp: 
    secs: 1722858790
    nsecs: 541777975
  frame_id: ''
magnetic_x: -9953.271484375
magnetic_y: 5165.77587890625
magnetic_z: 16052.1689453125
---
header: 
  seq: 1754337
  stamp: 
    secs: 1722858790
    nsecs: 547777975
  frame_id: ''
magnetic_x: -9969.7353515625
magnetic_y: 5169.3037109375
magnetic_z: 16055.3291015625
---
header: 
  seq: 1754338
  stamp: 
    secs: 1722858790
    nsecs: 553777975
  frame_id: ''
magnetic_x: -9976.7919921875
magnetic_y: 5158.7197265625
magnetic_z: 16065.4404296875
---
header: 
  seq: 1754339
  stamp: 
    secs: 1722858790
    nsecs: 559777975
  frame_id: ''
magnetic_x: -9959.1513671875
magnetic_y: 5167.34375
magnetic_z: 16061.6484375
---
header: 
  seq: 1754340
  stamp: 
    secs: 1722858790
    nsecs: 565777975
  frame_id: ''
magnetic_x: -9972.8720703125
magnetic_y: 5168.91162109375
magnetic_z: 16057.224609375
---
header: 
  seq: 1754341
  stamp: 
    secs: 1722858790
    nsecs: 572777975
  frame_id: ''
magnetic_x: -9958.3681640625
magnetic_y: 5165.77587890625
magnetic_z: 16068.6005859375
---
header: 
  seq: 1754342
  stamp: 
    secs: 1722858790
    nsecs: 578777975
  frame_id: ''
magnetic_x: -9967.775390625
magnetic_y: 5174.7919921875
magnetic_z: 16064.1767578125
---
header: 
  seq: 1754343
  stamp: 
    secs: 1722858790
    nsecs: 584777975
  frame_id: ''
magnetic_x: -9965.423828125
magnetic_y: 5174.0078125
magnetic_z: 16066.705078125
---
header: 
  seq: 1754344
  stamp: 
    secs: 1722858790
    nsecs: 590777975
  frame_id: ''
magnetic_x: -9958.759765625
magnetic_y: 5164.99169921875
magnetic_z: 16059.7529296875
---
header: 
  seq: 1754345
  stamp: 
    secs: 1722858790
    nsecs: 596777975
  frame_id: ''
magnetic_x: -9965.423828125
magnetic_y: 5170.47998046875
magnetic_z: 16059.7529296875
---
header: 
  seq: 1754346
  stamp: 
    secs: 1722858790
    nsecs: 602777975
  frame_id: ''
magnetic_x: -9962.2880859375
magnetic_y: 5169.69580078125
magnetic_z: 16062.9130859375
---
header: 
  seq: 1754347
  stamp: 
    secs: 1722858790
    nsecs: 608777975
  frame_id: ''
magnetic_x: -9967.775390625
magnetic_y: 5171.263671875
magnetic_z: 16054.6962890625
---
header: 
  seq: 1754348
  stamp: 
    secs: 1722858790
    nsecs: 615777975
  frame_id: ''
magnetic_x: -9968.5595703125
magnetic_y: 5164.99169921875
magnetic_z: 16046.48046875
---
header: 
  seq: 1754349
  stamp: 
    secs: 1722858790
    nsecs: 621777975
  frame_id: ''
magnetic_x: -9964.248046875
magnetic_y: 5175.57568359375
magnetic_z: 16073.0244140625
---
header: 
  seq: 1754350
  stamp: 
    secs: 1722858790
    nsecs: 627777975
  frame_id: ''
magnetic_x: -9965.0322265625
magnetic_y: 5170.087890625
magnetic_z: 16052.80078125
---
header: 
  seq: 1754351
  stamp: 
    secs: 1722858790
    nsecs: 633777975
  frame_id: ''
magnetic_x: -9966.599609375
magnetic_y: 5179.8876953125
magnetic_z: 16055.3291015625
---
header: 
  seq: 1754352
  stamp: 
    secs: 1722858790
    nsecs: 639777975
  frame_id: ''
magnetic_x: -9973.263671875
magnetic_y: 5173.61572265625
magnetic_z: 16064.1767578125
---
header: 
  seq: 1754353
  stamp: 
    secs: 1722858790
    nsecs: 645777975
  frame_id: ''
magnetic_x: -9961.50390625
magnetic_y: 5170.087890625
magnetic_z: 16058.48828125
---
header: 
  seq: 1754354
  stamp: 
    secs: 1722858790
    nsecs: 651777975
  frame_id: ''
magnetic_x: -9978.359375
magnetic_y: 5168.1279296875
magnetic_z: 16048.376953125
---
header: 
  seq: 1754355
  stamp: 
    secs: 1722858790
    nsecs: 658777975
  frame_id: ''
magnetic_x: -9959.935546875
magnetic_y: 5165.77587890625
magnetic_z: 16059.12109375
---
header: 
  seq: 1754356
  stamp: 
    secs: 1722858790
    nsecs: 664777975
  frame_id: ''
magnetic_x: -9962.6796875
magnetic_y: 5167.73583984375
magnetic_z: 16060.384765625
---
header: 
  seq: 1754357
  stamp: 
    secs: 1722858790
    nsecs: 670777975
  frame_id: ''
magnetic_x: -9947.7841796875
magnetic_y: 5164.99169921875
magnetic_z: 16066.072265625
---
header: 
  seq: 1754358
  stamp: 
    secs: 1722858790
    nsecs: 676777975
  frame_id: ''
magnetic_x: -9965.8154296875
magnetic_y: 5168.1279296875
magnetic_z: 16050.2724609375
---
header: 
  seq: 1754359
  stamp: 
    secs: 1722858790
    nsecs: 682777975
  frame_id: ''
magnetic_x: -9964.6396484375
magnetic_y: 5157.15185546875
magnetic_z: 16047.1123046875
---
header: 
  seq: 1754360
  stamp: 
    secs: 1722858790
    nsecs: 688777975
  frame_id: ''
magnetic_x: -9970.51953125
magnetic_y: 5173.61572265625
magnetic_z: 16057.8564453125
---
header: 
  seq: 1754361
  stamp: 
    secs: 1722858790
    nsecs: 694777975
  frame_id: ''
magnetic_x: -9960.7197265625
magnetic_y: 5179.49609375
magnetic_z: 16051.537109375
---
header: 
  seq: 1754362
  stamp: 
    secs: 1722858790
    nsecs: 700777975
  frame_id: ''
magnetic_x: -9963.85546875
magnetic_y: 5156.759765625
magnetic_z: 16062.2802734375
---
header: 
  seq: 1754363
  stamp: 
    secs: 1722858790
    nsecs: 706777975
  frame_id: ''
magnetic_x: -9954.0556640625
magnetic_y: 5166.95166015625
magnetic_z: 16051.537109375
---
header: 
  seq: 1754364
  stamp: 
    secs: 1722858790
    nsecs: 712777975
  frame_id: ''
magnetic_x: -9961.111328125
magnetic_y: 5166.56005859375
magnetic_z: 16059.7529296875
---
header: 
  seq: 1754365
  stamp: 
    secs: 1722858790
    nsecs: 718777975
  frame_id: ''
magnetic_x: -9971.6953125
magnetic_y: 5164.2080078125
magnetic_z: 16054.064453125
---
header: 
  seq: 1754366
  stamp: 
    secs: 1722858790
    nsecs: 724777975
  frame_id: ''
magnetic_x: -9974.0478515625
magnetic_y: 5162.6396484375
magnetic_z: 16063.544921875
---
header: 
  seq: 1754367
  stamp: 
    secs: 1722858790
    nsecs: 730777975
  frame_id: ''
magnetic_x: -9969.7353515625
magnetic_y: 5167.34375
magnetic_z: 16058.48828125
---
header: 
  seq: 1754368
  stamp: 
    secs: 1722858790
    nsecs: 736777975
  frame_id: ''
magnetic_x: -9963.0712890625
magnetic_y: 5168.52001953125
magnetic_z: 16050.904296875
---
header: 
  seq: 1754369
  stamp: 
    secs: 1722858790
    nsecs: 743777975
  frame_id: ''
magnetic_x: -9969.34375
magnetic_y: 5172.43994140625
magnetic_z: 16057.224609375
---
header: 
  seq: 1754370
  stamp: 
    secs: 1722858790
    nsecs: 749777975
  frame_id: ''
magnetic_x: -9969.7353515625
magnetic_y: 5168.1279296875
magnetic_z: 16052.80078125
---
header: 
  seq: 1754371
  stamp: 
    secs: 1722858790
    nsecs: 755777975
  frame_id: ''
magnetic_x: -9966.2080078125
magnetic_y: 5157.15185546875
magnetic_z: 16061.0166015625
---
header: 
  seq: 1754372
  stamp: 
    secs: 1722858790
    nsecs: 761777975
  frame_id: ''
magnetic_x: -9957.9755859375
magnetic_y: 5173.61572265625
magnetic_z: 16070.4970703125
---
header: 
  seq: 1754373
  stamp: 
    secs: 1722858790
    nsecs: 767777975
  frame_id: ''
magnetic_x: -9957.9755859375
magnetic_y: 5166.95166015625
magnetic_z: 16052.1689453125
---
header: 
  seq: 1754374
  stamp: 
    secs: 1722858790
    nsecs: 773777975
  frame_id: ''
magnetic_x: -9961.8955078125
magnetic_y: 5179.10400390625
magnetic_z: 16054.6962890625
---
header: 
  seq: 1754375
  stamp: 
    secs: 1722858790
    nsecs: 779777975
  frame_id: ''
magnetic_x: -9965.0322265625
magnetic_y: 5169.69580078125
magnetic_z: 16044.5849609375
---
header: 
  seq: 1754376
  stamp: 
    secs: 1722858790
    nsecs: 786777975
  frame_id: ''
magnetic_x: -9959.1513671875
magnetic_y: 5172.83203125
magnetic_z: 16052.80078125
---
header: 
  seq: 1754377
  stamp: 
    secs: 1722858790
    nsecs: 792777975
  frame_id: ''
magnetic_x: -9961.111328125
magnetic_y: 5166.16796875
magnetic_z: 16069.232421875
---
header: 
  seq: 1754378
  stamp: 
    secs: 1722858790
    nsecs: 798777975
  frame_id: ''
magnetic_x: -9955.6240234375
magnetic_y: 5161.4638671875
magnetic_z: 16047.7451171875
---
header: 
  seq: 1754379
  stamp: 
    secs: 1722858790
    nsecs: 804777975
  frame_id: ''
magnetic_x: -9963.4638671875
magnetic_y: 5160.2880859375
magnetic_z: 16035.736328125
---
header: 
  seq: 1754380
  stamp: 
    secs: 1722858790
    nsecs: 810777975
  frame_id: ''
magnetic_x: -9967.775390625
magnetic_y: 5172.43994140625
magnetic_z: 16050.2724609375
---
header: 
  seq: 1754381
  stamp: 
    secs: 1722858790
    nsecs: 816777975
  frame_id: ''
magnetic_x: -9962.2880859375
magnetic_y: 5174.7919921875
magnetic_z: 16054.6962890625
---
header: 
  seq: 1754382
  stamp: 
    secs: 1722858790
    nsecs: 822777975
  frame_id: ''
magnetic_x: -9973.263671875
magnetic_y: 5175.9677734375
magnetic_z: 16056.5927734375
---
header: 
  seq: 1754383
  stamp: 
    secs: 1722858790
    nsecs: 829777975
  frame_id: ''
magnetic_x: -9955.2314453125
magnetic_y: 5166.95166015625
magnetic_z: 16061.0166015625
---
header: 
  seq: 1754384
  stamp: 
    secs: 1722858790
    nsecs: 835777975
  frame_id: ''
magnetic_x: -9963.85546875
magnetic_y: 5166.56005859375
magnetic_z: 16057.8564453125
---
header: 
  seq: 1754385
  stamp: 
    secs: 1722858790
    nsecs: 841777975
  frame_id: ''
magnetic_x: -9963.0712890625
magnetic_y: 5170.087890625
magnetic_z: 16063.544921875
---
header: 
  seq: 1754386
  stamp: 
    secs: 1722858790
    nsecs: 847777975
  frame_id: ''
magnetic_x: -9968.16796875
magnetic_y: 5174.7919921875
magnetic_z: 16059.7529296875
---
header: 
  seq: 1754387
  stamp: 
    secs: 1722858790
    nsecs: 853777975
  frame_id: ''
magnetic_x: -9962.6796875
magnetic_y: 5168.91162109375
magnetic_z: 16073.0244140625
---
header: 
  seq: 1754388
  stamp: 
    secs: 1722858790
    nsecs: 859777975
  frame_id: ''
magnetic_x: -9962.6796875
magnetic_y: 5165.77587890625
magnetic_z: 16047.7451171875
---
header: 
  seq: 1754389
  stamp: 
    secs: 1722858790
    nsecs: 865777975
  frame_id: ''
magnetic_x: -9964.248046875
magnetic_y: 5173.61572265625
magnetic_z: 16054.064453125
---
header: 
  seq: 1754390
  stamp: 
    secs: 1722858790
    nsecs: 872777975
  frame_id: ''
magnetic_x: -9969.7353515625
magnetic_y: 5170.47998046875
magnetic_z: 16050.904296875
---
header: 
  seq: 1754391
  stamp: 
    secs: 1722858790
    nsecs: 878777975
  frame_id: ''
magnetic_x: -9956.408203125
magnetic_y: 5173.61572265625
magnetic_z: 16066.072265625
---
header: 
  seq: 1754392
  stamp: 
    secs: 1722858790
    nsecs: 884777975
  frame_id: ''
magnetic_x: -9975.2236328125
magnetic_y: 5177.927734375
magnetic_z: 16050.2724609375
---
header: 
  seq: 1754393
  stamp: 
    secs: 1722858790
    nsecs: 890777975
  frame_id: ''
magnetic_x: -9970.51953125
magnetic_y: 5169.69580078125
magnetic_z: 16067.96875
---
header: 
  seq: 1754394
  stamp: 
    secs: 1722858790
    nsecs: 896777975
  frame_id: ''
magnetic_x: -9970.51953125
magnetic_y: 5160.2880859375
magnetic_z: 16060.384765625
---
header: 
  seq: 1754395
  stamp: 
    secs: 1722858790
    nsecs: 902777975
  frame_id: ''
magnetic_x: -9963.85546875
magnetic_y: 5171.263671875
magnetic_z: 16059.7529296875
---
header: 
  seq: 1754396
  stamp: 
    secs: 1722858790
    nsecs: 908777975
  frame_id: ''
magnetic_x: -9959.1513671875
magnetic_y: 5163.03173828125
magnetic_z: 16050.2724609375
---
header: 
  seq: 1754397
  stamp: 
    secs: 1722858790
    nsecs: 915777975
  frame_id: ''
magnetic_x: -9973.263671875
magnetic_y: 5175.57568359375
magnetic_z: 16051.537109375
---
header: 
  seq: 1754398
  stamp: 
    secs: 1722858790
    nsecs: 921777975
  frame_id: ''
magnetic_x: -9964.248046875
magnetic_y: 5166.95166015625
magnetic_z: 16070.4970703125
---
header: 
  seq: 1754399
  stamp: 
    secs: 1722858790
    nsecs: 927777975
  frame_id: ''
magnetic_x: -9966.599609375
magnetic_y: 5166.16796875
magnetic_z: 16051.537109375
---
header: 
  seq: 1754400
  stamp: 
    secs: 1722858790
    nsecs: 933777975
  frame_id: ''
magnetic_x: -9960.328125
magnetic_y: 5163.423828125
magnetic_z: 16052.80078125
---
header: 
  seq: 1754401
  stamp: 
    secs: 1722858790
    nsecs: 939777975
  frame_id: ''
magnetic_x: -9958.759765625
magnetic_y: 5169.69580078125
magnetic_z: 16052.80078125
---
header: 
  seq: 1754402
  stamp: 
    secs: 1722858790
    nsecs: 945777975
  frame_id: ''
magnetic_x: -9963.85546875
magnetic_y: 5169.3037109375
magnetic_z: 16056.5927734375
---
header: 
  seq: 1754403
  stamp: 
    secs: 1722858790
    nsecs: 951777975
  frame_id: ''
magnetic_x: -9967.775390625
magnetic_y: 5165.77587890625
magnetic_z: 16068.6005859375
---
header: 
  seq: 1754404
  stamp: 
    secs: 1722858790
    nsecs: 958777975
  frame_id: ''
magnetic_x: -9963.4638671875
magnetic_y: 5169.69580078125
magnetic_z: 16061.6484375
---
header: 
  seq: 1754405
  stamp: 
    secs: 1722858790
    nsecs: 963777975
  frame_id: ''
magnetic_x: -9963.85546875
magnetic_y: 5160.2880859375
magnetic_z: 16072.392578125
---
header: 
  seq: 1754406
  stamp: 
    secs: 1722858790
    nsecs: 969777975
  frame_id: ''
magnetic_x: -9964.6396484375
magnetic_y: 5168.91162109375
magnetic_z: 16078.712890625
---
header: 
  seq: 1754407
  stamp: 
    secs: 1722858790
    nsecs: 975777975
  frame_id: ''
magnetic_x: -9970.1279296875
magnetic_y: 5159.11181640625
magnetic_z: 16059.7529296875
---
header: 
  seq: 1754408
  stamp: 
    secs: 1722858790
    nsecs: 981777975
  frame_id: ''
magnetic_x: -9965.0322265625
magnetic_y: 5164.60009765625
magnetic_z: 16066.072265625
---
header: 
  seq: 1754409
  stamp: 
    secs: 1722858790
    nsecs: 987777975
  frame_id: ''
magnetic_x: -9971.6953125
magnetic_y: 5171.263671875
magnetic_z: 16062.2802734375
---
header: 
  seq: 1754410
  stamp: 
    secs: 1722858790
    nsecs: 993777975
  frame_id: ''
magnetic_x: -9968.5595703125
magnetic_y: 5175.9677734375
magnetic_z: 16066.072265625
---
header: 
  seq: 1754411
  stamp: 
    secs: 1722858791
    nsecs:    777975
  frame_id: ''
magnetic_x: -9961.111328125
magnetic_y: 5172.0478515625
magnetic_z: 16052.1689453125
---
header: 
  seq: 1754412
  stamp: 
    secs: 1722858791
    nsecs:   6777975
  frame_id: ''
magnetic_x: -9968.5595703125
magnetic_y: 5174.0078125
magnetic_z: 16061.6484375
---
header: 
  seq: 1754413
  stamp: 
    secs: 1722858791
    nsecs:  12777975
  frame_id: ''
magnetic_x: -9965.423828125
magnetic_y: 5165.3837890625
magnetic_z: 16076.81640625
---
header: 
  seq: 1754414
  stamp: 
    secs: 1722858791
    nsecs:  18777975
  frame_id: ''
magnetic_x: -9975.6162109375
magnetic_y: 5169.69580078125
magnetic_z: 16074.9208984375
---
header: 
  seq: 1754415
  stamp: 
    secs: 1722858791
    nsecs:  24777975
  frame_id: ''
magnetic_x: -9966.2080078125
magnetic_y: 5174.0078125
magnetic_z: 16058.48828125
---
header: 
  seq: 1754416
  stamp: 
    secs: 1722858791
    nsecs:  30777975
  frame_id: ''
magnetic_x: -9969.7353515625
magnetic_y: 5171.65576171875
magnetic_z: 16060.384765625
---
header: 
  seq: 1754417
  stamp: 
    secs: 1722858791
    nsecs:  36777975
  frame_id: ''
magnetic_x: -9956.408203125
magnetic_y: 5163.03173828125
magnetic_z: 16070.4970703125
---
header: 
  seq: 1754418
  stamp: 
    secs: 1722858791
    nsecs:  43777975
  frame_id: ''
magnetic_x: -9953.6640625
magnetic_y: 5177.53564453125
magnetic_z: 16067.3369140625
---
header: 
  seq: 1754419
  stamp: 
    secs: 1722858791
    nsecs:  49777975
  frame_id: ''
magnetic_x: -9966.2080078125
magnetic_y: 5173.61572265625
magnetic_z: 16057.224609375
---
header: 
  seq: 1754420
  stamp: 
    secs: 1722858791
    nsecs:  55777975
  frame_id: ''
magnetic_x: -9976.0078125
magnetic_y: 5171.263671875
magnetic_z: 16061.0166015625
---
header: 
  seq: 1754421
  stamp: 
    secs: 1722858791
    nsecs:  61777975
  frame_id: ''
magnetic_x: -9967.775390625
magnetic_y: 5172.43994140625
magnetic_z: 16057.224609375
---
header: 
  seq: 1754422
  stamp: 
    secs: 1722858791
    nsecs:  67777975
  frame_id: ''
magnetic_x: -9970.1279296875
magnetic_y: 5170.8720703125
magnetic_z: 16066.072265625
---
header: 
  seq: 1754423
  stamp: 
    secs: 1722858791
    nsecs:  73777975
  frame_id: ''
magnetic_x: -9970.51953125
magnetic_y: 5174.0078125
magnetic_z: 16054.064453125
---
header: 
  seq: 1754424
  stamp: 
    secs: 1722858791
    nsecs:  79777975
  frame_id: ''
magnetic_x: -9968.16796875
magnetic_y: 5171.65576171875
magnetic_z: 16068.6005859375
---
header: 
  seq: 1754425
  stamp: 
    secs: 1722858791
    nsecs:  86777975
  frame_id: ''
magnetic_x: -9967.3837890625
magnetic_y: 5164.99169921875
magnetic_z: 16054.6962890625
---
header: 
  seq: 1754426
  stamp: 
    secs: 1722858791
    nsecs:  92777975
  frame_id: ''
magnetic_x: -9968.16796875
magnetic_y: 5177.14404296875
magnetic_z: 16049.640625
---
header: 
  seq: 1754427
  stamp: 
    secs: 1722858791
    nsecs:  98777975
  frame_id: ''
magnetic_x: -9964.248046875
magnetic_y: 5172.83203125
magnetic_z: 16055.3291015625
---
header: 
  seq: 1754428
  stamp: 
    secs: 1722858791
    nsecs: 104777975
  frame_id: ''
magnetic_x: -9966.2080078125
magnetic_y: 5174.7919921875
magnetic_z: 16068.6005859375
---
header: 
  seq: 1754429
  stamp: 
    secs: 1722858791
    nsecs: 110777975
  frame_id: ''
magnetic_x: -9961.111328125
magnetic_y: 5167.34375
magnetic_z: 16062.9130859375
---
header: 
  seq: 1754430
  stamp: 
    secs: 1722858791
    nsecs: 116777975
  frame_id: ''
magnetic_x: -9954.83984375
magnetic_y: 5161.4638671875
magnetic_z: 16053.4326171875
---
header: 
  seq: 1754431
  stamp: 
    secs: 1722858791
    nsecs: 122777975
  frame_id: ''
magnetic_x: -9949.3515625
magnetic_y: 5163.423828125
magnetic_z: 16067.3369140625
---
header: 
  seq: 1754432
  stamp: 
    secs: 1722858791
    nsecs: 129777975
  frame_id: ''
magnetic_x: -9972.4794921875
magnetic_y: 5163.423828125
magnetic_z: 16056.5927734375
---
header: 
  seq: 1754433
  stamp: 
    secs: 1722858791
    nsecs: 135777975
  frame_id: ''
magnetic_x: -9959.1513671875
magnetic_y: 5167.34375
magnetic_z: 16060.384765625
---
header: 
  seq: 1754434
  stamp: 
    secs: 1722858791
    nsecs: 141777975
  frame_id: ''
magnetic_x: -9968.9521484375
magnetic_y: 5167.73583984375
magnetic_z: 16058.48828125
---
header: 
  seq: 1754435
  stamp: 
    secs: 1722858791
    nsecs: 147777975
  frame_id: ''
magnetic_x: -9967.3837890625
magnetic_y: 5167.34375
magnetic_z: 16057.224609375
---
header: 
  seq: 1754436
  stamp: 
    secs: 1722858791
    nsecs: 153777975
  frame_id: ''
magnetic_x: -9972.8720703125
magnetic_y: 5176.751953125
magnetic_z: 16052.80078125
---
header: 
  seq: 1754437
  stamp: 
    secs: 1722858791
    nsecs: 159777975
  frame_id: ''
magnetic_x: -9963.4638671875
magnetic_y: 5173.61572265625
magnetic_z: 16054.6962890625
---
header: 
  seq: 1754438
  stamp: 
    secs: 1722858791
    nsecs: 165777975
  frame_id: ''
magnetic_x: -9961.50390625
magnetic_y: 5165.77587890625
magnetic_z: 16069.8642578125
---
header: 
  seq: 1754439
  stamp: 
    secs: 1722858791
    nsecs: 172777975
  frame_id: ''
magnetic_x: -9970.51953125
magnetic_y: 5170.087890625
magnetic_z: 16064.1767578125
---
header: 
  seq: 1754440
  stamp: 
    secs: 1722858791
    nsecs: 178777975
  frame_id: ''
magnetic_x: -9963.85546875
magnetic_y: 5169.69580078125
magnetic_z: 16059.12109375
---
header: 
  seq: 1754441
  stamp: 
    secs: 1722858791
    nsecs: 184777975
  frame_id: ''
magnetic_x: -9962.6796875
magnetic_y: 5172.83203125
magnetic_z: 16069.232421875
---
header: 
  seq: 1754442
  stamp: 
    secs: 1722858791
    nsecs: 190777975
  frame_id: ''
magnetic_x: -9964.6396484375
magnetic_y: 5171.65576171875
magnetic_z: 16068.6005859375
---
header: 
  seq: 1754443
  stamp: 
    secs: 1722858791
    nsecs: 196777975
  frame_id: ''
magnetic_x: -9973.263671875
magnetic_y: 5171.263671875
magnetic_z: 16051.537109375
---
header: 
  seq: 1754444
  stamp: 
    secs: 1722858791
    nsecs: 202777975
  frame_id: ''
magnetic_x: -9973.6552734375
magnetic_y: 5176.751953125
magnetic_z: 16055.9609375
---
header: 
  seq: 1754445
  stamp: 
    secs: 1722858791
    nsecs: 208777975
  frame_id: ''
magnetic_x: -9967.775390625
magnetic_y: 5171.263671875
magnetic_z: 16045.216796875
---
header: 
  seq: 1754446
  stamp: 
    secs: 1722858791
    nsecs: 215777975
  frame_id: ''
magnetic_x: -9962.6796875
magnetic_y: 5172.43994140625
magnetic_z: 16065.4404296875
---
header: 
  seq: 1754447
  stamp: 
    secs: 1722858791
    nsecs: 220777975
  frame_id: ''
magnetic_x: -9961.50390625
magnetic_y: 5174.7919921875
magnetic_z: 16049.0087890625
---
header: 
  seq: 1754448
  stamp: 
    secs: 1722858791
    nsecs: 226777975
  frame_id: ''
magnetic_x: -9963.4638671875
magnetic_y: 5172.83203125
magnetic_z: 16066.705078125
---
header: 
  seq: 1754449
  stamp: 
    secs: 1722858791
    nsecs: 232777975
  frame_id: ''
magnetic_x: -9956.7998046875
magnetic_y: 5175.18408203125
magnetic_z: 16055.3291015625
---
header: 
  seq: 1754450
  stamp: 
    secs: 1722858791
    nsecs: 238777975
  frame_id: ''
magnetic_x: -9957.583984375
magnetic_y: 5167.34375
magnetic_z: 16059.7529296875
---
header: 
  seq: 1754451
  stamp: 
    secs: 1722858791
    nsecs: 244777975
  frame_id: ''
magnetic_x: -9955.2314453125
magnetic_y: 5164.2080078125
magnetic_z: 16069.232421875
---
header: 
  seq: 1754452
  stamp: 
    secs: 1722858791
    nsecs: 250777975
  frame_id: ''
magnetic_x: -9968.5595703125
magnetic_y: 5169.69580078125
magnetic_z: 16054.6962890625
---
header: 
  seq: 1754453
  stamp: 
    secs: 1722858791
    nsecs: 257777975
  frame_id: ''
magnetic_x: -9973.6552734375
magnetic_y: 5172.0478515625
magnetic_z: 16069.232421875
---
header: 
  seq: 1754454
  stamp: 
    secs: 1722858791
    nsecs: 263777975
  frame_id: ''
magnetic_x: -9970.51953125
magnetic_y: 5178.31982421875
magnetic_z: 16062.2802734375
---
header: 
  seq: 1754455
  stamp: 
    secs: 1722858791
    nsecs: 269777975
  frame_id: ''
magnetic_x: -9968.9521484375
magnetic_y: 5166.95166015625
magnetic_z: 16067.96875
---
header: 
  seq: 1754456
  stamp: 
    secs: 1722858791
    nsecs: 275777975
  frame_id: ''
magnetic_x: -9966.9921875
magnetic_y: 5166.56005859375
magnetic_z: 16066.705078125
---
header: 
  seq: 1754457
  stamp: 
    secs: 1722858791
    nsecs: 281777975
  frame_id: ''
magnetic_x: -9961.50390625
magnetic_y: 5162.6396484375
magnetic_z: 16060.384765625
---
header: 
  seq: 1754458
  stamp: 
    secs: 1722858791
    nsecs: 287777975
  frame_id: ''
magnetic_x: -9967.3837890625
magnetic_y: 5163.423828125
magnetic_z: 16063.544921875
---
header: 
  seq: 1754459
  stamp: 
    secs: 1722858791
    nsecs: 293777975
  frame_id: ''
magnetic_x: -9981.8876953125
magnetic_y: 5178.7119140625
magnetic_z: 16068.6005859375
---
header: 
  seq: 1754460
  stamp: 
    secs: 1722858791
    nsecs: 300777975
  frame_id: ''
magnetic_x: -9962.2880859375
magnetic_y: 5170.47998046875
magnetic_z: 16052.1689453125
---
header: 
  seq: 1754461
  stamp: 
    secs: 1722858791
    nsecs: 306777975
  frame_id: ''
magnetic_x: -9952.4873046875
magnetic_y: 5176.35986328125
magnetic_z: 16061.6484375
---
header: 
  seq: 1754462
  stamp: 
    secs: 1722858791
    nsecs: 312777975
  frame_id: ''
magnetic_x: -9954.83984375
magnetic_y: 5177.927734375
magnetic_z: 16074.2890625
---
header: 
  seq: 1754463
  stamp: 
    secs: 1722858791
    nsecs: 318777975
  frame_id: ''
magnetic_x: -9952.095703125
magnetic_y: 5190.4716796875
magnetic_z: 16067.96875
---
header: 
  seq: 1754464
  stamp: 
    secs: 1722858791
    nsecs: 324777975
  frame_id: ''
magnetic_x: -9950.52734375
magnetic_y: 5198.7041015625
magnetic_z: 16059.7529296875
---
header: 
  seq: 1754465
  stamp: 
    secs: 1722858791
    nsecs: 330777975
  frame_id: ''
magnetic_x: -9942.2958984375
magnetic_y: 5208.50390625
magnetic_z: 16071.7607421875
---
header: 
  seq: 1754466
  stamp: 
    secs: 1722858791
    nsecs: 336777975
  frame_id: ''
magnetic_x: -9946.2158203125
magnetic_y: 5201.44775390625
magnetic_z: 16047.1123046875
---
header: 
  seq: 1754467
  stamp: 
    secs: 1722858791
    nsecs: 343777975
  frame_id: ''
magnetic_x: -9955.2314453125
magnetic_y: 5171.65576171875
magnetic_z: 16064.1767578125
---
header: 
  seq: 1754468
  stamp: 
    secs: 1722858791
    nsecs: 349777975
  frame_id: ''
magnetic_x: -9970.51953125
magnetic_y: 5154.7998046875
magnetic_z: 16040.79296875
---
header: 
  seq: 1754469
  stamp: 
    secs: 1722858791
    nsecs: 355777975
  frame_id: ''
magnetic_x: -9977.576171875
magnetic_y: 5135.98388671875
magnetic_z: 16047.7451171875
---
header: 
  seq: 1754470
  stamp: 
    secs: 1722858791
    nsecs: 361777975
  frame_id: ''
magnetic_x: -9992.4716796875
magnetic_y: 5123.83203125
magnetic_z: 16030.6806640625
---
header: 
  seq: 1754471
  stamp: 
    secs: 1722858791
    nsecs: 367777975
  frame_id: ''
magnetic_x: -9979.5361328125
magnetic_y: 5148.919921875
magnetic_z: 16014.2490234375
---
header: 
  seq: 1754472
  stamp: 
    secs: 1722858791
    nsecs: 373777975
  frame_id: ''
magnetic_x: -9969.34375
magnetic_y: 5180.27978515625
magnetic_z: 16006.6650390625
---
header: 
  seq: 1754473
  stamp: 
    secs: 1722858791
    nsecs: 379777975
  frame_id: ''
magnetic_x: -9954.0556640625
magnetic_y: 5199.8798828125
magnetic_z: 16014.2490234375
---
header: 
  seq: 1754474
  stamp: 
    secs: 1722858791
    nsecs: 386777975
  frame_id: ''
magnetic_x: -9963.4638671875
magnetic_y: 5199.48779296875
magnetic_z: 16045.216796875
---
header: 
  seq: 1754475
  stamp: 
    secs: 1722858791
    nsecs: 392777975
  frame_id: ''
magnetic_x: -9960.328125
magnetic_y: 5180.27978515625
magnetic_z: 16047.7451171875
---
header: 
  seq: 1754476
  stamp: 
    secs: 1722858791
    nsecs: 398777975
  frame_id: ''
magnetic_x: -9966.9921875
magnetic_y: 5163.423828125
magnetic_z: 16055.3291015625
---
header: 
  seq: 1754477
  stamp: 
    secs: 1722858791
    nsecs: 404777975
  frame_id: ''
magnetic_x: -9966.599609375
magnetic_y: 5147.74365234375
magnetic_z: 16069.232421875
---
header: 
  seq: 1754478
  stamp: 
    secs: 1722858791
    nsecs: 410777975
  frame_id: ''
magnetic_x: -9986.591796875
magnetic_y: 5132.84765625
magnetic_z: 16049.640625
---
header: 
  seq: 1754479
  stamp: 
    secs: 1722858791
    nsecs: 416777975
  frame_id: ''
magnetic_x: -9982.279296875
magnetic_y: 5133.6318359375
magnetic_z: 16011.0888671875
---
header: 
  seq: 1754480
  stamp: 
    secs: 1722858791
    nsecs: 422777975
  frame_id: ''
magnetic_x: -9988.16015625
magnetic_y: 5136.3759765625
magnetic_z: 16000.3447265625
---
header: 
  seq: 1754481
  stamp: 
    secs: 1722858791
    nsecs: 429777975
  frame_id: ''
magnetic_x: -9991.6875
magnetic_y: 5150.8798828125
magnetic_z: 15989.6005859375
---
header: 
  seq: 1754482
  stamp: 
    secs: 1722858791
    nsecs: 435777975
  frame_id: ''
magnetic_x: -9968.9521484375
magnetic_y: 5166.56005859375
magnetic_z: 15990.232421875
---
header: 
  seq: 1754483
  stamp: 
    secs: 1722858791
    nsecs: 441777975
  frame_id: ''
magnetic_x: -9970.51953125
magnetic_y: 5181.84765625
magnetic_z: 16007.296875
---
header: 
  seq: 1754484
  stamp: 
    secs: 1722858791
    nsecs: 447777975
  frame_id: ''
magnetic_x: -9956.7998046875
magnetic_y: 5189.2958984375
magnetic_z: 16061.0166015625
---
header: 
  seq: 1754485
  stamp: 
    secs: 1722858791
    nsecs: 453777975
  frame_id: ''
magnetic_x: -9967.3837890625
magnetic_y: 5178.7119140625
magnetic_z: 16055.3291015625
---
header: 
  seq: 1754486
  stamp: 
    secs: 1722858791
    nsecs: 459777975
  frame_id: ''
magnetic_x: -9963.85546875
magnetic_y: 5160.2880859375
magnetic_z: 16095.7763671875
---
header: 
  seq: 1754487
  stamp: 
    secs: 1722858791
    nsecs: 465777975
  frame_id: ''
magnetic_x: -9982.279296875
magnetic_y: 5140.2958984375
magnetic_z: 16071.12890625
---
header: 
  seq: 1754488
  stamp: 
    secs: 1722858791
    nsecs: 472777975
  frame_id: ''
magnetic_x: -9982.279296875
magnetic_y: 5130.8876953125
magnetic_z: 16052.1689453125
---
header: 
  seq: 1754489
  stamp: 
    secs: 1722858791
    nsecs: 478777975
  frame_id: ''
magnetic_x: -9976.7919921875
magnetic_y: 5128.927734375
magnetic_z: 16014.880859375
---
header: 
  seq: 1754490
  stamp: 
    secs: 1722858791
    nsecs: 483777975
  frame_id: ''
magnetic_x: -9988.5517578125
magnetic_y: 5163.81591796875
magnetic_z: 15982.6484375
---
header: 
  seq: 1754491
  stamp: 
    secs: 1722858791
    nsecs: 489777975
  frame_id: ''
magnetic_x: -9964.6396484375
magnetic_y: 5194.39208984375
magnetic_z: 15983.9130859375
---
header: 
  seq: 1754492
  stamp: 
    secs: 1722858791
    nsecs: 495777975
  frame_id: ''
magnetic_x: -9958.3681640625
magnetic_y: 5195.17578125
magnetic_z: 15995.2890625
---
header: 
  seq: 1754493
  stamp: 
    secs: 1722858791
    nsecs: 501777975
  frame_id: ''
magnetic_x: -9957.9755859375
magnetic_y: 5183.02392578125
magnetic_z: 16050.2724609375
---
header: 
  seq: 1754494
  stamp: 
    secs: 1722858791
    nsecs: 507777975
  frame_id: ''
magnetic_x: -9951.7041015625
magnetic_y: 5168.91162109375
magnetic_z: 16066.705078125
---
header: 
  seq: 1754495
  stamp: 
    secs: 1722858791
    nsecs: 514777975
  frame_id: ''
magnetic_x: -9962.2880859375
magnetic_y: 5155.19189453125
magnetic_z: 16106.5205078125
---
header: 
  seq: 1754496
  stamp: 
    secs: 1722858791
    nsecs: 520777975
  frame_id: ''
magnetic_x: -10179.84765625
magnetic_y: 5183.416015625
magnetic_z: 16159.6083984375
---
header: 
  seq: 1754497
  stamp: 
    secs: 1722858791
    nsecs: 526777975
  frame_id: ''
magnetic_x: -10154.3681640625
magnetic_y: 5144.60791015625
magnetic_z: 16097.041015625
---
header: 
  seq: 1754498
  stamp: 
    secs: 1722858791
    nsecs: 532777975
  frame_id: ''
magnetic_x: -10097.1357421875
magnetic_y: 5223.0078125
magnetic_z: 15986.4404296875
---
header: 
  seq: 1754499
  stamp: 
    secs: 1722858791
    nsecs: 538777975
  frame_id: ''
magnetic_x: -10050.095703125
magnetic_y: 5284.94384765625
magnetic_z: 15979.48828125
---
header: 
  seq: 1754500
  stamp: 
    secs: 1722858791
    nsecs: 544777975
  frame_id: ''
magnetic_x: -10043.0400390625
magnetic_y: 5291.2158203125
magnetic_z: 16088.8251953125
---
header: 
  seq: 1754501
  stamp: 
    secs: 1722858791
    nsecs: 550777975
  frame_id: ''
magnetic_x: -10016.775390625
magnetic_y: 5279.4560546875
magnetic_z: 16059.7529296875
---
header: 
  seq: 1754502
  stamp: 
    secs: 1722858791
    nsecs: 557777975
  frame_id: ''
magnetic_x: -10061.85546875
magnetic_y: 5143.82373046875
magnetic_z: 15985.80859375
---
header: 
  seq: 1754503
  stamp: 
    secs: 1722858791
    nsecs: 563777975
  frame_id: ''
magnetic_x: -10087.7275390625
magnetic_y: 5009.759765625
magnetic_z: 15995.2890625
---
header: 
  seq: 1754504
  stamp: 
    secs: 1722858791
    nsecs: 569777975
  frame_id: ''
magnetic_x: -10053.2314453125
magnetic_y: 5017.99169921875
magnetic_z: 15924.5048828125
---
header: 
  seq: 1754505
  stamp: 
    secs: 1722858791
    nsecs: 575777975
  frame_id: ''
magnetic_x: -10017.16796875
magnetic_y: 5091.68798828125
magnetic_z: 15894.80078125
---
header: 
  seq: 1754506
  stamp: 
    secs: 1722858791
    nsecs: 581777975
  frame_id: ''
magnetic_x: -9946.2158203125
magnetic_y: 5190.4716796875
magnetic_z: 16043.3203125
---
header: 
  seq: 1754507
  stamp: 
    secs: 1722858791
    nsecs: 587777975
  frame_id: ''
magnetic_x: -9885.84765625
magnetic_y: 5288.080078125
magnetic_z: 16109.6806640625
---
header: 
  seq: 1754508
  stamp: 
    secs: 1722858791
    nsecs: 593777975
  frame_id: ''
magnetic_x: -9899.5673828125
magnetic_y: 5276.7119140625
magnetic_z: 16092.6171875
---
header: 
  seq: 1754509
  stamp: 
    secs: 1722858791
    nsecs: 600777975
  frame_id: ''
magnetic_x: -9924.263671875
magnetic_y: 5193.2158203125
magnetic_z: 16088.8251953125
---
header: 
  seq: 1754510
  stamp: 
    secs: 1722858791
    nsecs: 606777975
  frame_id: ''
magnetic_x: -9970.51953125
magnetic_y: 5105.40771484375
magnetic_z: 15999.712890625
---
header: 
  seq: 1754511
  stamp: 
    secs: 1722858791
    nsecs: 612777975
  frame_id: ''
magnetic_x: -9969.7353515625
magnetic_y: 5090.51171875
magnetic_z: 15879.0009765625
---
header: 
  seq: 1754512
  stamp: 
    secs: 1722858791
    nsecs: 618777975
  frame_id: ''
magnetic_x: -9966.9921875
magnetic_y: 5113.248046875
magnetic_z: 15970.0087890625
---
header: 
  seq: 1754513
  stamp: 
    secs: 1722858791
    nsecs: 624777975
  frame_id: ''
magnetic_x: -9974.83203125
magnetic_y: 5120.3037109375
magnetic_z: 16091.984375
---
header: 
  seq: 1754514
  stamp: 
    secs: 1722858791
    nsecs: 630777975
  frame_id: ''
magnetic_x: -9952.8798828125
magnetic_y: 5157.5439453125
magnetic_z: 16128.0087890625
---
header: 
  seq: 1754515
  stamp: 
    secs: 1722858791
    nsecs: 636777975
  frame_id: ''
magnetic_x: -9955.6240234375
magnetic_y: 5158.7197265625
magnetic_z: 16149.4970703125
---
header: 
  seq: 1754516
  stamp: 
    secs: 1722858791
    nsecs: 643777975
  frame_id: ''
magnetic_x: -9951.7041015625
magnetic_y: 5155.19189453125
magnetic_z: 16116.0009765625
---
header: 
  seq: 1754517
  stamp: 
    secs: 1722858791
    nsecs: 649777975
  frame_id: ''
magnetic_x: -9939.5517578125
magnetic_y: 5193.2158203125
magnetic_z: 15964.953125
---
header: 
  seq: 1754518
  stamp: 
    secs: 1722858791
    nsecs: 655777975
  frame_id: ''
magnetic_x: -9910.1513671875
magnetic_y: 5252.015625
magnetic_z: 15924.5048828125
---
header: 
  seq: 1754519
  stamp: 
    secs: 1722858791
    nsecs: 661777975
  frame_id: ''
magnetic_x: -9931.3193359375
magnetic_y: 5223.39990234375
magnetic_z: 16017.4091796875
---
header: 
  seq: 1754520
  stamp: 
    secs: 1722858791
    nsecs: 667777975
  frame_id: ''
magnetic_x: -9941.9033203125
magnetic_y: 5201.83984375
magnetic_z: 16109.048828125
---
header: 
  seq: 1754521
  stamp: 
    secs: 1722858791
    nsecs: 673777975
  frame_id: ''
magnetic_x: -9972.087890625
magnetic_y: 5143.82373046875
magnetic_z: 16172.880859375
---
header: 
  seq: 1754522
  stamp: 
    secs: 1722858791
    nsecs: 679777975
  frame_id: ''
magnetic_x: -10014.03125
magnetic_y: 5060.32763671875
magnetic_z: 16193.736328125
---
header: 
  seq: 1754523
  stamp: 
    secs: 1722858791
    nsecs: 686777975
  frame_id: ''
magnetic_x: -10007.3681640625
magnetic_y: 5081.8876953125
magnetic_z: 16075.552734375
---
header: 
  seq: 1754524
  stamp: 
    secs: 1722858791
    nsecs: 692777975
  frame_id: ''
magnetic_x: -9998.3515625
magnetic_y: 5152.0556640625
magnetic_z: 15913.12890625
---
header: 
  seq: 1754525
  stamp: 
    secs: 1722858791
    nsecs: 698777975
  frame_id: ''
magnetic_x: -9973.6552734375
magnetic_y: 5199.8798828125
magnetic_z: 15869.5205078125
---
header: 
  seq: 1754526
  stamp: 
    secs: 1722858791
    nsecs: 704777975
  frame_id: ''
magnetic_x: -9956.015625
magnetic_y: 5230.4560546875
magnetic_z: 15967.48046875
---
header: 
  seq: 1754527
  stamp: 
    secs: 1722858791
    nsecs: 710777975
  frame_id: ''
magnetic_x: -9947.3916015625
magnetic_y: 5224.57568359375
magnetic_z: 16045.8486328125
---
header: 
  seq: 1754528
  stamp: 
    secs: 1722858791
    nsecs: 716777975
  frame_id: ''
magnetic_x: -9961.8955078125
magnetic_y: 5185.3759765625
magnetic_z: 16182.3603515625
---
header: 
  seq: 1754529
  stamp: 
    secs: 1722858791
    nsecs: 722777975
  frame_id: ''
magnetic_x: -9956.408203125
magnetic_y: 5148.919921875
magnetic_z: 16264.5205078125
---
header: 
  seq: 1754530
  stamp: 
    secs: 1722858791
    nsecs: 729777975
  frame_id: ''
magnetic_x: -9960.328125
magnetic_y: 5157.5439453125
magnetic_z: 16167.1923828125
---
header: 
  seq: 1754531
  stamp: 
    secs: 1722858791
    nsecs: 735777975
  frame_id: ''
magnetic_x: -9974.83203125
magnetic_y: 5168.52001953125
magnetic_z: 15987.072265625
---
header: 
  seq: 1754532
  stamp: 
    secs: 1722858791
    nsecs: 741777975
  frame_id: ''
magnetic_x: -9979.1435546875
magnetic_y: 5141.86376953125
magnetic_z: 15938.4091796875
---
header: 
  seq: 1754533
  stamp: 
    secs: 1722858791
    nsecs: 746777975
  frame_id: ''
magnetic_x: -9988.5517578125
magnetic_y: 5134.416015625
magnetic_z: 15887.8486328125
---
header: 
  seq: 1754534
  stamp: 
    secs: 1722858791
    nsecs: 752777975
  frame_id: ''
magnetic_x: -9985.0234375
magnetic_y: 5139.90380859375
magnetic_z: 15918.81640625
---
header: 
  seq: 1754535
  stamp: 
    secs: 1722858791
    nsecs: 758777975
  frame_id: ''
magnetic_x: -9980.3193359375
magnetic_y: 5146.17578125
magnetic_z: 16104.625
---
header: 
  seq: 1754536
  stamp: 
    secs: 1722858791
    nsecs: 764777975
  frame_id: ''
magnetic_x: -9961.50390625
magnetic_y: 5176.35986328125
magnetic_z: 16157.712890625
---
header: 
  seq: 1754537
  stamp: 
    secs: 1722858791
    nsecs: 771777975
  frame_id: ''
magnetic_x: -9930.1435546875
magnetic_y: 5240.255859375
magnetic_z: 16129.904296875
---
header: 
  seq: 1754538
  stamp: 
    secs: 1722858791
    nsecs: 777777975
  frame_id: ''
magnetic_x: -9925.0478515625
magnetic_y: 5219.47998046875
magnetic_z: 16109.048828125
---
header: 
  seq: 1754539
  stamp: 
    secs: 1722858791
    nsecs: 783777975
  frame_id: ''
magnetic_x: -9938.767578125
magnetic_y: 5172.0478515625
magnetic_z: 16079.9765625
---
header: 
  seq: 1754540
  stamp: 
    secs: 1722858791
    nsecs: 789777975
  frame_id: ''
magnetic_x: -9961.8955078125
magnetic_y: 5164.2080078125
magnetic_z: 16042.056640625
---
header: 
  seq: 1754541
  stamp: 
    secs: 1722858791
    nsecs: 795777975
  frame_id: ''
magnetic_x: -9989.3359375
magnetic_y: 5121.087890625
magnetic_z: 16021.8330078125
---
header: 
  seq: 1754542
  stamp: 
    secs: 1722858791
    nsecs: 801777975
  frame_id: ''
magnetic_x: -9999.1357421875
magnetic_y: 5100.31201171875
magnetic_z: 16051.537109375
---
header: 
  seq: 1754543
  stamp: 
    secs: 1722858791
    nsecs: 807777975
  frame_id: ''
magnetic_x: -9983.0634765625
magnetic_y: 5164.2080078125
magnetic_z: 15995.2890625
---
