header: 
  seq: 1
  stamp: 
    secs: 1722858807
    nsecs: 127366542
  frame_id: ''
twist: 
  linear: 
    x: 0.555539812385498
    y: 0.0811468455624847
    z: 0.0
  angular: 
    x: 0.0
    y: 0.0
    z: 0.0
---
header: 
  seq: 2
  stamp: 
    secs: 1722858807
    nsecs: 149116516
  frame_id: ''
twist: 
  linear: 
    x: 0.5554875852983023
    y: 0.08102447567062027
    z: 0.0
  angular: 
    x: 0.0
    y: 0.0
    z: 0.0
---
header: 
  seq: 3
  stamp: 
    secs: 1722858807
    nsecs: 158851623
  frame_id: ''
twist: 
  linear: 
    x: 0.5555584733747585
    y: 0.08097617665699891
    z: 0.0
  angular: 
    x: 0.0
    y: 0.0
    z: 0.0
---
header: 
  seq: 4
  stamp: 
    secs: 1722858807
    nsecs: 178808689
  frame_id: ''
twist: 
  linear: 
    x: 0.5555509645493755
    y: 0.08090827227452246
    z: 0.0
  angular: 
    x: 0.0
    y: 0.0
    z: 0.0
---
header: 
  seq: 5
  stamp: 
    secs: 1722858807
    nsecs: 188045740
  frame_id: ''
twist: 
  linear: 
    x: 0.5556231877789717
    y: 0.08094166323335064
    z: 0.0
  angular: 
    x: 0.0
    y: 0.0
    z: 0.0
---
header: 
  seq: 6
  stamp: 
    secs: 1722858807
    nsecs: 211262702
  frame_id: ''
twist: 
  linear: 
    x: 0.5556926858614476
    y: 0.08098665131687457
    z: 0.0
  angular: 
    x: 0.0
    y: 0.0
    z: 0.0
---
header: 
  seq: 7
  stamp: 
    secs: 1722858807
    nsecs: 222773551
  frame_id: ''
twist: 
  linear: 
    x: 0.5558873821237145
    y: 0.08113335238302308
    z: 0.0
  angular: 
    x: 0.0
    y: 0.0
    z: 0.0
---
header: 
  seq: 8
  stamp: 
    secs: 1722858807
    nsecs: 231337308
  frame_id: ''
twist: 
  linear: 
    x: 0.5557775208488587
    y: 0.08090947565802266
    z: 0.0
  angular: 
    x: 0.0
    y: 0.0
    z: 0.0
---
header: 
  seq: 9
  stamp: 
    secs: 1722858807
    nsecs: 244367122
  frame_id: ''
twist: 
  linear: 
    x: 0.5557999853819091
    y: 0.08090560886697656
    z: 0.0
  angular: 
    x: 0.0
    y: 0.0
    z: 0.0
---
header: 
  seq: 10
  stamp: 
    secs: 1722858807
    nsecs: 261872291
  frame_id: ''
twist: 
  linear: 
    x: 0.555864954915464
    y: 0.0808603861164428
    z: 0.0
  angular: 
    x: 0.0
    y: 0.0
    z: 0.0
---
header: 
  seq: 11
  stamp: 
    secs: 1722858807
    nsecs: 280342340
  frame_id: ''
twist: 
  linear: 
    x: 0.5560786332428288
    y: 0.08078582034291105
    z: 0.0
  angular: 
    x: 0.0
    y: 0.0
    z: 0.0
---
header: 
  seq: 12
  stamp: 
    secs: 1722858807
    nsecs: 294034004
  frame_id: ''
twist: 
  linear: 
    x: 0.5561019390279691
    y: 0.08077167786754759
    z: 0.0
  angular: 
    x: 0.0
    y: 0.0
    z: 0.0
---
header: 
  seq: 13
  stamp: 
    secs: 1722858807
    nsecs: 307173013
  frame_id: ''
twist: 
  linear: 
    x: 0.5560143787987374
    y: 0.08058644282622329
    z: 0.0
  angular: 
    x: 0.0
    y: 0.0
    z: 0.0
---
header: 
  seq: 14
  stamp: 
    secs: 1722858807
    nsecs: 333849668
  frame_id: ''
twist: 
  linear: 
    x: 0.5561339651993844
    y: 0.08072349735485905
    z: 0.0
  angular: 
    x: 0.0
    y: 0.0
    z: 0.0
---
header: 
  seq: 15
  stamp: 
    secs: 1722858807
    nsecs: 342193841
  frame_id: ''
twist: 
  linear: 
    x: 0.556112543920267
    y: 0.08063808559698107
    z: 0.0
  angular: 
    x: 0.0
    y: 0.0
    z: 0.0
---
header: 
  seq: 16
  stamp: 
    secs: 1722858807
    nsecs: 371367931
  frame_id: ''
twist: 
  linear: 
    x: 0.5563119703420387
    y: 0.08071130093658188
    z: 0.0
  angular: 
    x: 0.0
    y: 0.0
    z: 0.0
---
header: 
  seq: 17
  stamp: 
    secs: 1722858807
    nsecs: 383184671
  frame_id: ''
twist: 
  linear: 
    x: 0.5562436852321438
    y: 0.0805549848349703
    z: 0.0
  angular: 
    x: 0.0
    y: 0.0
    z: 0.0
---
header: 
  seq: 18
  stamp: 
    secs: 1722858807
    nsecs: 406489849
  frame_id: ''
twist: 
  linear: 
    x: 0.5563960828366787
    y: 0.08075879877230667
    z: 0.0
  angular: 
    x: 0.0
    y: 0.0
    z: 0.0
---
header: 
  seq: 19
  stamp: 
    secs: 1722858807
    nsecs: 439195632
  frame_id: ''
twist: 
  linear: 
    x: 0.556652350854665
    y: 0.08050438131929721
    z: 0.0
  angular: 
    x: 0.0
    y: 0.0
    z: 0.0
---
header: 
  seq: 20
  stamp: 
    secs: 1722858807
    nsecs: 456048488
  frame_id: ''
twist: 
  linear: 
    x: 0.5566849436425482
    y: 0.08051009737828309
    z: 0.0
  angular: 
    x: 0.0
    y: 0.0
    z: 0.0
---
header: 
  seq: 21
  stamp: 
    secs: 1722858807
    nsecs: 464919567
  frame_id: ''
twist: 
  linear: 
    x: 0.5566706033542975
    y: 0.08043239157501765
    z: 0.0
  angular: 
    x: 0.0
    y: 0.0
    z: 0.0
---
header: 
  seq: 22
  stamp: 
    secs: 1722858807
    nsecs: 481288671
  frame_id: ''
twist: 
  linear: 
    x: 0.5566674430885108
    y: 0.0803823393741261
    z: 0.0
  angular: 
    x: 0.0
    y: 0.0
    z: 0.0
---
header: 
  seq: 23
  stamp: 
    secs: 1722858807
    nsecs: 502171754
  frame_id: ''
twist: 
  linear: 
    x: 0.5568292895030054
    y: 0.0802987569510788
    z: 0.0
  angular: 
    x: 0.0
    y: 0.0
    z: 0.0
---
header: 
  seq: 24
  stamp: 
    secs: 1722858807
    nsecs: 524520397
  frame_id: ''
twist: 
  linear: 
    x: 0.5567967662650151
    y: 0.08002642937177143
    z: 0.0
  angular: 
    x: 0.0
    y: 0.0
    z: 0.0
---
header: 
  seq: 25
  stamp: 
    secs: 1722858807
    nsecs: 539483785
  frame_id: ''
twist: 
  linear: 
    x: 0.5569834535425491
    y: 0.08024348329194488
    z: 0.0
  angular: 
    x: 0.0
    y: 0.0
    z: 0.0
---
header: 
  seq: 26
  stamp: 
    secs: 1722858807
    nsecs: 562286853
  frame_id: ''
twist: 
  linear: 
    x: 0.5569379191398471
    y: 0.08009776649234081
    z: 0.0
  angular: 
    x: 0.0
    y: 0.0
    z: 0.0
---
header: 
  seq: 27
  stamp: 
    secs: 1722858807
    nsecs: 571885585
  frame_id: ''
twist: 
  linear: 
    x: 0.5570848981779505
    y: 0.08035883082451778
    z: 0.0
  angular: 
    x: 0.0
    y: 0.0
    z: 0.0
---
header: 
  seq: 28
  stamp: 
    secs: 1722858807
    nsecs: 590363740
  frame_id: ''
twist: 
  linear: 
    x: 0.5570384322242624
    y: 0.08001611392220634
    z: 0.0
  angular: 
    x: 0.0
    y: 0.0
    z: 0.0
---
header: 
  seq: 29
  stamp: 
    secs: 1722858807
    nsecs: 608888864
  frame_id: ''
twist: 
  linear: 
    x: 0.5571873454706433
    y: 0.08020263256456807
    z: 0.0
  angular: 
    x: 0.0
    y: 0.0
    z: 0.0
---
header: 
  seq: 30
  stamp: 
    secs: 1722858807
    nsecs: 629064559
  frame_id: ''
twist: 
  linear: 
    x: 0.5570707273461181
    y: 0.07990247562303833
    z: 0.0
  angular: 
    x: 0.0
    y: 0.0
    z: 0.0
---
header: 
  seq: 31
  stamp: 
    secs: 1722858807
    nsecs: 653937339
  frame_id: ''
twist: 
  linear: 
    x: 0.5571120992819695
    y: 0.07994175589799023
    z: 0.0
  angular: 
    x: 0.0
    y: 0.0
    z: 0.0
---
header: 
  seq: 32
  stamp: 
    secs: 1722858807
    nsecs: 659537076
  frame_id: ''
twist: 
  linear: 
    x: 0.5571431627957368
    y: 0.07995907543770184
    z: 0.0
  angular: 
    x: 0.0
    y: 0.0
    z: 0.0
---
header: 
  seq: 33
  stamp: 
    secs: 1722858807
    nsecs: 676017761
  frame_id: ''
twist: 
  linear: 
    x: 0.5571670350165029
    y: 0.07996651019349454
    z: 0.0
  angular: 
    x: 0.0
    y: 0.0
    z: 0.0
---
header: 
  seq: 34
  stamp: 
    secs: 1722858807
    nsecs: 692579507
  frame_id: ''
twist: 
  linear: 
    x: 0.5571950602420467
    y: 0.0799669358394397
    z: 0.0
  angular: 
    x: 0.0
    y: 0.0
    z: 0.0
---
header: 
  seq: 35
  stamp: 
    secs: 1722858807
    nsecs: 703157663
  frame_id: ''
twist: 
  linear: 
    x: 0.5571999319619211
    y: 0.0799234271377554
    z: 0.0
  angular: 
    x: 0.0
    y: 0.0
    z: 0.0
---
header: 
  seq: 36
  stamp: 
    secs: 1722858807
    nsecs: 721250295
  frame_id: ''
twist: 
  linear: 
    x: 0.5572632679585946
    y: 0.08000819071519187
    z: 0.0
  angular: 
    x: 0.0
    y: 0.0
    z: 0.0
---
header: 
  seq: 37
  stamp: 
    secs: 1722858807
    nsecs: 730308055
  frame_id: ''
twist: 
  linear: 
    x: 0.5572114335207866
    y: 0.07983643629676171
    z: 0.0
  angular: 
    x: 0.0
    y: 0.0
    z: 0.0
---
header: 
  seq: 38
  stamp: 
    secs: 1722858807
    nsecs: 746039628
  frame_id: ''
twist: 
  linear: 
    x: 0.5572287418978862
    y: 0.07984514729028173
    z: 0.0
  angular: 
    x: 0.0
    y: 0.0
    z: 0.0
---
header: 
  seq: 39
  stamp: 
    secs: 1722858807
    nsecs: 755020380
  frame_id: ''
twist: 
  linear: 
    x: 0.5572068329625973
    y: 0.07973467963029354
    z: 0.0
  angular: 
    x: 0.0
    y: 0.0
    z: 0.0
---
header: 
  seq: 40
  stamp: 
    secs: 1722858807
    nsecs: 762612819
  frame_id: ''
twist: 
  linear: 
    x: 0.5573322938008364
    y: 0.07996879330151725
    z: 0.0
  angular: 
    x: 0.0
    y: 0.0
    z: 0.0
---
header: 
  seq: 41
  stamp: 
    secs: 1722858807
    nsecs: 792815923
  frame_id: ''
twist: 
  linear: 
    x: 0.5575692328120178
    y: 0.07955862257207126
    z: 0.0
  angular: 
    x: 0.0
    y: 0.0
    z: 0.0
---
header: 
  seq: 42
  stamp: 
    secs: 1722858807
    nsecs: 801595449
  frame_id: ''
twist: 
  linear: 
    x: 0.5575889115223639
    y: 0.07950788442158403
    z: 0.0
  angular: 
    x: 0.0
    y: 0.0
    z: 0.0
---
header: 
  seq: 43
  stamp: 
    secs: 1722858807
    nsecs: 808040380
  frame_id: ''
twist: 
  linear: 
    x: 0.5576002927971301
    y: 0.07949205298298243
    z: 0.0
  angular: 
    x: 0.0
    y: 0.0
    z: 0.0
---
header: 
  seq: 44
  stamp: 
    secs: 1722858807
    nsecs: 828460454
  frame_id: ''
twist: 
  linear: 
    x: 0.5576822485126497
    y: 0.07961609614987203
    z: 0.0
  angular: 
    x: 0.0
    y: 0.0
    z: 0.0
---
header: 
  seq: 45
  stamp: 
    secs: 1722858807
    nsecs: 844976902
  frame_id: ''
twist: 
  linear: 
    x: 0.5576445717824037
    y: 0.07947060824824993
    z: 0.0
  angular: 
    x: 0.0
    y: 0.0
    z: 0.0
---
header: 
  seq: 46
  stamp: 
    secs: 1722858807
    nsecs: 860638141
  frame_id: ''
twist: 
  linear: 
    x: 0.5576577480219271
    y: 0.07945703376694947
    z: 0.0
  angular: 
    x: 0.0
    y: 0.0
    z: 0.0
---
header: 
  seq: 47
  stamp: 
    secs: 1722858807
    nsecs: 875362873
  frame_id: ''
twist: 
  linear: 
    x: 0.5576790976752004
    y: 0.07946453938864256
    z: 0.0
  angular: 
    x: 0.0
    y: 0.0
    z: 0.0
---
header: 
  seq: 48
  stamp: 
    secs: 1722858807
    nsecs: 892992019
  frame_id: ''
twist: 
  linear: 
    x: 0.5576556817139237
    y: 0.07935040284891091
    z: 0.0
  angular: 
    x: 0.0
    y: 0.0
    z: 0.0
---
header: 
  seq: 49
  stamp: 
    secs: 1722858807
    nsecs: 904458522
  frame_id: ''
twist: 
  linear: 
    x: 0.557711413122001
    y: 0.07931209991679436
    z: 0.0
  angular: 
    x: 0.0
    y: 0.0
    z: 0.0
---
header: 
  seq: 50
  stamp: 
    secs: 1722858807
    nsecs: 908825159
  frame_id: ''
twist: 
  linear: 
    x: 0.5577176433642766
    y: 0.07927498267507133
    z: 0.0
  angular: 
    x: 0.0
    y: 0.0
    z: 0.0
---
header: 
  seq: 51
  stamp: 
    secs: 1722858807
    nsecs: 926202058
  frame_id: ''
twist: 
  linear: 
    x: 0.5577153768993376
    y: 0.07911249526164886
    z: 0.0
  angular: 
    x: 0.0
    y: 0.0
    z: 0.0
---
header: 
  seq: 52
  stamp: 
    secs: 1722858807
    nsecs: 940338611
  frame_id: ''
twist: 
  linear: 
    x: 0.557734897546131
    y: 0.07912279302999285
    z: 0.0
  angular: 
    x: 0.0
    y: 0.0
    z: 0.0
---
header: 
  seq: 53
  stamp: 
    secs: 1722858807
    nsecs: 962043762
  frame_id: ''
twist: 
  linear: 
    x: 0.5577935550516036
    y: 0.07924202023944939
    z: 0.0
  angular: 
    x: 0.0
    y: 0.0
    z: 0.0
---
header: 
  seq: 54
  stamp: 
    secs: 1722858807
    nsecs: 970560550
  frame_id: ''
twist: 
  linear: 
    x: 0.5577742469073611
    y: 0.0791295361297156
    z: 0.0
  angular: 
    x: 0.0
    y: 0.0
    z: 0.0
---
header: 
  seq: 55
  stamp: 
    secs: 1722858807
    nsecs: 992525577
  frame_id: ''
twist: 
  linear: 
    x: 0.5578236720997668
    y: 0.07923140897149492
    z: 0.0
  angular: 
    x: 0.0
    y: 0.0
    z: 0.0
---
header: 
  seq: 56
  stamp: 
    secs: 1722858808
    nsecs:   5040407
  frame_id: ''
twist: 
  linear: 
    x: 0.5578569609904187
    y: 0.07928958477825315
    z: 0.0
  angular: 
    x: 0.0
    y: 0.0
    z: 0.0
---
header: 
  seq: 57
  stamp: 
    secs: 1722858808
    nsecs:  12709140
  frame_id: ''
twist: 
  linear: 
    x: 0.5578309063533256
    y: 0.07914924307485954
    z: 0.0
  angular: 
    x: 0.0
    y: 0.0
    z: 0.0
---
header: 
  seq: 58
  stamp: 
    secs: 1722858808
    nsecs:  32577514
  frame_id: ''
twist: 
  linear: 
    x: 0.5578628379273073
    y: 0.07919739713181885
    z: 0.0
  angular: 
    x: 0.0
    y: 0.0
    z: 0.0
---
header: 
  seq: 59
  stamp: 
    secs: 1722858808
    nsecs:  43247222
  frame_id: ''
twist: 
  linear: 
    x: 0.5578981132796932
    y: 0.07925060202178912
    z: 0.0
  angular: 
    x: 0.0
    y: 0.0
    z: 0.0
---
header: 
  seq: 60
  stamp: 
    secs: 1722858808
    nsecs:  67146778
  frame_id: ''
twist: 
  linear: 
    x: 0.5578591013262004
    y: 0.07878629920269804
    z: 0.0
  angular: 
    x: 0.0
    y: 0.0
    z: 0.0
---
header: 
  seq: 61
  stamp: 
    secs: 1722858808
    nsecs:  86799621
  frame_id: ''
twist: 
  linear: 
    x: 0.5579395995738318
    y: 0.07898316184516294
    z: 0.0
  angular: 
    x: 0.0
    y: 0.0
    z: 0.0
---
header: 
  seq: 62
  stamp: 
    secs: 1722858808
    nsecs: 109034538
  frame_id: ''
twist: 
  linear: 
    x: 0.5580609647177491
    y: 0.07863428430621548
    z: 0.0
  angular: 
    x: 0.0
    y: 0.0
    z: 0.0
---
header: 
  seq: 63
  stamp: 
    secs: 1722858808
    nsecs: 126358270
  frame_id: ''
twist: 
  linear: 
    x: 0.5581173415717771
    y: 0.07878652635878117
    z: 0.0
  angular: 
    x: 0.0
    y: 0.0
    z: 0.0
---
header: 
  seq: 64
  stamp: 
    secs: 1722858808
    nsecs: 141529321
  frame_id: ''
twist: 
  linear: 
    x: 0.5580815824023437
    y: 0.07861270639154598
    z: 0.0
  angular: 
    x: 0.0
    y: 0.0
    z: 0.0
---
header: 
  seq: 65
  stamp: 
    secs: 1722858808
    nsecs: 155669689
  frame_id: ''
twist: 
  linear: 
    x: 0.5581129893766859
    y: 0.07865737872810562
    z: 0.0
  angular: 
    x: 0.0
    y: 0.0
    z: 0.0
---
header: 
  seq: 66
  stamp: 
    secs: 1722858808
    nsecs: 171222686
  frame_id: ''
twist: 
  linear: 
    x: 0.5581891437594891
    y: 0.07839697263611783
    z: 0.0
  angular: 
    x: 0.0
    y: 0.0
    z: 0.0
---
header: 
  seq: 67
  stamp: 
    secs: 1722858808
    nsecs: 188840150
  frame_id: ''
twist: 
  linear: 
    x: 0.5582688180025585
    y: 0.07862443635266221
    z: 0.0
  angular: 
    x: 0.0
    y: 0.0
    z: 0.0
---
header: 
  seq: 68
  stamp: 
    secs: 1722858808
    nsecs: 206263780
  frame_id: ''
twist: 
  linear: 
    x: 0.5582135778110814
    y: 0.07825042154989338
    z: 0.0
  angular: 
    x: 0.0
    y: 0.0
    z: 0.0
---
header: 
  seq: 69
  stamp: 
    secs: 1722858808
    nsecs: 217903614
  frame_id: ''
twist: 
  linear: 
    x: 0.5582520282154355
    y: 0.07835500733994842
    z: 0.0
  angular: 
    x: 0.0
    y: 0.0
    z: 0.0
---
header: 
  seq: 70
  stamp: 
    secs: 1722858808
    nsecs: 225741386
  frame_id: ''
twist: 
  linear: 
    x: 0.5582699384812689
    y: 0.07838606231632951
    z: 0.0
  angular: 
    x: 0.0
    y: 0.0
    z: 0.0
---
header: 
  seq: 71
  stamp: 
    secs: 1722858808
    nsecs: 249891519
  frame_id: ''
twist: 
  linear: 
    x: 0.55830981918443
    y: 0.07849234706352273
    z: 0.0
  angular: 
    x: 0.0
    y: 0.0
    z: 0.0
---
header: 
  seq: 72
  stamp: 
    secs: 1722858808
    nsecs: 262045383
  frame_id: ''
twist: 
  linear: 
    x: 0.5583039794918904
    y: 0.07840732818571401
    z: 0.0
  angular: 
    x: 0.0
    y: 0.0
    z: 0.0
---
header: 
  seq: 73
  stamp: 
    secs: 1722858808
    nsecs: 301475524
  frame_id: ''
twist: 
  linear: 
    x: 0.5583618609752914
    y: 0.07809374763133974
    z: 0.0
  angular: 
    x: 0.0
    y: 0.0
    z: 0.0
---
header: 
  seq: 74
  stamp: 
    secs: 1722858808
    nsecs: 325260877
  frame_id: ''
twist: 
  linear: 
    x: 0.5584128895848112
    y: 0.07816551496043797
    z: 0.0
  angular: 
    x: 0.0
    y: 0.0
    z: 0.0
---
header: 
  seq: 75
  stamp: 
    secs: 1722858808
    nsecs: 338510751
  frame_id: ''
twist: 
  linear: 
    x: 0.5584683603701818
    y: 0.07822948492846629
    z: 0.0
  angular: 
    x: 0.0
    y: 0.0
    z: 0.0
---
header: 
  seq: 76
  stamp: 
    secs: 1722858808
    nsecs: 345865011
  frame_id: ''
twist: 
  linear: 
    x: 0.55843011927131
    y: 0.07799128295813183
    z: 0.0
  angular: 
    x: 0.0
    y: 0.0
    z: 0.0
---
header: 
  seq: 77
  stamp: 
    secs: 1722858808
    nsecs: 367157220
  frame_id: ''
twist: 
  linear: 
    x: 0.5584390278461866
    y: 0.07799867102580442
    z: 0.0
  angular: 
    x: 0.0
    y: 0.0
    z: 0.0
---
header: 
  seq: 78
  stamp: 
    secs: 1722858808
    nsecs: 387206315
  frame_id: ''
twist: 
  linear: 
    x: 0.558466996311498
    y: 0.07809241926814178
    z: 0.0
  angular: 
    x: 0.0
    y: 0.0
    z: 0.0
---
header: 
  seq: 79
  stamp: 
    secs: 1722858808
    nsecs: 402890205
  frame_id: ''
twist: 
  linear: 
    x: 0.5584535280517078
    y: 0.07795165654817257
    z: 0.0
  angular: 
    x: 0.0
    y: 0.0
    z: 0.0
---
header: 
  seq: 80
  stamp: 
    secs: 1722858808
    nsecs: 416089057
  frame_id: ''
twist: 
  linear: 
    x: 0.5584310929814714
    y: 0.0778065994695143
    z: 0.0
  angular: 
    x: 0.0
    y: 0.0
    z: 0.0
---
header: 
  seq: 81
  stamp: 
    secs: 1722858808
    nsecs: 426967859
  frame_id: ''
twist: 
  linear: 
    x: 0.5584640932822361
    y: 0.07793961100542972
    z: 0.0
  angular: 
    x: 0.0
    y: 0.0
    z: 0.0
---
header: 
  seq: 82
  stamp: 
    secs: 1722858808
    nsecs: 439781427
  frame_id: ''
twist: 
  linear: 
    x: 0.5584535275554126
    y: 0.07784661233597044
    z: 0.0
  angular: 
    x: 0.0
    y: 0.0
    z: 0.0
---
header: 
  seq: 83
  stamp: 
    secs: 1722858808
    nsecs: 477661132
  frame_id: ''
twist: 
  linear: 
    x: 0.558558797750957
    y: 0.07765540372591273
    z: 0.0
  angular: 
    x: 0.0
    y: 0.0
    z: 0.0
---
header: 
  seq: 84
  stamp: 
    secs: 1722858808
    nsecs: 494147062
  frame_id: ''
twist: 
  linear: 
    x: 0.5585314795784897
    y: 0.07742880570075587
    z: 0.0
  angular: 
    x: 0.0
    y: 0.0
    z: 0.0
---
header: 
  seq: 85
  stamp: 
    secs: 1722858808
    nsecs: 520335197
  frame_id: ''
twist: 
  linear: 
    x: 0.5585731637252835
    y: 0.07747923924022303
    z: 0.0
  angular: 
    x: 0.0
    y: 0.0
    z: 0.0
---
header: 
  seq: 86
  stamp: 
    secs: 1722858808
    nsecs: 526134967
  frame_id: ''
twist: 
  linear: 
    x: 0.5585524872507737
    y: 0.07730899573942472
    z: 0.0
  angular: 
    x: 0.0
    y: 0.0
    z: 0.0
---
header: 
  seq: 87
  stamp: 
    secs: 1722858808
    nsecs: 541500091
  frame_id: ''
twist: 
  linear: 
    x: 0.5586046688041859
    y: 0.07740017025194593
    z: 0.0
  angular: 
    x: 0.0
    y: 0.0
    z: 0.0
---
header: 
  seq: 88
  stamp: 
    secs: 1722858808
    nsecs: 553821325
  frame_id: ''
twist: 
  linear: 
    x: 0.5586118534517989
    y: 0.0773889936073277
    z: 0.0
  angular: 
    x: 0.0
    y: 0.0
    z: 0.0
---
header: 
  seq: 89
  stamp: 
    secs: 1722858808
    nsecs: 566155433
  frame_id: ''
twist: 
  linear: 
    x: 0.5585805929322155
    y: 0.0771311084578519
    z: 0.0
  angular: 
    x: 0.0
    y: 0.0
    z: 0.0
---
header: 
  seq: 90
  stamp: 
    secs: 1722858808
    nsecs: 582679271
  frame_id: ''
twist: 
  linear: 
    x: 0.5586098642952526
    y: 0.07727111019140225
    z: 0.0
  angular: 
    x: 0.0
    y: 0.0
    z: 0.0
---
header: 
  seq: 91
  stamp: 
    secs: 1722858808
    nsecs: 590990066
  frame_id: ''
twist: 
  linear: 
    x: 0.5586027153815031
    y: 0.0771847484925835
    z: 0.0
  angular: 
    x: 0.0
    y: 0.0
    z: 0.0
---
header: 
  seq: 92
  stamp: 
    secs: 1722858808
    nsecs: 615313291
  frame_id: ''
twist: 
  linear: 
    x: 0.5586187312658154
    y: 0.07692233116507875
    z: 0.0
  angular: 
    x: 0.0
    y: 0.0
    z: 0.0
---
header: 
  seq: 93
  stamp: 
    secs: 1722858808
    nsecs: 625847816
  frame_id: ''
twist: 
  linear: 
    x: 0.5586751149008373
    y: 0.07726058769215963
    z: 0.0
  angular: 
    x: 0.0
    y: 0.0
    z: 0.0
---
header: 
  seq: 94
  stamp: 
    secs: 1722858808
    nsecs: 638092279
  frame_id: ''
twist: 
  linear: 
    x: 0.5586620068260977
    y: 0.07712050519873166
    z: 0.0
  angular: 
    x: 0.0
    y: 0.0
    z: 0.0
---
header: 
  seq: 95
  stamp: 
    secs: 1722858808
    nsecs: 650212526
  frame_id: ''
twist: 
  linear: 
    x: 0.558671270457215
    y: 0.07714228160295296
    z: 0.0
  angular: 
    x: 0.0
    y: 0.0
    z: 0.0
---
header: 
  seq: 96
  stamp: 
    secs: 1722858808
    nsecs: 660049200
  frame_id: ''
twist: 
  linear: 
    x: 0.5586840119244302
    y: 0.07718231797806546
    z: 0.0
  angular: 
    x: 0.0
    y: 0.0
    z: 0.0
---
header: 
  seq: 97
  stamp: 
    secs: 1722858808
    nsecs: 671400547
  frame_id: ''
twist: 
  linear: 
    x: 0.5586988629823815
    y: 0.07725407702479367
    z: 0.0
  angular: 
    x: 0.0
    y: 0.0
    z: 0.0
---
header: 
  seq: 98
  stamp: 
    secs: 1722858808
    nsecs: 679454326
  frame_id: ''
twist: 
  linear: 
    x: 0.5586711875284541
    y: 0.07699371936760104
    z: 0.0
  angular: 
    x: 0.0
    y: 0.0
    z: 0.0
---
header: 
  seq: 99
  stamp: 
    secs: 1722858808
    nsecs: 691932201
  frame_id: ''
twist: 
  linear: 
    x: 0.5586826146398276
    y: 0.07702094063348859
    z: 0.0
  angular: 
    x: 0.0
    y: 0.0
    z: 0.0
---
header: 
  seq: 100
  stamp: 
    secs: 1722858808
    nsecs: 709094285
  frame_id: ''
twist: 
  linear: 
    x: 0.5586921655138526
    y: 0.07706911926550533
    z: 0.0
  angular: 
    x: 0.0
    y: 0.0
    z: 0.0
---
header: 
  seq: 101
  stamp: 
    secs: 1722858808
    nsecs: 725255489
  frame_id: ''
twist: 
  linear: 
    x: 0.5587039023101454
    y: 0.0770724514983511
    z: 0.0
  angular: 
    x: 0.0
    y: 0.0
    z: 0.0
---
header: 
  seq: 102
  stamp: 
    secs: 1722858808
    nsecs: 734851360
  frame_id: ''
twist: 
  linear: 
    x: 0.5587032145733839
    y: 0.07702454655034072
    z: 0.0
  angular: 
    x: 0.0
    y: 0.0
    z: 0.0
---
header: 
  seq: 103
  stamp: 
    secs: 1722858808
    nsecs: 757865428
  frame_id: ''
twist: 
  linear: 
    x: 0.5587030204125235
    y: 0.076873628933739
    z: 0.0
  angular: 
    x: 0.0
    y: 0.0
    z: 0.0
---
header: 
  seq: 104
  stamp: 
    secs: 1722858808
    nsecs: 775847434
  frame_id: ''
twist: 
  linear: 
    x: 0.5586957877055215
    y: 0.07681420784157565
    z: 0.0
  angular: 
    x: 0.0
    y: 0.0
    z: 0.0
---
header: 
  seq: 105
  stamp: 
    secs: 1722858808
    nsecs: 784126758
  frame_id: ''
twist: 
  linear: 
    x: 0.558704279952756
    y: 0.07678842710325265
    z: 0.0
  angular: 
    x: 0.0
    y: 0.0
    z: 0.0
---
header: 
  seq: 106
  stamp: 
    secs: 1722858808
    nsecs: 806492328
  frame_id: ''
twist: 
  linear: 
    x: 0.5586754259581894
    y: 0.07609262787669789
    z: 0.0
  angular: 
    x: 0.0
    y: 0.0
    z: 0.0
---
header: 
  seq: 107
  stamp: 
    secs: 1722858808
    nsecs: 819377899
  frame_id: ''
twist: 
  linear: 
    x: 0.5587130272338163
    y: 0.07640013215275565
    z: 0.0
  angular: 
    x: 0.0
    y: 0.0
    z: 0.0
---
header: 
  seq: 108
  stamp: 
    secs: 1722858808
    nsecs: 833260059
  frame_id: ''
twist: 
  linear: 
    x: 0.5587090747579772
    y: 0.07637388573698688
    z: 0.0
  angular: 
    x: 0.0
    y: 0.0
    z: 0.0
---
header: 
  seq: 109
  stamp: 
    secs: 1722858808
    nsecs: 851574182
  frame_id: ''
twist: 
  linear: 
    x: 0.5587274753025576
    y: 0.07629384307886926
    z: 0.0
  angular: 
    x: 0.0
    y: 0.0
    z: 0.0
---
header: 
  seq: 110
  stamp: 
    secs: 1722858808
    nsecs: 857850074
  frame_id: ''
twist: 
  linear: 
    x: 0.5587317307765224
    y: 0.07635318800828497
    z: 0.0
  angular: 
    x: 0.0
    y: 0.0
    z: 0.0
---
header: 
  seq: 111
  stamp: 
    secs: 1722858808
    nsecs: 866008996
  frame_id: ''
twist: 
  linear: 
    x: 0.5587053980856398
    y: 0.07610737542331991
    z: 0.0
  angular: 
    x: 0.0
    y: 0.0
    z: 0.0
---
header: 
  seq: 112
  stamp: 
    secs: 1722858808
    nsecs: 882304191
  frame_id: ''
twist: 
  linear: 
    x: 0.5587170047451255
    y: 0.07619672216873441
    z: 0.0
  angular: 
    x: 0.0
    y: 0.0
    z: 0.0
---
header: 
  seq: 113
  stamp: 
    secs: 1722858808
    nsecs: 891740322
  frame_id: ''
twist: 
  linear: 
    x: 0.5587358471893411
    y: 0.076405612935479
    z: 0.0
  angular: 
    x: 0.0
    y: 0.0
    z: 0.0
---
header: 
  seq: 114
  stamp: 
    secs: 1722858808
    nsecs: 907199382
  frame_id: ''
twist: 
  linear: 
    x: 0.5587267529928605
    y: 0.07632571663560939
    z: 0.0
  angular: 
    x: 0.0
    y: 0.0
    z: 0.0
---
header: 
  seq: 115
  stamp: 
    secs: 1722858808
    nsecs: 921962499
  frame_id: ''
twist: 
  linear: 
    x: 0.5587314810909326
    y: 0.07622192846436664
    z: 0.0
  angular: 
    x: 0.0
    y: 0.0
    z: 0.0
---
header: 
  seq: 116
  stamp: 
    secs: 1722858808
    nsecs: 938301086
  frame_id: ''
twist: 
  linear: 
    x: 0.5587607585571049
    y: 0.07650061510030054
    z: 0.0
  angular: 
    x: 0.0
    y: 0.0
    z: 0.0
---
header: 
  seq: 117
  stamp: 
    secs: 1722858808
    nsecs: 953266620
  frame_id: ''
twist: 
  linear: 
    x: 0.5587315728099039
    y: 0.07620216577542437
    z: 0.0
  angular: 
    x: 0.0
    y: 0.0
    z: 0.0
---
header: 
  seq: 118
  stamp: 
    secs: 1722858808
    nsecs: 969975709
  frame_id: ''
twist: 
  linear: 
    x: 0.5587451800365969
    y: 0.07622623851136139
    z: 0.0
  angular: 
    x: 0.0
    y: 0.0
    z: 0.0
---
header: 
  seq: 119
  stamp: 
    secs: 1722858808
    nsecs: 985179185
  frame_id: ''
twist: 
  linear: 
    x: 0.558728771305396
    y: 0.07607971198283374
    z: 0.0
  angular: 
    x: 0.0
    y: 0.0
    z: 0.0
---
header: 
  seq: 120
  stamp: 
    secs: 1722858808
    nsecs: 990766525
  frame_id: ''
twist: 
  linear: 
    x: 0.5587497685039844
    y: 0.07626011860806288
    z: 0.0
  angular: 
    x: 0.0
    y: 0.0
    z: 0.0
---
header: 
  seq: 121
  stamp: 
    secs: 1722858809
    nsecs:    970840
  frame_id: ''
twist: 
  linear: 
    x: 0.5587181939450823
    y: 0.07596814296538192
    z: 0.0
  angular: 
    x: 0.0
    y: 0.0
    z: 0.0
---
header: 
  seq: 122
  stamp: 
    secs: 1722858809
    nsecs:   8921146
  frame_id: ''
twist: 
  linear: 
    x: 0.558750557310893
    y: 0.07628111252692041
    z: 0.0
  angular: 
    x: 0.0
    y: 0.0
    z: 0.0
---
header: 
  seq: 123
  stamp: 
    secs: 1722858809
    nsecs:  22541522
  frame_id: ''
twist: 
  linear: 
    x: 0.558739899784206
    y: 0.07614819366789585
    z: 0.0
  angular: 
    x: 0.0
    y: 0.0
    z: 0.0
---
header: 
  seq: 124
  stamp: 
    secs: 1722858809
    nsecs:  30428886
  frame_id: ''
twist: 
  linear: 
    x: 0.5587479438021627
    y: 0.07619439046915676
    z: 0.0
  angular: 
    x: 0.0
    y: 0.0
    z: 0.0
---
header: 
  seq: 125
  stamp: 
    secs: 1722858809
    nsecs:  40081262
  frame_id: ''
twist: 
  linear: 
    x: 0.5587658177427445
    y: 0.07638660213741329
    z: 0.0
  angular: 
    x: 0.0
    y: 0.0
    z: 0.0
---
header: 
  seq: 126
  stamp: 
    secs: 1722858809
    nsecs:  47018527
  frame_id: ''
twist: 
  linear: 
    x: 0.5587483129884911
    y: 0.07595884323042564
    z: 0.0
  angular: 
    x: 0.0
    y: 0.0
    z: 0.0
---
header: 
  seq: 127
  stamp: 
    secs: 1722858809
    nsecs:  58149814
  frame_id: ''
twist: 
  linear: 
    x: 0.5587481361563341
    y: 0.07596866889631415
    z: 0.0
  angular: 
    x: 0.0
    y: 0.0
    z: 0.0
---
header: 
  seq: 128
  stamp: 
    secs: 1722858809
    nsecs:  66906213
  frame_id: ''
twist: 
  linear: 
    x: 0.5587653714036052
    y: 0.07614236811310315
    z: 0.0
  angular: 
    x: 0.0
    y: 0.0
    z: 0.0
---
header: 
  seq: 129
  stamp: 
    secs: 1722858809
    nsecs:  80944538
  frame_id: ''
twist: 
  linear: 
    x: 0.558759043929278
    y: 0.0760884202455134
    z: 0.0
  angular: 
    x: 0.0
    y: 0.0
    z: 0.0
---
header: 
  seq: 130
  stamp: 
    secs: 1722858809
    nsecs:  90449810
  frame_id: ''
twist: 
  linear: 
    x: 0.558759976624587
    y: 0.07609572960537185
    z: 0.0
  angular: 
    x: 0.0
    y: 0.0
    z: 0.0
---
header: 
  seq: 131
  stamp: 
    secs: 1722858809
    nsecs: 102882146
  frame_id: ''
twist: 
  linear: 
    x: 0.5587605910090695
    y: 0.07591522031653433
    z: 0.0
  angular: 
    x: 0.0
    y: 0.0
    z: 0.0
---
header: 
  seq: 132
  stamp: 
    secs: 1722858809
    nsecs: 122009277
  frame_id: ''
twist: 
  linear: 
    x: 0.5587395449312149
    y: 0.07537259223049773
    z: 0.0
  angular: 
    x: 0.0
    y: 0.0
    z: 0.0
---
header: 
  seq: 133
  stamp: 
    secs: 1722858809
    nsecs: 140511512
  frame_id: ''
twist: 
  linear: 
    x: 0.5587841353257633
    y: 0.07510594869517057
    z: 0.0
  angular: 
    x: 0.0
    y: 0.0
    z: 0.0
---
header: 
  seq: 134
  stamp: 
    secs: 1722858809
    nsecs: 154709339
  frame_id: ''
twist: 
  linear: 
    x: 0.558765392575344
    y: 0.07489054617591726
    z: 0.0
  angular: 
    x: 0.0
    y: 0.0
    z: 0.0
---
header: 
  seq: 135
  stamp: 
    secs: 1722858809
    nsecs: 170263528
  frame_id: ''
twist: 
  linear: 
    x: 0.5587735706867996
    y: 0.07496364517354863
    z: 0.0
  angular: 
    x: 0.0
    y: 0.0
    z: 0.0
---
header: 
  seq: 136
  stamp: 
    secs: 1722858809
    nsecs: 181922197
  frame_id: ''
twist: 
  linear: 
    x: 0.5587853874914321
    y: 0.0750887076715388
    z: 0.0
  angular: 
    x: 0.0
    y: 0.0
    z: 0.0
---
header: 
  seq: 137
  stamp: 
    secs: 1722858809
    nsecs: 203032732
  frame_id: ''
twist: 
  linear: 
    x: 0.5587767708773022
    y: 0.07498469768414451
    z: 0.0
  angular: 
    x: 0.0
    y: 0.0
    z: 0.0
---
header: 
  seq: 138
  stamp: 
    secs: 1722858809
    nsecs: 221544265
  frame_id: ''
twist: 
  linear: 
    x: 0.5587894639289258
    y: 0.07512784096220236
    z: 0.0
  angular: 
    x: 0.0
    y: 0.0
    z: 0.0
---
header: 
  seq: 139
  stamp: 
    secs: 1722858809
    nsecs: 244849920
  frame_id: ''
twist: 
  linear: 
    x: 0.5587911013405634
    y: 0.07416660258394821
    z: 0.0
  angular: 
    x: 0.0
    y: 0.0
    z: 0.0
---
header: 
  seq: 140
  stamp: 
    secs: 1722858809
    nsecs: 260375022
  frame_id: ''
twist: 
  linear: 
    x: 0.5588193655354383
    y: 0.07454735753277533
    z: 0.0
  angular: 
    x: 0.0
    y: 0.0
    z: 0.0
---
header: 
  seq: 141
  stamp: 
    secs: 1722858809
    nsecs: 287629842
  frame_id: ''
twist: 
  linear: 
    x: 0.5587964819508799
    y: 0.07423035111840767
    z: 0.0
  angular: 
    x: 0.0
    y: 0.0
    z: 0.0
---
header: 
  seq: 142
  stamp: 
    secs: 1722858809
    nsecs: 296255588
  frame_id: ''
twist: 
  linear: 
    x: 0.5587941462907503
    y: 0.07412103583866989
    z: 0.0
  angular: 
    x: 0.0
    y: 0.0
    z: 0.0
---
header: 
  seq: 143
  stamp: 
    secs: 1722858809
    nsecs: 313043355
  frame_id: ''
twist: 
  linear: 
    x: 0.5588009067610674
    y: 0.07420472798954726
    z: 0.0
  angular: 
    x: 0.0
    y: 0.0
    z: 0.0
---
header: 
  seq: 144
  stamp: 
    secs: 1722858809
    nsecs: 326904773
  frame_id: ''
twist: 
  linear: 
    x: 0.5588150191255675
    y: 0.0743645560262713
    z: 0.0
  angular: 
    x: 0.0
    y: 0.0
    z: 0.0
---
header: 
  seq: 145
  stamp: 
    secs: 1722858809
    nsecs: 339787006
  frame_id: ''
twist: 
  linear: 
    x: 0.558800828626287
    y: 0.07417745415254635
    z: 0.0
  angular: 
    x: 0.0
    y: 0.0
    z: 0.0
---
header: 
  seq: 146
  stamp: 
    secs: 1722858809
    nsecs: 355948686
  frame_id: ''
twist: 
  linear: 
    x: 0.5588144462909933
    y: 0.0743422191394254
    z: 0.0
  angular: 
    x: 0.0
    y: 0.0
    z: 0.0
---
header: 
  seq: 147
  stamp: 
    secs: 1722858809
    nsecs: 361392021
  frame_id: ''
twist: 
  linear: 
    x: 0.5588135869604076
    y: 0.07431656559119001
    z: 0.0
  angular: 
    x: 0.0
    y: 0.0
    z: 0.0
---
header: 
  seq: 148
  stamp: 
    secs: 1722858809
    nsecs: 381218194
  frame_id: ''
twist: 
  linear: 
    x: 0.5588191983469675
    y: 0.07436209389803457
    z: 0.0
  angular: 
    x: 0.0
    y: 0.0
    z: 0.0
---
header: 
  seq: 149
  stamp: 
    secs: 1722858809
    nsecs: 404751539
  frame_id: ''
twist: 
  linear: 
    x: 0.5588179178618985
    y: 0.07436077671599262
    z: 0.0
  angular: 
    x: 0.0
    y: 0.0
    z: 0.0
---
header: 
  seq: 150
  stamp: 
    secs: 1722858809
    nsecs: 411198139
  frame_id: ''
twist: 
  linear: 
    x: 0.5588186657172769
    y: 0.07433162225062459
    z: 0.0
  angular: 
    x: 0.0
    y: 0.0
    z: 0.0
---
header: 
  seq: 151
  stamp: 
    secs: 1722858809
    nsecs: 426130294
  frame_id: ''
twist: 
  linear: 
    x: 0.5588238300478809
    y: 0.07440424021601624
    z: 0.0
  angular: 
    x: 0.0
    y: 0.0
    z: 0.0
---
header: 
  seq: 152
  stamp: 
    secs: 1722858809
    nsecs: 439274072
  frame_id: ''
twist: 
  linear: 
    x: 0.5588138129961654
    y: 0.0742379316994332
    z: 0.0
  angular: 
    x: 0.0
    y: 0.0
    z: 0.0
---
header: 
  seq: 153
  stamp: 
    secs: 1722858809
    nsecs: 458331823
  frame_id: ''
twist: 
  linear: 
    x: 0.5588392181760015
    y: 0.07459972881005557
    z: 0.0
  angular: 
    x: 0.0
    y: 0.0
    z: 0.0
---
header: 
  seq: 154
  stamp: 
    secs: 1722858809
    nsecs: 471791505
  frame_id: ''
twist: 
  linear: 
    x: 0.5588296475242408
    y: 0.07445220862741453
    z: 0.0
  angular: 
    x: 0.0
    y: 0.0
    z: 0.0
---
header: 
  seq: 155
  stamp: 
    secs: 1722858809
    nsecs: 478869915
  frame_id: ''
twist: 
  linear: 
    x: 0.5588335408987524
    y: 0.07449176282468306
    z: 0.0
  angular: 
    x: 0.0
    y: 0.0
    z: 0.0
---
header: 
  seq: 156
  stamp: 
    secs: 1722858809
    nsecs: 498243093
  frame_id: ''
twist: 
  linear: 
    x: 0.5588491089409369
    y: 0.07442213972458592
    z: 0.0
  angular: 
    x: 0.0
    y: 0.0
    z: 0.0
---
header: 
  seq: 157
  stamp: 
    secs: 1722858809
    nsecs: 523114919
  frame_id: ''
twist: 
  linear: 
    x: 0.5588527400077185
    y: 0.07427646618494606
    z: 0.0
  angular: 
    x: 0.0
    y: 0.0
    z: 0.0
---
header: 
  seq: 158
  stamp: 
    secs: 1722858809
    nsecs: 544945240
  frame_id: ''
twist: 
  linear: 
    x: 0.55885929394231
    y: 0.07398618733182187
    z: 0.0
  angular: 
    x: 0.0
    y: 0.0
    z: 0.0
---
header: 
  seq: 159
  stamp: 
    secs: 1722858809
    nsecs: 557086467
  frame_id: ''
twist: 
  linear: 
    x: 0.5588579789629852
    y: 0.0739609825844285
    z: 0.0
  angular: 
    x: 0.0
    y: 0.0
    z: 0.0
---
header: 
  seq: 160
  stamp: 
    secs: 1722858809
    nsecs: 578671932
  frame_id: ''
twist: 
  linear: 
    x: 0.5588535533122518
    y: 0.07389303724240212
    z: 0.0
  angular: 
    x: 0.0
    y: 0.0
    z: 0.0
---
header: 
  seq: 161
  stamp: 
    secs: 1722858809
    nsecs: 589867353
  frame_id: ''
twist: 
  linear: 
    x: 0.5588638661844816
    y: 0.07395331311755675
    z: 0.0
  angular: 
    x: 0.0
    y: 0.0
    z: 0.0
---
header: 
  seq: 162
  stamp: 
    secs: 1722858809
    nsecs: 603477478
  frame_id: ''
twist: 
  linear: 
    x: 0.5588688923443406
    y: 0.0740011081423096
    z: 0.0
  angular: 
    x: 0.0
    y: 0.0
    z: 0.0
---
header: 
  seq: 163
  stamp: 
    secs: 1722858809
    nsecs: 611600160
  frame_id: ''
twist: 
  linear: 
    x: 0.558854155708936
    y: 0.07372823480709759
    z: 0.0
  angular: 
    x: 0.0
    y: 0.0
    z: 0.0
---
header: 
  seq: 164
  stamp: 
    secs: 1722858809
    nsecs: 627573490
  frame_id: ''
twist: 
  linear: 
    x: 0.5588513888787069
    y: 0.07368536958314884
    z: 0.0
  angular: 
    x: 0.0
    y: 0.0
    z: 0.0
---
header: 
  seq: 165
  stamp: 
    secs: 1722858809
    nsecs: 638023138
  frame_id: ''
twist: 
  linear: 
    x: 0.5588641859127945
    y: 0.07388008905024843
    z: 0.0
  angular: 
    x: 0.0
    y: 0.0
    z: 0.0
---
header: 
  seq: 166
  stamp: 
    secs: 1722858809
    nsecs: 658689737
  frame_id: ''
twist: 
  linear: 
    x: 0.5588668854926001
    y: 0.07391348511993195
    z: 0.0
  angular: 
    x: 0.0
    y: 0.0
    z: 0.0
---
header: 
  seq: 167
  stamp: 
    secs: 1722858809
    nsecs: 673114061
  frame_id: ''
twist: 
  linear: 
    x: 0.5588770742426691
    y: 0.07415272318926328
    z: 0.0
  angular: 
    x: 0.0
    y: 0.0
    z: 0.0
---
header: 
  seq: 168
  stamp: 
    secs: 1722858809
    nsecs: 688275814
  frame_id: ''
twist: 
  linear: 
    x: 0.5588648135866485
    y: 0.07388084215983948
    z: 0.0
  angular: 
    x: 0.0
    y: 0.0
    z: 0.0
---
header: 
  seq: 169
  stamp: 
    secs: 1722858809
    nsecs: 704128742
  frame_id: ''
twist: 
  linear: 
    x: 0.5588792528670664
    y: 0.07416377256303965
    z: 0.0
  angular: 
    x: 0.0
    y: 0.0
    z: 0.0
---
header: 
  seq: 170
  stamp: 
    secs: 1722858809
    nsecs: 715435504
  frame_id: ''
twist: 
  linear: 
    x: 0.5588719081239589
    y: 0.07401571172282535
    z: 0.0
  angular: 
    x: 0.0
    y: 0.0
    z: 0.0
---
header: 
  seq: 171
  stamp: 
    secs: 1722858809
    nsecs: 741948366
  frame_id: ''
twist: 
  linear: 
    x: 0.5588719689615724
    y: 0.07397595298037088
    z: 0.0
  angular: 
    x: 0.0
    y: 0.0
    z: 0.0
---
header: 
  seq: 172
  stamp: 
    secs: 1722858809
    nsecs: 753596067
  frame_id: ''
twist: 
  linear: 
    x: 0.5588662662477372
    y: 0.07388293265000519
    z: 0.0
  angular: 
    x: 0.0
    y: 0.0
    z: 0.0
---
header: 
  seq: 173
  stamp: 
    secs: 1722858809
    nsecs: 767200946
  frame_id: ''
twist: 
  linear: 
    x: 0.5588845324713184
    y: 0.07422929588694455
    z: 0.0
  angular: 
    x: 0.0
    y: 0.0
    z: 0.0
---
header: 
  seq: 174
  stamp: 
    secs: 1722858809
    nsecs: 778751134
  frame_id: ''
twist: 
  linear: 
    x: 0.5588778683573021
    y: 0.07403230270269211
    z: 0.0
  angular: 
    x: 0.0
    y: 0.0
    z: 0.0
---
header: 
  seq: 175
  stamp: 
    secs: 1722858809
    nsecs: 802582502
  frame_id: ''
twist: 
  linear: 
    x: 0.5588862990587784
    y: 0.07420473477154854
    z: 0.0
  angular: 
    x: 0.0
    y: 0.0
    z: 0.0
---
header: 
  seq: 176
  stamp: 
    secs: 1722858809
    nsecs: 811904668
  frame_id: ''
twist: 
  linear: 
    x: 0.5588834330012653
    y: 0.07412544549024269
    z: 0.0
  angular: 
    x: 0.0
    y: 0.0
    z: 0.0
---
header: 
  seq: 177
  stamp: 
    secs: 1722858809
    nsecs: 830914020
  frame_id: ''
twist: 
  linear: 
    x: 0.5588784276322272
    y: 0.0740252048491937
    z: 0.0
  angular: 
    x: 0.0
    y: 0.0
    z: 0.0
---
header: 
  seq: 178
  stamp: 
    secs: 1722858809
    nsecs: 857808589
  frame_id: ''
twist: 
  linear: 
    x: 0.5588816762240295
    y: 0.07407568604839156
    z: 0.0
  angular: 
    x: 0.0
    y: 0.0
    z: 0.0
---
header: 
  seq: 179
  stamp: 
    secs: 1722858809
    nsecs: 882887125
  frame_id: ''
twist: 
  linear: 
    x: 0.5588810984712901
    y: 0.07335142065045006
    z: 0.0
  angular: 
    x: 0.0
    y: 0.0
    z: 0.0
---
header: 
  seq: 180
  stamp: 
    secs: 1722858809
    nsecs: 893803358
  frame_id: ''
twist: 
  linear: 
    x: 0.5588897548490135
    y: 0.07348297828702019
    z: 0.0
  angular: 
    x: 0.0
    y: 0.0
    z: 0.0
---
header: 
  seq: 181
  stamp: 
    secs: 1722858809
    nsecs: 915283679
  frame_id: ''
twist: 
  linear: 
    x: 0.5588781083544933
    y: 0.07322309599733395
    z: 0.0
  angular: 
    x: 0.0
    y: 0.0
    z: 0.0
---
header: 
  seq: 182
  stamp: 
    secs: 1722858809
    nsecs: 926286220
  frame_id: ''
twist: 
  linear: 
    x: 0.5588892992802488
    y: 0.07346738744146483
    z: 0.0
  angular: 
    x: 0.0
    y: 0.0
    z: 0.0
---
header: 
  seq: 183
  stamp: 
    secs: 1722858809
    nsecs: 937552452
  frame_id: ''
twist: 
  linear: 
    x: 0.5588906681387892
    y: 0.073467778502738
    z: 0.0
  angular: 
    x: 0.0
    y: 0.0
    z: 0.0
---
header: 
  seq: 184
  stamp: 
    secs: 1722858809
    nsecs: 947864770
  frame_id: ''
twist: 
  linear: 
    x: 0.5588895056027922
    y: 0.07345377269552547
    z: 0.0
  angular: 
    x: 0.0
    y: 0.0
    z: 0.0
---
header: 
  seq: 185
  stamp: 
    secs: 1722858809
    nsecs: 955626010
  frame_id: ''
twist: 
  linear: 
    x: 0.5588907034049648
    y: 0.07343667610404601
    z: 0.0
  angular: 
    x: 0.0
    y: 0.0
    z: 0.0
---
header: 
  seq: 186
  stamp: 
    secs: 1722858809
    nsecs: 960082769
  frame_id: ''
twist: 
  linear: 
    x: 0.5588896578325255
    y: 0.0734346485198296
    z: 0.0
  angular: 
    x: 0.0
    y: 0.0
    z: 0.0
---
header: 
  seq: 187
  stamp: 
    secs: 1722858809
    nsecs: 969218015
  frame_id: ''
twist: 
  linear: 
    x: 0.5588897544894693
    y: 0.07346407551756351
    z: 0.0
  angular: 
    x: 0.0
    y: 0.0
    z: 0.0
---
header: 
  seq: 188
  stamp: 
    secs: 1722858809
    nsecs: 974054813
  frame_id: ''
twist: 
  linear: 
    x: 0.5588852216129139
    y: 0.07332851420249556
    z: 0.0
  angular: 
    x: 0.0
    y: 0.0
    z: 0.0
---
header: 
  seq: 189
  stamp: 
    secs: 1722858809
    nsecs: 986486673
  frame_id: ''
twist: 
  linear: 
    x: 0.5588963989311587
    y: 0.07354433992677492
    z: 0.0
  angular: 
    x: 0.0
    y: 0.0
    z: 0.0
---
header: 
  seq: 190
  stamp: 
    secs: 1722858810
    nsecs:  39572954
  frame_id: ''
twist: 
  linear: 
    x: 0.5589920624879029
    y: 0.07198887537743848
    z: 0.0
  angular: 
    x: 0.0
    y: 0.0
    z: 0.0
---
header: 
  seq: 191
  stamp: 
    secs: 1722858810
    nsecs:  48113822
  frame_id: ''
twist: 
  linear: 
    x: 0.5589942677043869
    y: 0.07208262258749072
    z: 0.0
  angular: 
    x: 0.0
    y: 0.0
    z: 0.0
---
header: 
  seq: 192
  stamp: 
    secs: 1722858810
    nsecs:  69922208
  frame_id: ''
twist: 
  linear: 
    x: 0.5589969283080742
    y: 0.07211949297719093
    z: 0.0
  angular: 
    x: 0.0
    y: 0.0
    z: 0.0
---
header: 
  seq: 193
  stamp: 
    secs: 1722858810
    nsecs:  78143596
  frame_id: ''
twist: 
  linear: 
    x: 0.558997720950305
    y: 0.07207501631942294
    z: 0.0
  angular: 
    x: 0.0
    y: 0.0
    z: 0.0
---
header: 
  seq: 194
  stamp: 
    secs: 1722858810
    nsecs:  92315435
  frame_id: ''
twist: 
  linear: 
    x: 0.5589897312218852
    y: 0.07178864117245262
    z: 0.0
  angular: 
    x: 0.0
    y: 0.0
    z: 0.0
---
header: 
  seq: 195
  stamp: 
    secs: 1722858810
    nsecs: 110325336
  frame_id: ''
twist: 
  linear: 
    x: 0.5589964464954429
    y: 0.07196259884086778
    z: 0.0
  angular: 
    x: 0.0
    y: 0.0
    z: 0.0
---
header: 
  seq: 196
  stamp: 
    secs: 1722858810
    nsecs: 121523618
  frame_id: ''
twist: 
  linear: 
    x: 0.558994460068224
    y: 0.07182329793102765
    z: 0.0
  angular: 
    x: 0.0
    y: 0.0
    z: 0.0
---
header: 
  seq: 197
  stamp: 
    secs: 1722858810
    nsecs: 135341882
  frame_id: ''
twist: 
  linear: 
    x: 0.5589999073631016
    y: 0.07191718162903202
    z: 0.0
  angular: 
    x: 0.0
    y: 0.0
    z: 0.0
---
header: 
  seq: 198
  stamp: 
    secs: 1722858810
    nsecs: 154271125
  frame_id: ''
twist: 
  linear: 
    x: 0.558998431948429
    y: 0.07172963299983874
    z: 0.0
  angular: 
    x: 0.0
    y: 0.0
    z: 0.0
---
header: 
  seq: 199
  stamp: 
    secs: 1722858810
    nsecs: 172702550
  frame_id: ''
twist: 
  linear: 
    x: 0.5590103529889243
    y: 0.07184980552418528
    z: 0.0
  angular: 
    x: 0.0
    y: 0.0
    z: 0.0
---
header: 
  seq: 200
  stamp: 
    secs: 1722858810
    nsecs: 193237304
  frame_id: ''
twist: 
  linear: 
    x: 0.5590102640550282
    y: 0.07178179214174354
    z: 0.0
  angular: 
    x: 0.0
    y: 0.0
    z: 0.0
---
header: 
  seq: 201
  stamp: 
    secs: 1722858810
    nsecs: 220239400
  frame_id: ''
twist: 
  linear: 
    x: 0.5590158748582941
    y: 0.07178916869596785
    z: 0.0
  angular: 
    x: 0.0
    y: 0.0
    z: 0.0
---
header: 
  seq: 202
  stamp: 
    secs: 1722858810
    nsecs: 244327783
  frame_id: ''
twist: 
  linear: 
    x: 0.5590166824372046
    y: 0.07157883639125966
    z: 0.0
  angular: 
    x: 0.0
    y: 0.0
    z: 0.0
---
header: 
  seq: 203
  stamp: 
    secs: 1722858810
    nsecs: 258053541
  frame_id: ''
twist: 
  linear: 
    x: 0.559017539559894
    y: 0.0715886301298648
    z: 0.0
  angular: 
    x: 0.0
    y: 0.0
    z: 0.0
---
header: 
  seq: 204
  stamp: 
    secs: 1722858810
    nsecs: 277088165
  frame_id: ''
twist: 
  linear: 
    x: 0.5590002779752911
    y: 0.07111101416358814
    z: 0.0
  angular: 
    x: 0.0
    y: 0.0
    z: 0.0
---
header: 
  seq: 205
  stamp: 
    secs: 1722858810
    nsecs: 290718555
  frame_id: ''
twist: 
  linear: 
    x: 0.5590166078623022
    y: 0.0715572815168315
    z: 0.0
  angular: 
    x: 0.0
    y: 0.0
    z: 0.0
---
header: 
  seq: 206
  stamp: 
    secs: 1722858810
    nsecs: 328583240
  frame_id: ''
twist: 
  linear: 
    x: 0.5590323599513036
    y: 0.0711852592080118
    z: 0.0
  angular: 
    x: 0.0
    y: 0.0
    z: 0.0
---
header: 
  seq: 207
  stamp: 
    secs: 1722858810
    nsecs: 343444824
  frame_id: ''
twist: 
  linear: 
    x: 0.5590116280704613
    y: 0.07065267936715944
    z: 0.0
  angular: 
    x: 0.0
    y: 0.0
    z: 0.0
---
header: 
  seq: 208
  stamp: 
    secs: 1722858810
    nsecs: 362394809
  frame_id: ''
twist: 
  linear: 
    x: 0.5590445385053867
    y: 0.07097661286813767
    z: 0.0
  angular: 
    x: 0.0
    y: 0.0
    z: 0.0
---
header: 
  seq: 209
  stamp: 
    secs: 1722858810
    nsecs: 373557567
  frame_id: ''
twist: 
  linear: 
    x: 0.5590435518256485
    y: 0.0708839207447419
    z: 0.0
  angular: 
    x: 0.0
    y: 0.0
    z: 0.0
---
header: 
  seq: 210
  stamp: 
    secs: 1722858810
    nsecs: 393500328
  frame_id: ''
twist: 
  linear: 
    x: 0.5590536361589442
    y: 0.07100431744165159
    z: 0.0
  angular: 
    x: 0.0
    y: 0.0
    z: 0.0
---
header: 
  seq: 211
  stamp: 
    secs: 1722858810
    nsecs: 429968357
  frame_id: ''
twist: 
  linear: 
    x: 0.5590527029688621
    y: 0.07089336608267854
    z: 0.0
  angular: 
    x: 0.0
    y: 0.0
    z: 0.0
---
header: 
  seq: 212
  stamp: 
    secs: 1722858810
    nsecs: 445131301
  frame_id: ''
twist: 
  linear: 
    x: 0.5590428913786982
    y: 0.07062956980839427
    z: 0.0
  angular: 
    x: 0.0
    y: 0.0
    z: 0.0
---
header: 
  seq: 213
  stamp: 
    secs: 1722858810
    nsecs: 459408044
  frame_id: ''
twist: 
  linear: 
    x: 0.5590477364765953
    y: 0.07070607143279045
    z: 0.0
  angular: 
    x: 0.0
    y: 0.0
    z: 0.0
---
header: 
  seq: 214
  stamp: 
    secs: 1722858810
    nsecs: 476149082
  frame_id: ''
twist: 
  linear: 
    x: 0.5590577884123527
    y: 0.07084895353957646
    z: 0.0
  angular: 
    x: 0.0
    y: 0.0
    z: 0.0
---
header: 
  seq: 215
  stamp: 
    secs: 1722858810
    nsecs: 496001005
  frame_id: ''
twist: 
  linear: 
    x: 0.5590409032436302
    y: 0.07048500456765597
    z: 0.0
  angular: 
    x: 0.0
    y: 0.0
    z: 0.0
---
header: 
  seq: 216
  stamp: 
    secs: 1722858810
    nsecs: 512078285
  frame_id: ''
twist: 
  linear: 
    x: 0.5590439145701928
    y: 0.07050784165438495
    z: 0.0
  angular: 
    x: 0.0
    y: 0.0
    z: 0.0
---
header: 
  seq: 217
  stamp: 
    secs: 1722858810
    nsecs: 584329366
  frame_id: ''
twist: 
  linear: 
    x: 0.5590834937939185
    y: 0.07001586103508473
    z: 0.0
  angular: 
    x: 0.0
    y: 0.0
    z: 0.0
---
header: 
  seq: 218
  stamp: 
    secs: 1722858810
    nsecs: 594936609
  frame_id: ''
twist: 
  linear: 
    x: 0.5590833707233146
    y: 0.06991781281318729
    z: 0.0
  angular: 
    x: 0.0
    y: 0.0
    z: 0.0
---
header: 
  seq: 219
  stamp: 
    secs: 1722858810
    nsecs: 608114004
  frame_id: ''
twist: 
  linear: 
    x: 0.5591074942177794
    y: 0.07014561305134026
    z: 0.0
  angular: 
    x: 0.0
    y: 0.0
    z: 0.0
---
header: 
  seq: 220
  stamp: 
    secs: 1722858810
    nsecs: 629130125
  frame_id: ''
twist: 
  linear: 
    x: 0.5590821992164122
    y: 0.06978888098722603
    z: 0.0
  angular: 
    x: 0.0
    y: 0.0
    z: 0.0
---
header: 
  seq: 221
  stamp: 
    secs: 1722858810
    nsecs: 657154798
  frame_id: ''
twist: 
  linear: 
    x: 0.5590863395965904
    y: 0.06972983184286907
    z: 0.0
  angular: 
    x: 0.0
    y: 0.0
    z: 0.0
---
header: 
  seq: 222
  stamp: 
    secs: 1722858810
    nsecs: 674560070
  frame_id: ''
twist: 
  linear: 
    x: 0.5590980508291156
    y: 0.06982213671804144
    z: 0.0
  angular: 
    x: 0.0
    y: 0.0
    z: 0.0
---
header: 
  seq: 223
  stamp: 
    secs: 1722858810
    nsecs: 692984104
  frame_id: ''
twist: 
  linear: 
    x: 0.559092503675244
    y: 0.06965643552750746
    z: 0.0
  angular: 
    x: 0.0
    y: 0.0
    z: 0.0
---
header: 
  seq: 224
  stamp: 
    secs: 1722858810
    nsecs: 708415746
  frame_id: ''
twist: 
  linear: 
    x: 0.559084428111629
    y: 0.06947430014672873
    z: 0.0
  angular: 
    x: 0.0
    y: 0.0
    z: 0.0
---
header: 
  seq: 225
  stamp: 
    secs: 1722858810
    nsecs: 745495796
  frame_id: ''
twist: 
  linear: 
    x: 0.5591238001849803
    y: 0.06926297472741083
    z: 0.0
  angular: 
    x: 0.0
    y: 0.0
    z: 0.0
---
header: 
  seq: 226
  stamp: 
    secs: 1722858810
    nsecs: 762489080
  frame_id: ''
twist: 
  linear: 
    x: 0.5591351535306778
    y: 0.06916957969301601
    z: 0.0
  angular: 
    x: 0.0
    y: 0.0
    z: 0.0
---
header: 
  seq: 227
  stamp: 
    secs: 1722858810
    nsecs: 779053926
  frame_id: ''
twist: 
  linear: 
    x: 0.5591311189199263
    y: 0.06899140817455318
    z: 0.0
  angular: 
    x: 0.0
    y: 0.0
    z: 0.0
---
header: 
  seq: 228
  stamp: 
    secs: 1722858810
    nsecs: 793448925
  frame_id: ''
twist: 
  linear: 
    x: 0.5591204280831618
    y: 0.06882888678623661
    z: 0.0
  angular: 
    x: 0.0
    y: 0.0
    z: 0.0
---
header: 
  seq: 229
  stamp: 
    secs: 1722858810
    nsecs: 808634281
  frame_id: ''
twist: 
  linear: 
    x: 0.5591585922455194
    y: 0.06918284314344998
    z: 0.0
  angular: 
    x: 0.0
    y: 0.0
    z: 0.0
---
header: 
  seq: 230
  stamp: 
    secs: 1722858810
    nsecs: 824561119
  frame_id: ''
twist: 
  linear: 
    x: 0.55912089560126
    y: 0.06874807983745168
    z: 0.0
  angular: 
    x: 0.0
    y: 0.0
    z: 0.0
---
header: 
  seq: 231
  stamp: 
    secs: 1722858810
    nsecs: 860773801
  frame_id: ''
twist: 
  linear: 
    x: 0.5591492882919659
    y: 0.06866596023565262
    z: 0.0
  angular: 
    x: 0.0
    y: 0.0
    z: 0.0
---
header: 
  seq: 232
  stamp: 
    secs: 1722858810
    nsecs: 876003265
  frame_id: ''
twist: 
  linear: 
    x: 0.559178508021766
    y: 0.06889360752329031
    z: 0.0
  angular: 
    x: 0.0
    y: 0.0
    z: 0.0
---
header: 
  seq: 233
  stamp: 
    secs: 1722858810
    nsecs: 891335725
  frame_id: ''
twist: 
  linear: 
    x: 0.5591793248391934
    y: 0.06883770101994936
    z: 0.0
  angular: 
    x: 0.0
    y: 0.0
    z: 0.0
---
header: 
  seq: 234
  stamp: 
    secs: 1722858810
    nsecs: 905344724
  frame_id: ''
twist: 
  linear: 
    x: 0.5591518424351365
    y: 0.06849895102723719
    z: 0.0
  angular: 
    x: 0.0
    y: 0.0
    z: 0.0
---
header: 
  seq: 235
  stamp: 
    secs: 1722858810
    nsecs: 930790424
  frame_id: ''
twist: 
  linear: 
    x: 0.5591871467617572
    y: 0.0684119242287558
    z: 0.0
  angular: 
    x: 0.0
    y: 0.0
    z: 0.0
---
header: 
  seq: 236
  stamp: 
    secs: 1722858810
    nsecs: 962389945
  frame_id: ''
twist: 
  linear: 
    x: 0.559195832349834
    y: 0.06825209833580845
    z: 0.0
  angular: 
    x: 0.0
    y: 0.0
    z: 0.0
---
header: 
  seq: 237
  stamp: 
    secs: 1722858810
    nsecs: 976580619
  frame_id: ''
twist: 
  linear: 
    x: 0.5591928226305062
    y: 0.06814579818607708
    z: 0.0
  angular: 
    x: 0.0
    y: 0.0
    z: 0.0
---
header: 
  seq: 238
  stamp: 
    secs: 1722858810
    nsecs: 989938974
  frame_id: ''
twist: 
  linear: 
    x: 0.559223220589167
    y: 0.06837151297162566
    z: 0.0
  angular: 
    x: 0.0
    y: 0.0
    z: 0.0
---
header: 
  seq: 239
  stamp: 
    secs: 1722858811
    nsecs:   7192373
  frame_id: ''
twist: 
  linear: 
    x: 0.5592425214452486
    y: 0.06848396816124266
    z: 0.0
  angular: 
    x: 0.0
    y: 0.0
    z: 0.0
---
header: 
  seq: 240
  stamp: 
    secs: 1722858811
    nsecs:  27620792
  frame_id: ''
twist: 
  linear: 
    x: 0.5592065262937156
    y: 0.06793603741544049
    z: 0.0
  angular: 
    x: 0.0
    y: 0.0
    z: 0.0
---
header: 
  seq: 241
  stamp: 
    secs: 1722858811
    nsecs:  50582408
  frame_id: ''
twist: 
  linear: 
    x: 0.5592198185206565
    y: 0.06799341600431463
    z: 0.0
  angular: 
    x: 0.0
    y: 0.0
    z: 0.0
---
header: 
  seq: 242
  stamp: 
    secs: 1722858811
    nsecs:  79227447
  frame_id: ''
twist: 
  linear: 
    x: 0.5592719164759958
    y: 0.06793625121276023
    z: 0.0
  angular: 
    x: 0.0
    y: 0.0
    z: 0.0
---
header: 
  seq: 243
  stamp: 
    secs: 1722858811
    nsecs:  96345901
  frame_id: ''
twist: 
  linear: 
    x: 0.5592491138406246
    y: 0.06758416053594526
    z: 0.0
  angular: 
    x: 0.0
    y: 0.0
    z: 0.0
---
header: 
  seq: 244
  stamp: 
    secs: 1722858811
    nsecs: 115972280
  frame_id: ''
twist: 
  linear: 
    x: 0.5592656387320063
    y: 0.06767522509500225
    z: 0.0
  angular: 
    x: 0.0
    y: 0.0
    z: 0.0
---
header: 
  seq: 245
  stamp: 
    secs: 1722858811
    nsecs: 126210212
  frame_id: ''
twist: 
  linear: 
    x: 0.5592714647248439
    y: 0.0676664989462797
    z: 0.0
  angular: 
    x: 0.0
    y: 0.0
    z: 0.0
---
header: 
  seq: 246
  stamp: 
    secs: 1722858811
    nsecs: 146072626
  frame_id: ''
twist: 
  linear: 
    x: 0.5592954279580551
    y: 0.06778026455723889
    z: 0.0
  angular: 
    x: 0.0
    y: 0.0
    z: 0.0
---
header: 
  seq: 247
  stamp: 
    secs: 1722858811
    nsecs: 160237789
  frame_id: ''
twist: 
  linear: 
    x: 0.559244457052086
    y: 0.06733542852712676
    z: 0.0
  angular: 
    x: 0.0
    y: 0.0
    z: 0.0
---
header: 
  seq: 248
  stamp: 
    secs: 1722858811
    nsecs: 182204961
  frame_id: ''
twist: 
  linear: 
    x: 0.5592926758710579
    y: 0.06764223216117736
    z: 0.0
  angular: 
    x: 0.0
    y: 0.0
    z: 0.0
---
header: 
  seq: 249
  stamp: 
    secs: 1722858811
    nsecs: 193069219
  frame_id: ''
twist: 
  linear: 
    x: 0.5592812098482934
    y: 0.06747762019194578
    z: 0.0
  angular: 
    x: 0.0
    y: 0.0
    z: 0.0
---
header: 
  seq: 250
  stamp: 
    secs: 1722858811
    nsecs: 222368717
  frame_id: ''
twist: 
  linear: 
    x: 0.5593283111650519
    y: 0.06716497407210126
    z: 0.0
  angular: 
    x: 0.0
    y: 0.0
    z: 0.0
---
header: 
  seq: 251
  stamp: 
    secs: 1722858811
    nsecs: 238327741
  frame_id: ''
twist: 
  linear: 
    x: 0.5593343541772039
    y: 0.06713991294257828
    z: 0.0
  angular: 
    x: 0.0
    y: 0.0
    z: 0.0
---
header: 
  seq: 252
  stamp: 
    secs: 1722858811
    nsecs: 261972665
  frame_id: ''
twist: 
  linear: 
    x: 0.55926924378706
    y: 0.06664704538330839
    z: 0.0
  angular: 
    x: 0.0
    y: 0.0
    z: 0.0
---
header: 
  seq: 253
  stamp: 
    secs: 1722858811
    nsecs: 277236700
  frame_id: ''
twist: 
  linear: 
    x: 0.5593566130283499
    y: 0.06720059307815318
    z: 0.0
  angular: 
    x: 0.0
    y: 0.0
    z: 0.0
---
header: 
  seq: 254
  stamp: 
    secs: 1722858811
    nsecs: 298413276
  frame_id: ''
twist: 
  linear: 
    x: 0.5593240775753645
    y: 0.06693911325782151
    z: 0.0
  angular: 
    x: 0.0
    y: 0.0
    z: 0.0
---
header: 
  seq: 255
  stamp: 
    secs: 1722858811
    nsecs: 310029029
  frame_id: ''
twist: 
  linear: 
    x: 0.5593461820601813
    y: 0.06704323556006836
    z: 0.0
  angular: 
    x: 0.0
    y: 0.0
    z: 0.0
---
header: 
  seq: 256
  stamp: 
    secs: 1722858811
    nsecs: 332227230
  frame_id: ''
twist: 
  linear: 
    x: 0.5593996319419435
    y: 0.0670954603846214
    z: 0.0
  angular: 
    x: 0.0
    y: 0.0
    z: 0.0
---
header: 
  seq: 257
  stamp: 
    secs: 1722858811
    nsecs: 357076406
  frame_id: ''
twist: 
  linear: 
    x: 0.5593817511989542
    y: 0.06638522775227193
    z: 0.0
  angular: 
    x: 0.0
    y: 0.0
    z: 0.0
---
header: 
  seq: 258
  stamp: 
    secs: 1722858811
    nsecs: 373731374
  frame_id: ''
twist: 
  linear: 
    x: 0.5594338907649863
    y: 0.06663211702740189
    z: 0.0
  angular: 
    x: 0.0
    y: 0.0
    z: 0.0
---
header: 
  seq: 259
  stamp: 
    secs: 1722858811
    nsecs: 382438182
  frame_id: ''
twist: 
  linear: 
    x: 0.5594023602958632
    y: 0.0664115337376458
    z: 0.0
  angular: 
    x: 0.0
    y: 0.0
    z: 0.0
---
header: 
  seq: 260
  stamp: 
    secs: 1722858811
    nsecs: 412573099
  frame_id: ''
twist: 
  linear: 
    x: 0.5594032368112215
    y: 0.06607778981062876
    z: 0.0
  angular: 
    x: 0.0
    y: 0.0
    z: 0.0
---
header: 
  seq: 261
  stamp: 
    secs: 1722858811
    nsecs: 435227155
  frame_id: ''
twist: 
  linear: 
    x: 0.5594408125006223
    y: 0.06623225978559416
    z: 0.0
  angular: 
    x: 0.0
    y: 0.0
    z: 0.0
---
header: 
  seq: 262
  stamp: 
    secs: 1722858811
    nsecs: 446978330
  frame_id: ''
twist: 
  linear: 
    x: 0.5594674008063059
    y: 0.06634064934387514
    z: 0.0
  angular: 
    x: 0.0
    y: 0.0
    z: 0.0
---
header: 
  seq: 263
  stamp: 
    secs: 1722858811
    nsecs: 479425430
  frame_id: ''
twist: 
  linear: 
    x: 0.5594653890600443
    y: 0.06586464442684765
    z: 0.0
  angular: 
    x: 0.0
    y: 0.0
    z: 0.0
---
header: 
  seq: 264
  stamp: 
    secs: 1722858811
    nsecs: 496221065
  frame_id: ''
twist: 
  linear: 
    x: 0.5594481408006788
    y: 0.06561090817804718
    z: 0.0
  angular: 
    x: 0.0
    y: 0.0
    z: 0.0
---
header: 
  seq: 265
  stamp: 
    secs: 1722858811
    nsecs: 513123512
  frame_id: ''
twist: 
  linear: 
    x: 0.5594965018091678
    y: 0.06582057897369567
    z: 0.0
  angular: 
    x: 0.0
    y: 0.0
    z: 0.0
---
header: 
  seq: 266
  stamp: 
    secs: 1722858811
    nsecs: 530213832
  frame_id: ''
twist: 
  linear: 
    x: 0.5594653033028241
    y: 0.06561587689601325
    z: 0.0
  angular: 
    x: 0.0
    y: 0.0
    z: 0.0
---
header: 
  seq: 267
  stamp: 
    secs: 1722858811
    nsecs: 557926416
  frame_id: ''
twist: 
  linear: 
    x: 0.5595504497803396
    y: 0.06598487709132658
    z: 0.0
  angular: 
    x: 0.0
    y: 0.0
    z: 0.0
---
header: 
  seq: 268
  stamp: 
    secs: 1722858811
    nsecs: 566283941
  frame_id: ''
twist: 
  linear: 
    x: 0.5594937452262863
    y: 0.06564196642615983
    z: 0.0
  angular: 
    x: 0.0
    y: 0.0
    z: 0.0
---
header: 
  seq: 269
  stamp: 
    secs: 1722858811
    nsecs: 593666315
  frame_id: ''
twist: 
  linear: 
    x: 0.559499665120649
    y: 0.06563312814973528
    z: 0.0
  angular: 
    x: 0.0
    y: 0.0
    z: 0.0
---
header: 
  seq: 270
  stamp: 
    secs: 1722858811
    nsecs: 600343704
  frame_id: ''
twist: 
  linear: 
    x: 0.5595473300987228
    y: 0.06582546089705435
    z: 0.0
  angular: 
    x: 0.0
    y: 0.0
    z: 0.0
---
header: 
  seq: 271
  stamp: 
    secs: 1722858811
    nsecs: 620842218
  frame_id: ''
twist: 
  linear: 
    x: 0.5595023770695172
    y: 0.06554256626194321
    z: 0.0
  angular: 
    x: 0.0
    y: 0.0
    z: 0.0
---
header: 
  seq: 272
  stamp: 
    secs: 1722858811
    nsecs: 634330987
  frame_id: ''
twist: 
  linear: 
    x: 0.5595257570116019
    y: 0.06561089906971176
    z: 0.0
  angular: 
    x: 0.0
    y: 0.0
    z: 0.0
---
header: 
  seq: 273
  stamp: 
    secs: 1722858811
    nsecs: 647790193
  frame_id: ''
twist: 
  linear: 
    x: 0.5594573696864346
    y: 0.06520493087069451
    z: 0.0
  angular: 
    x: 0.0
    y: 0.0
    z: 0.0
---
header: 
  seq: 274
  stamp: 
    secs: 1722858811
    nsecs: 659085750
  frame_id: ''
twist: 
  linear: 
    x: 0.5595732234043814
    y: 0.06574706241102879
    z: 0.0
  angular: 
    x: 0.0
    y: 0.0
    z: 0.0
---
header: 
  seq: 275
  stamp: 
    secs: 1722858811
    nsecs: 676256418
  frame_id: ''
twist: 
  linear: 
    x: 0.5595515811258949
    y: 0.06557048425482763
    z: 0.0
