header: 
  seq: 1
  stamp: 
    secs: 1722858647
    nsecs:  79314470
  frame_id: ''
twist: 
  linear: 
    x: 0.5555608653424836
    y: 0.0813535940868818
    z: 0.0
  angular: 
    x: 0.0
    y: 0.0
    z: 0.0
---
header: 
  seq: 2
  stamp: 
    secs: 1722858647
    nsecs:  94307661
  frame_id: ''
twist: 
  linear: 
    x: 0.5555703424201538
    y: 0.08131321482867458
    z: 0.0
  angular: 
    x: 0.0
    y: 0.0
    z: 0.0
---
header: 
  seq: 3
  stamp: 
    secs: 1722858647
    nsecs: 103071689
  frame_id: ''
twist: 
  linear: 
    x: 0.5555408794360416
    y: 0.08122351769575162
    z: 0.0
  angular: 
    x: 0.0
    y: 0.0
    z: 0.0
---
header: 
  seq: 4
  stamp: 
    secs: 1722858647
    nsecs: 113766908
  frame_id: ''
twist: 
  linear: 
    x: 0.5556926925011347
    y: 0.08139738631142351
    z: 0.0
  angular: 
    x: 0.0
    y: 0.0
    z: 0.0
---
header: 
  seq: 5
  stamp: 
    secs: 1722858647
    nsecs: 131420612
  frame_id: ''
twist: 
  linear: 
    x: 0.5555922991992628
    y: 0.08120391190523207
    z: 0.0
  angular: 
    x: 0.0
    y: 0.0
    z: 0.0
---
header: 
  seq: 6
  stamp: 
    secs: 1722858647
    nsecs: 144207000
  frame_id: ''
twist: 
  linear: 
    x: 0.5556980446305761
    y: 0.08131510951311989
    z: 0.0
  angular: 
    x: 0.0
    y: 0.0
    z: 0.0
---
header: 
  seq: 7
  stamp: 
    secs: 1722858647
    nsecs: 161303758
  frame_id: ''
twist: 
  linear: 
    x: 0.5557399901116542
    y: 0.08132123971657386
    z: 0.0
  angular: 
    x: 0.0
    y: 0.0
    z: 0.0
---
header: 
  seq: 8
  stamp: 
    secs: 1722858647
    nsecs: 182732582
  frame_id: ''
twist: 
  linear: 
    x: 0.5559203286922632
    y: 0.08098002421129417
    z: 0.0
  angular: 
    x: 0.0
    y: 0.0
    z: 0.0
---
header: 
  seq: 9
  stamp: 
    secs: 1722858647
    nsecs: 198986053
  frame_id: ''
twist: 
  linear: 
    x: 0.5560016672084243
    y: 0.0810429004713062
    z: 0.0
  angular: 
    x: 0.0
    y: 0.0
    z: 0.0
---
header: 
  seq: 10
  stamp: 
    secs: 1722858647
    nsecs: 224614143
  frame_id: ''
twist: 
  linear: 
    x: 0.5560578527971283
    y: 0.08108462530380099
    z: 0.0
  angular: 
    x: 0.0
    y: 0.0
    z: 0.0
---
header: 
  seq: 11
  stamp: 
    secs: 1722858647
    nsecs: 235403776
  frame_id: ''
twist: 
  linear: 
    x: 0.5560952348792333
    y: 0.08109784174980617
    z: 0.0
  angular: 
    x: 0.0
    y: 0.0
    z: 0.0
---
header: 
  seq: 12
  stamp: 
    secs: 1722858647
    nsecs: 247727394
  frame_id: ''
twist: 
  linear: 
    x: 0.5560515734025342
    y: 0.08098223451647271
    z: 0.0
  angular: 
    x: 0.0
    y: 0.0
    z: 0.0
---
header: 
  seq: 13
  stamp: 
    secs: 1722858647
    nsecs: 261665105
  frame_id: ''
twist: 
  linear: 
    x: 0.5560180848738149
    y: 0.08088450271439737
    z: 0.0
  angular: 
    x: 0.0
    y: 0.0
    z: 0.0
---
header: 
  seq: 14
  stamp: 
    secs: 1722858647
    nsecs: 279324769
  frame_id: ''
twist: 
  linear: 
    x: 0.5561539374712997
    y: 0.0808625738289578
    z: 0.0
  angular: 
    x: 0.0
    y: 0.0
    z: 0.0
---
header: 
  seq: 15
  stamp: 
    secs: 1722858647
    nsecs: 302079200
  frame_id: ''
twist: 
  linear: 
    x: 0.5563237422699865
    y: 0.08072690934149754
    z: 0.0
  angular: 
    x: 0.0
    y: 0.0
    z: 0.0
---
header: 
  seq: 16
  stamp: 
    secs: 1722858647
    nsecs: 313118696
  frame_id: ''
twist: 
  linear: 
    x: 0.5562500812678567
    y: 0.08054808232726862
    z: 0.0
  angular: 
    x: 0.0
    y: 0.0
    z: 0.0
---
header: 
  seq: 17
  stamp: 
    secs: 1722858647
    nsecs: 341483831
  frame_id: ''
twist: 
  linear: 
    x: 0.5564146257451739
    y: 0.08052586772290639
    z: 0.0
  angular: 
    x: 0.0
    y: 0.0
    z: 0.0
---
header: 
  seq: 18
  stamp: 
    secs: 1722858647
    nsecs: 361310720
  frame_id: ''
twist: 
  linear: 
    x: 0.5566099174849608
    y: 0.08077409918267811
    z: 0.0
  angular: 
    x: 0.0
    y: 0.0
    z: 0.0
---
header: 
  seq: 19
  stamp: 
    secs: 1722858647
    nsecs: 379416942
  frame_id: ''
twist: 
  linear: 
    x: 0.5566301165337323
    y: 0.080562866306699
    z: 0.0
  angular: 
    x: 0.0
    y: 0.0
    z: 0.0
---
header: 
  seq: 20
  stamp: 
    secs: 1722858647
    nsecs: 403428316
  frame_id: ''
twist: 
  linear: 
    x: 0.556697015907355
    y: 0.08046248974917232
    z: 0.0
  angular: 
    x: 0.0
    y: 0.0
    z: 0.0
---
header: 
  seq: 21
  stamp: 
    secs: 1722858647
    nsecs: 415201187
  frame_id: ''
twist: 
  linear: 
    x: 0.556702874343799
    y: 0.08042235151893504
    z: 0.0
  angular: 
    x: 0.0
    y: 0.0
    z: 0.0
---
header: 
  seq: 22
  stamp: 
    secs: 1722858647
    nsecs: 431896924
  frame_id: ''
twist: 
  linear: 
    x: 0.5568267913796578
    y: 0.08043652455861813
    z: 0.0
  angular: 
    x: 0.0
    y: 0.0
    z: 0.0
---
header: 
  seq: 23
  stamp: 
    secs: 1722858647
    nsecs: 449485540
  frame_id: ''
twist: 
  linear: 
    x: 0.5568785444124783
    y: 0.08047933318347798
    z: 0.0
  angular: 
    x: 0.0
    y: 0.0
    z: 0.0
---
header: 
  seq: 24
  stamp: 
    secs: 1722858647
    nsecs: 469355106
  frame_id: ''
twist: 
  linear: 
    x: 0.5568199454655604
    y: 0.08032080310875526
    z: 0.0
  angular: 
    x: 0.0
    y: 0.0
    z: 0.0
---
header: 
  seq: 25
  stamp: 
    secs: 1722858647
    nsecs: 480173587
  frame_id: ''
twist: 
  linear: 
    x: 0.5569814729003428
    y: 0.08059336112579865
    z: 0.0
  angular: 
    x: 0.0
    y: 0.0
    z: 0.0
---
header: 
  seq: 26
  stamp: 
    secs: 1722858647
    nsecs: 495794773
  frame_id: ''
twist: 
  linear: 
    x: 0.5569024942224721
    y: 0.08038988201033469
    z: 0.0
  angular: 
    x: 0.0
    y: 0.0
    z: 0.0
---
header: 
  seq: 27
  stamp: 
    secs: 1722858647
    nsecs: 516463518
  frame_id: ''
twist: 
  linear: 
    x: 0.5569625987484617
    y: 0.08011498199353365
    z: 0.0
  angular: 
    x: 0.0
    y: 0.0
    z: 0.0
---
header: 
  seq: 28
  stamp: 
    secs: 1722858647
    nsecs: 531547307
  frame_id: ''
twist: 
  linear: 
    x: 0.5570643363744696
    y: 0.08027115394498734
    z: 0.0
  angular: 
    x: 0.0
    y: 0.0
    z: 0.0
---
header: 
  seq: 29
  stamp: 
    secs: 1722858647
    nsecs: 547105073
  frame_id: ''
twist: 
  linear: 
    x: 0.5570740665774255
    y: 0.08023888647747525
    z: 0.0
  angular: 
    x: 0.0
    y: 0.0
    z: 0.0
---
header: 
  seq: 30
  stamp: 
    secs: 1722858647
    nsecs: 561950445
  frame_id: ''
twist: 
  linear: 
    x: 0.5570923840967525
    y: 0.08022565906529297
    z: 0.0
  angular: 
    x: 0.0
    y: 0.0
    z: 0.0
---
header: 
  seq: 31
  stamp: 
    secs: 1722858647
    nsecs: 574546575
  frame_id: ''
twist: 
  linear: 
    x: 0.5570397528611917
    y: 0.080069760691657
    z: 0.0
  angular: 
    x: 0.0
    y: 0.0
    z: 0.0
---
header: 
  seq: 32
  stamp: 
    secs: 1722858647
    nsecs: 596389532
  frame_id: ''
twist: 
  linear: 
    x: 0.557187249869621
    y: 0.07994246285221185
    z: 0.0
  angular: 
    x: 0.0
    y: 0.0
    z: 0.0
---
header: 
  seq: 33
  stamp: 
    secs: 1722858647
    nsecs: 614590883
  frame_id: ''
twist: 
  linear: 
    x: 0.557207505927052
    y: 0.07992965958601862
    z: 0.0
  angular: 
    x: 0.0
    y: 0.0
    z: 0.0
---
header: 
  seq: 34
  stamp: 
    secs: 1722858647
    nsecs: 631145715
  frame_id: ''
twist: 
  linear: 
    x: 0.5572532769979486
    y: 0.07992497023673528
    z: 0.0
  angular: 
    x: 0.0
    y: 0.0
    z: 0.0
---
header: 
  seq: 35
  stamp: 
    secs: 1722858647
    nsecs: 647323608
  frame_id: ''
twist: 
  linear: 
    x: 0.5572684423143083
    y: 0.07991406117506934
    z: 0.0
  angular: 
    x: 0.0
    y: 0.0
    z: 0.0
---
header: 
  seq: 36
  stamp: 
    secs: 1722858647
    nsecs: 657173395
  frame_id: ''
twist: 
  linear: 
    x: 0.5573947807970366
    y: 0.08015564743119183
    z: 0.0
  angular: 
    x: 0.0
    y: 0.0
    z: 0.0
---
header: 
  seq: 37
  stamp: 
    secs: 1722858647
    nsecs: 662569761
  frame_id: ''
twist: 
  linear: 
    x: 0.5573480398586077
    y: 0.07998822738127902
    z: 0.0
  angular: 
    x: 0.0
    y: 0.0
    z: 0.0
---
header: 
  seq: 38
  stamp: 
    secs: 1722858647
    nsecs: 676689386
  frame_id: ''
twist: 
  linear: 
    x: 0.5574012530592147
    y: 0.08005979995321127
    z: 0.0
  angular: 
    x: 0.0
    y: 0.0
    z: 0.0
---
header: 
  seq: 39
  stamp: 
    secs: 1722858647
    nsecs: 691053152
  frame_id: ''
twist: 
  linear: 
    x: 0.5574056845249801
    y: 0.08002785243866317
    z: 0.0
  angular: 
    x: 0.0
    y: 0.0
    z: 0.0
---
header: 
  seq: 40
  stamp: 
    secs: 1722858647
    nsecs: 696404218
  frame_id: ''
twist: 
  linear: 
    x: 0.5573046300390012
    y: 0.0797433043625483
    z: 0.0
  angular: 
    x: 0.0
    y: 0.0
    z: 0.0
---
header: 
  seq: 41
  stamp: 
    secs: 1722858647
    nsecs: 708740949
  frame_id: ''
twist: 
  linear: 
    x: 0.5574417216091696
    y: 0.08002295841282853
    z: 0.0
  angular: 
    x: 0.0
    y: 0.0
    z: 0.0
---
header: 
  seq: 42
  stamp: 
    secs: 1722858647
    nsecs: 726437091
  frame_id: ''
twist: 
  linear: 
    x: 0.5573924665466189
    y: 0.07985364728074337
    z: 0.0
  angular: 
    x: 0.0
    y: 0.0
    z: 0.0
---
header: 
  seq: 43
  stamp: 
    secs: 1722858647
    nsecs: 750860214
  frame_id: ''
twist: 
  linear: 
    x: 0.5573882545977407
    y: 0.07970902835628448
    z: 0.0
  angular: 
    x: 0.0
    y: 0.0
    z: 0.0
---
header: 
  seq: 44
  stamp: 
    secs: 1722858647
    nsecs: 772322893
  frame_id: ''
twist: 
  linear: 
    x: 0.5575847850473286
    y: 0.07980245936043073
    z: 0.0
  angular: 
    x: 0.0
    y: 0.0
    z: 0.0
---
header: 
  seq: 45
  stamp: 
    secs: 1722858647
    nsecs: 799634695
  frame_id: ''
twist: 
  linear: 
    x: 0.557700487593529
    y: 0.07964168662098375
    z: 0.0
  angular: 
    x: 0.0
    y: 0.0
    z: 0.0
---
header: 
  seq: 46
  stamp: 
    secs: 1722858647
    nsecs: 818766832
  frame_id: ''
twist: 
  linear: 
    x: 0.5576835209907869
    y: 0.0795552796274052
    z: 0.0
  angular: 
    x: 0.0
    y: 0.0
    z: 0.0
---
header: 
  seq: 47
  stamp: 
    secs: 1722858647
    nsecs: 828993320
  frame_id: ''
twist: 
  linear: 
    x: 0.5577164695825416
    y: 0.07932747217035845
    z: 0.0
  angular: 
    x: 0.0
    y: 0.0
    z: 0.0
---
header: 
  seq: 48
  stamp: 
    secs: 1722858647
    nsecs: 837521314
  frame_id: ''
twist: 
  linear: 
    x: 0.5578489156309565
    y: 0.07966337700980522
    z: 0.0
  angular: 
    x: 0.0
    y: 0.0
    z: 0.0
---
header: 
  seq: 49
  stamp: 
    secs: 1722858647
    nsecs: 857689380
  frame_id: ''
twist: 
  linear: 
    x: 0.5578082361387803
    y: 0.07947771582412393
    z: 0.0
  angular: 
    x: 0.0
    y: 0.0
    z: 0.0
---
header: 
  seq: 50
  stamp: 
    secs: 1722858647
    nsecs: 873107910
  frame_id: ''
twist: 
  linear: 
    x: 0.5578689662979456
    y: 0.07960845589049265
    z: 0.0
  angular: 
    x: 0.0
    y: 0.0
    z: 0.0
---
header: 
  seq: 51
  stamp: 
    secs: 1722858647
    nsecs: 884235858
  frame_id: ''
twist: 
  linear: 
    x: 0.5577826695381423
    y: 0.07930531936874877
    z: 0.0
  angular: 
    x: 0.0
    y: 0.0
    z: 0.0
---
header: 
  seq: 52
  stamp: 
    secs: 1722858647
    nsecs: 899278163
  frame_id: ''
twist: 
  linear: 
    x: 0.5578486101899431
    y: 0.07945882217506037
    z: 0.0
  angular: 
    x: 0.0
    y: 0.0
    z: 0.0
---
header: 
  seq: 53
  stamp: 
    secs: 1722858647
    nsecs: 918607950
  frame_id: ''
twist: 
  linear: 
    x: 0.5578430744409313
    y: 0.07937960055294863
    z: 0.0
  angular: 
    x: 0.0
    y: 0.0
    z: 0.0
---
header: 
  seq: 54
  stamp: 
    secs: 1722858647
    nsecs: 941391706
  frame_id: ''
twist: 
  linear: 
    x: 0.5578187678579998
    y: 0.07926834710787257
    z: 0.0
  angular: 
    x: 0.0
    y: 0.0
    z: 0.0
---
header: 
  seq: 55
  stamp: 
    secs: 1722858647
    nsecs: 953164815
  frame_id: ''
twist: 
  linear: 
    x: 0.5578684552262094
    y: 0.07937064269149645
    z: 0.0
  angular: 
    x: 0.0
    y: 0.0
    z: 0.0
---
header: 
  seq: 56
  stamp: 
    secs: 1722858647
    nsecs: 963419437
  frame_id: ''
twist: 
  linear: 
    x: 0.5578228774158978
    y: 0.07918988195848059
    z: 0.0
  angular: 
    x: 0.0
    y: 0.0
    z: 0.0
---
header: 
  seq: 57
  stamp: 
    secs: 1722858647
    nsecs: 974393606
  frame_id: ''
twist: 
  linear: 
    x: 0.5578776727165722
    y: 0.07931783053103686
    z: 0.0
  angular: 
    x: 0.0
    y: 0.0
    z: 0.0
---
header: 
  seq: 58
  stamp: 
    secs: 1722858647
    nsecs: 999515056
  frame_id: ''
twist: 
  linear: 
    x: 0.5579571938324306
    y: 0.07921937389268478
    z: 0.0
  angular: 
    x: 0.0
    y: 0.0
    z: 0.0
---
header: 
  seq: 59
  stamp: 
    secs: 1722858648
    nsecs:  13576507
  frame_id: ''
twist: 
  linear: 
    x: 0.558022886966028
    y: 0.07912083722289873
    z: 0.0
  angular: 
    x: 0.0
    y: 0.0
    z: 0.0
---
header: 
  seq: 60
  stamp: 
    secs: 1722858648
    nsecs:  26855945
  frame_id: ''
twist: 
  linear: 
    x: 0.5580886633013684
    y: 0.07893153140857799
    z: 0.0
  angular: 
    x: 0.0
    y: 0.0
    z: 0.0
---
header: 
  seq: 61
  stamp: 
    secs: 1722858648
    nsecs:  38505315
  frame_id: ''
twist: 
  linear: 
    x: 0.5580843719300111
    y: 0.07887230134680392
    z: 0.0
  angular: 
    x: 0.0
    y: 0.0
    z: 0.0
---
header: 
  seq: 62
  stamp: 
    secs: 1722858648
    nsecs:  50000429
  frame_id: ''
twist: 
  linear: 
    x: 0.558104267992186
    y: 0.07890813668137509
    z: 0.0
  angular: 
    x: 0.0
    y: 0.0
    z: 0.0
---
header: 
  seq: 63
  stamp: 
    secs: 1722858648
    nsecs:  75388908
  frame_id: ''
twist: 
  linear: 
    x: 0.5581110303708848
    y: 0.07888104009806346
    z: 0.0
  angular: 
    x: 0.0
    y: 0.0
    z: 0.0
---
header: 
  seq: 64
  stamp: 
    secs: 1722858648
    nsecs:  82448720
  frame_id: ''
twist: 
  linear: 
    x: 0.5581576845358679
    y: 0.07899538293464757
    z: 0.0
  angular: 
    x: 0.0
    y: 0.0
    z: 0.0
---
header: 
  seq: 65
  stamp: 
    secs: 1722858648
    nsecs: 107468605
  frame_id: ''
twist: 
  linear: 
    x: 0.5581494263860014
    y: 0.07891645131563974
    z: 0.0
  angular: 
    x: 0.0
    y: 0.0
    z: 0.0
---
header: 
  seq: 66
  stamp: 
    secs: 1722858648
    nsecs: 114637851
  frame_id: ''
twist: 
  linear: 
    x: 0.5581674200725907
    y: 0.07893828936521773
    z: 0.0
  angular: 
    x: 0.0
    y: 0.0
    z: 0.0
---
header: 
  seq: 67
  stamp: 
    secs: 1722858648
    nsecs: 142720460
  frame_id: ''
twist: 
  linear: 
    x: 0.5582191174528861
    y: 0.07859362790978733
    z: 0.0
  angular: 
    x: 0.0
    y: 0.0
    z: 0.0
---
header: 
  seq: 68
  stamp: 
    secs: 1722858648
    nsecs: 150432825
  frame_id: ''
twist: 
  linear: 
    x: 0.5582444552414912
    y: 0.07864291645470023
    z: 0.0
  angular: 
    x: 0.0
    y: 0.0
    z: 0.0
---
header: 
  seq: 69
  stamp: 
    secs: 1722858648
    nsecs: 166314125
  frame_id: ''
twist: 
  linear: 
    x: 0.5582512147139513
    y: 0.0786274516063338
    z: 0.0
  angular: 
    x: 0.0
    y: 0.0
    z: 0.0
---
header: 
  seq: 70
  stamp: 
    secs: 1722858648
    nsecs: 180318117
  frame_id: ''
twist: 
  linear: 
    x: 0.5582623587071414
    y: 0.07861918811611995
    z: 0.0
  angular: 
    x: 0.0
    y: 0.0
    z: 0.0
---
header: 
  seq: 71
  stamp: 
    secs: 1722858648
    nsecs: 196053266
  frame_id: ''
twist: 
  linear: 
    x: 0.5582660939847384
    y: 0.0785865636443914
    z: 0.0
  angular: 
    x: 0.0
    y: 0.0
    z: 0.0
---
header: 
  seq: 72
  stamp: 
    secs: 1722858648
    nsecs: 209670543
  frame_id: ''
twist: 
  linear: 
    x: 0.5582698336751252
    y: 0.07854837896502637
    z: 0.0
  angular: 
    x: 0.0
    y: 0.0
    z: 0.0
---
header: 
  seq: 73
  stamp: 
    secs: 1722858648
    nsecs: 225625276
  frame_id: ''
twist: 
  linear: 
    x: 0.5582890042098128
    y: 0.07858101482376585
    z: 0.0
  angular: 
    x: 0.0
    y: 0.0
    z: 0.0
---
header: 
  seq: 74
  stamp: 
    secs: 1722858648
    nsecs: 246935606
  frame_id: ''
twist: 
  linear: 
    x: 0.5583905129494504
    y: 0.0783346166676277
    z: 0.0
  angular: 
    x: 0.0
    y: 0.0
    z: 0.0
---
header: 
  seq: 75
  stamp: 
    secs: 1722858648
    nsecs: 255833864
  frame_id: ''
twist: 
  linear: 
    x: 0.5583855465301332
    y: 0.0782518380731771
    z: 0.0
  angular: 
    x: 0.0
    y: 0.0
    z: 0.0
---
header: 
  seq: 76
  stamp: 
    secs: 1722858648
    nsecs: 263623952
  frame_id: ''
twist: 
  linear: 
    x: 0.5583841626683602
    y: 0.07819515034769546
    z: 0.0
  angular: 
    x: 0.0
    y: 0.0
    z: 0.0
---
header: 
  seq: 77
  stamp: 
    secs: 1722858648
    nsecs: 282689809
  frame_id: ''
twist: 
  linear: 
    x: 0.5584221735236585
    y: 0.07831840628993159
    z: 0.0
  angular: 
    x: 0.0
    y: 0.0
    z: 0.0
---
header: 
  seq: 78
  stamp: 
    secs: 1722858648
    nsecs: 299581766
  frame_id: ''
twist: 
  linear: 
    x: 0.5584254449354175
    y: 0.07828033927332977
    z: 0.0
  angular: 
    x: 0.0
    y: 0.0
    z: 0.0
---
header: 
  seq: 79
  stamp: 
    secs: 1722858648
    nsecs: 328456163
  frame_id: ''
twist: 
  linear: 
    x: 0.5584497986225168
    y: 0.07796974114866481
    z: 0.0
  angular: 
    x: 0.0
    y: 0.0
    z: 0.0
---
header: 
  seq: 80
  stamp: 
    secs: 1722858648
    nsecs: 346002578
  frame_id: ''
twist: 
  linear: 
    x: 0.5584908994983746
    y: 0.07801017604752541
    z: 0.0
  angular: 
    x: 0.0
    y: 0.0
    z: 0.0
---
header: 
  seq: 81
  stamp: 
    secs: 1722858648
    nsecs: 357321977
  frame_id: ''
twist: 
  linear: 
    x: 0.558503559451928
    y: 0.0780352282363003
    z: 0.0
  angular: 
    x: 0.0
    y: 0.0
    z: 0.0
---
header: 
  seq: 82
  stamp: 
    secs: 1722858648
    nsecs: 367580890
  frame_id: ''
twist: 
  linear: 
    x: 0.5584424305213478
    y: 0.07766923121599098
    z: 0.0
  angular: 
    x: 0.0
    y: 0.0
    z: 0.0
---
header: 
  seq: 83
  stamp: 
    secs: 1722858648
    nsecs: 392472982
  frame_id: ''
twist: 
  linear: 
    x: 0.5585222378134136
    y: 0.07804658406888138
    z: 0.0
  angular: 
    x: 0.0
    y: 0.0
    z: 0.0
---
header: 
  seq: 84
  stamp: 
    secs: 1722858648
    nsecs: 400638580
  frame_id: ''
twist: 
  linear: 
    x: 0.5585035492046317
    y: 0.07789545220339
    z: 0.0
  angular: 
    x: 0.0
    y: 0.0
    z: 0.0
---
header: 
  seq: 85
  stamp: 
    secs: 1722858648
    nsecs: 412703990
  frame_id: ''
twist: 
  linear: 
    x: 0.558490198908874
    y: 0.07776680309485082
    z: 0.0
  angular: 
    x: 0.0
    y: 0.0
    z: 0.0
---
header: 
  seq: 86
  stamp: 
    secs: 1722858648
    nsecs: 427097797
  frame_id: ''
twist: 
  linear: 
    x: 0.5585286411176508
    y: 0.0778094803545261
    z: 0.0
  angular: 
    x: 0.0
    y: 0.0
    z: 0.0
---
header: 
  seq: 87
  stamp: 
    secs: 1722858648
    nsecs: 442775726
  frame_id: ''
twist: 
  linear: 
    x: 0.5585398219574583
    y: 0.07751678866083893
    z: 0.0
  angular: 
    x: 0.0
    y: 0.0
    z: 0.0
---
header: 
  seq: 88
  stamp: 
    secs: 1722858648
    nsecs: 450640439
  frame_id: ''
twist: 
  linear: 
    x: 0.5585523784453695
    y: 0.07755088377145011
    z: 0.0
  angular: 
    x: 0.0
    y: 0.0
    z: 0.0
---
header: 
  seq: 89
  stamp: 
    secs: 1722858648
    nsecs: 465238571
  frame_id: ''
twist: 
  linear: 
    x: 0.5585429558718422
    y: 0.0774493320936436
    z: 0.0
  angular: 
    x: 0.0
    y: 0.0
    z: 0.0
---
header: 
  seq: 90
  stamp: 
    secs: 1722858648
    nsecs: 488454818
  frame_id: ''
twist: 
  linear: 
    x: 0.5585664175660948
    y: 0.0774894885689497
    z: 0.0
  angular: 
    x: 0.0
    y: 0.0
    z: 0.0
---
header: 
  seq: 91
  stamp: 
    secs: 1722858648
    nsecs: 498119831
  frame_id: ''
twist: 
  linear: 
    x: 0.5585832234551271
    y: 0.07755109345427799
    z: 0.0
  angular: 
    x: 0.0
    y: 0.0
    z: 0.0
---
header: 
  seq: 92
  stamp: 
    secs: 1722858648
    nsecs: 517945528
  frame_id: ''
twist: 
  linear: 
    x: 0.5585657901572583
    y: 0.07739192395559806
    z: 0.0
  angular: 
    x: 0.0
    y: 0.0
    z: 0.0
---
header: 
  seq: 93
  stamp: 
    secs: 1722858648
    nsecs: 551539421
  frame_id: ''
twist: 
  linear: 
    x: 0.5586432380237797
    y: 0.07734560909397821
    z: 0.0
  angular: 
    x: 0.0
    y: 0.0
    z: 0.0
---
header: 
  seq: 94
  stamp: 
    secs: 1722858648
    nsecs: 563079118
  frame_id: ''
twist: 
  linear: 
    x: 0.5586225244517451
    y: 0.07708902237208456
    z: 0.0
  angular: 
    x: 0.0
    y: 0.0
    z: 0.0
---
header: 
  seq: 95
  stamp: 
    secs: 1722858648
    nsecs: 578614711
  frame_id: ''
twist: 
  linear: 
    x: 0.5586493689862512
    y: 0.0771060966792231
    z: 0.0
  angular: 
    x: 0.0
    y: 0.0
    z: 0.0
---
header: 
  seq: 96
  stamp: 
    secs: 1722858648
    nsecs: 592619657
  frame_id: ''
twist: 
  linear: 
    x: 0.5586643658390862
    y: 0.07711382181442078
    z: 0.0
  angular: 
    x: 0.0
    y: 0.0
    z: 0.0
---
header: 
  seq: 97
  stamp: 
    secs: 1722858648
    nsecs: 606467247
  frame_id: ''
twist: 
  linear: 
    x: 0.5586891698436801
    y: 0.07726228799624321
    z: 0.0
  angular: 
    x: 0.0
    y: 0.0
    z: 0.0
---
header: 
  seq: 98
  stamp: 
    secs: 1722858648
    nsecs: 625379800
  frame_id: ''
twist: 
  linear: 
    x: 0.5586940253316499
    y: 0.0772180297585461
    z: 0.0
  angular: 
    x: 0.0
    y: 0.0
    z: 0.0
---
header: 
  seq: 99
  stamp: 
    secs: 1722858648
    nsecs: 644795894
  frame_id: ''
twist: 
  linear: 
    x: 0.558697033381398
    y: 0.07691830057101294
    z: 0.0
  angular: 
    x: 0.0
    y: 0.0
    z: 0.0
---
header: 
  seq: 100
  stamp: 
    secs: 1722858648
    nsecs: 656440258
  frame_id: ''
twist: 
  linear: 
    x: 0.5587254393937071
    y: 0.0771378439678782
    z: 0.0
  angular: 
    x: 0.0
    y: 0.0
    z: 0.0
---
header: 
  seq: 101
  stamp: 
    secs: 1722858648
    nsecs: 680382490
  frame_id: ''
twist: 
  linear: 
    x: 0.55871302381205
    y: 0.07699217630823782
    z: 0.0
  angular: 
    x: 0.0
    y: 0.0
    z: 0.0
---
header: 
  seq: 102
  stamp: 
    secs: 1722858648
    nsecs: 690407514
  frame_id: ''
twist: 
  linear: 
    x: 0.5587034507927028
    y: 0.07687870553935976
    z: 0.0
  angular: 
    x: 0.0
    y: 0.0
    z: 0.0
---
header: 
  seq: 103
  stamp: 
    secs: 1722858648
    nsecs: 707560777
  frame_id: ''
twist: 
  linear: 
    x: 0.5587092823632775
    y: 0.0768932437195477
    z: 0.0
  angular: 
    x: 0.0
    y: 0.0
    z: 0.0
---
header: 
  seq: 104
  stamp: 
    secs: 1722858648
    nsecs: 727423191
  frame_id: ''
twist: 
  linear: 
    x: 0.5586939171532325
    y: 0.07670972762091338
    z: 0.0
  angular: 
    x: 0.0
    y: 0.0
    z: 0.0
---
header: 
  seq: 105
  stamp: 
    secs: 1722858648
    nsecs: 736193180
  frame_id: ''
twist: 
  linear: 
    x: 0.5587059045579148
    y: 0.07672802440646764
    z: 0.0
  angular: 
    x: 0.0
    y: 0.0
    z: 0.0
---
header: 
  seq: 106
  stamp: 
    secs: 1722858648
    nsecs: 777099847
  frame_id: ''
twist: 
  linear: 
    x: 0.5587469985556177
    y: 0.07648580411124185
    z: 0.0
  angular: 
    x: 0.0
    y: 0.0
    z: 0.0
---
header: 
  seq: 107
  stamp: 
    secs: 1722858648
    nsecs: 794656753
  frame_id: ''
twist: 
  linear: 
    x: 0.5587431873963532
    y: 0.0763982462782727
    z: 0.0
  angular: 
    x: 0.0
    y: 0.0
    z: 0.0
---
header: 
  seq: 108
  stamp: 
    secs: 1722858648
    nsecs: 801496267
  frame_id: ''
twist: 
  linear: 
    x: 0.5587768310299032
    y: 0.07668711774045976
    z: 0.0
  angular: 
    x: 0.0
    y: 0.0
    z: 0.0
---
header: 
  seq: 109
  stamp: 
    secs: 1722858648
    nsecs: 824078798
  frame_id: ''
twist: 
  linear: 
    x: 0.5587605185290749
    y: 0.0764764516669189
    z: 0.0
  angular: 
    x: 0.0
    y: 0.0
    z: 0.0
---
header: 
  seq: 110
  stamp: 
    secs: 1722858648
    nsecs: 838660955
  frame_id: ''
twist: 
  linear: 
    x: 0.558762409008443
    y: 0.07640455244944493
    z: 0.0
  angular: 
    x: 0.0
    y: 0.0
    z: 0.0
---
header: 
  seq: 111
  stamp: 
    secs: 1722858648
    nsecs: 848636627
  frame_id: ''
twist: 
  linear: 
    x: 0.5587680931057871
    y: 0.07640716559634442
    z: 0.0
  angular: 
    x: 0.0
    y: 0.0
    z: 0.0
---
header: 
  seq: 112
  stamp: 
    secs: 1722858648
    nsecs: 866665840
  frame_id: ''
twist: 
  linear: 
    x: 0.5587820013299918
    y: 0.07650441945815224
    z: 0.0
  angular: 
    x: 0.0
    y: 0.0
    z: 0.0
---
header: 
  seq: 113
  stamp: 
    secs: 1722858648
    nsecs: 881391286
  frame_id: ''
twist: 
  linear: 
    x: 0.558774292382171
    y: 0.07634028475714424
    z: 0.0
  angular: 
    x: 0.0
    y: 0.0
    z: 0.0
---
header: 
  seq: 114
  stamp: 
    secs: 1722858648
    nsecs: 890219688
  frame_id: ''
twist: 
  linear: 
    x: 0.5587914455663898
    y: 0.07649334212679035
    z: 0.0
  angular: 
    x: 0.0
    y: 0.0
    z: 0.0
---
header: 
  seq: 115
  stamp: 
    secs: 1722858648
    nsecs: 909378051
  frame_id: ''
twist: 
  linear: 
    x: 0.5587900328302429
    y: 0.07645615765953379
    z: 0.0
  angular: 
    x: 0.0
    y: 0.0
    z: 0.0
---
header: 
  seq: 116
  stamp: 
    secs: 1722858648
    nsecs: 933977603
  frame_id: ''
twist: 
  linear: 
    x: 0.558797354648109
    y: 0.07655278810019743
    z: 0.0
  angular: 
    x: 0.0
    y: 0.0
    z: 0.0
---
header: 
  seq: 117
  stamp: 
    secs: 1722858648
    nsecs: 970714569
  frame_id: ''
twist: 
  linear: 
    x: 0.5588161478229773
    y: 0.07586517757194067
    z: 0.0
  angular: 
    x: 0.0
    y: 0.0
    z: 0.0
---
header: 
  seq: 118
  stamp: 
    secs: 1722858648
    nsecs: 987671136
  frame_id: ''
twist: 
  linear: 
    x: 0.5588116142823742
    y: 0.07578531796532481
    z: 0.0
  angular: 
    x: 0.0
    y: 0.0
    z: 0.0
---
header: 
  seq: 119
  stamp: 
    secs: 1722858649
    nsecs:  21436214
  frame_id: ''
twist: 
  linear: 
    x: 0.5588433308804875
    y: 0.07583561284916514
    z: 0.0
  angular: 
    x: 0.0
    y: 0.0
    z: 0.0
---
header: 
  seq: 120
  stamp: 
    secs: 1722858649
    nsecs:  49480676
  frame_id: ''
twist: 
  linear: 
    x: 0.5588544145391834
    y: 0.07559386541139124
    z: 0.0
  angular: 
    x: 0.0
    y: 0.0
    z: 0.0
---
header: 
  seq: 121
  stamp: 
    secs: 1722858649
    nsecs:  68913221
  frame_id: ''
twist: 
  linear: 
    x: 0.5588575678899282
    y: 0.07560657423700133
    z: 0.0
  angular: 
    x: 0.0
    y: 0.0
    z: 0.0
---
header: 
  seq: 122
  stamp: 
    secs: 1722858649
    nsecs:  91037988
  frame_id: ''
twist: 
  linear: 
    x: 0.5588460270898367
    y: 0.07535822861640382
    z: 0.0
  angular: 
    x: 0.0
    y: 0.0
    z: 0.0
---
header: 
  seq: 123
  stamp: 
    secs: 1722858649
    nsecs: 100599288
  frame_id: ''
twist: 
  linear: 
    x: 0.5588527383304709
    y: 0.07543696851441486
    z: 0.0
  angular: 
    x: 0.0
    y: 0.0
    z: 0.0
---
header: 
  seq: 124
  stamp: 
    secs: 1722858649
    nsecs: 122272491
  frame_id: ''
twist: 
  linear: 
    x: 0.5588517097384151
    y: 0.07520838211817824
    z: 0.0
  angular: 
    x: 0.0
    y: 0.0
    z: 0.0
---
header: 
  seq: 125
  stamp: 
    secs: 1722858649
    nsecs: 131886959
  frame_id: ''
twist: 
  linear: 
    x: 0.5588703225234374
    y: 0.07553200450636925
    z: 0.0
  angular: 
    x: 0.0
    y: 0.0
    z: 0.0
---
header: 
  seq: 126
  stamp: 
    secs: 1722858649
    nsecs: 150995254
  frame_id: ''
twist: 
  linear: 
    x: 0.558863951412186
    y: 0.0751662778314871
    z: 0.0
  angular: 
    x: 0.0
    y: 0.0
    z: 0.0
---
header: 
  seq: 127
  stamp: 
    secs: 1722858649
    nsecs: 183328151
  frame_id: ''
twist: 
  linear: 
    x: 0.5588765919958202
    y: 0.07525748888662608
    z: 0.0
  angular: 
    x: 0.0
    y: 0.0
    z: 0.0
---
header: 
  seq: 128
  stamp: 
    secs: 1722858649
    nsecs: 194770574
  frame_id: ''
twist: 
  linear: 
    x: 0.5588804548942958
    y: 0.07505995907222072
    z: 0.0
  angular: 
    x: 0.0
    y: 0.0
    z: 0.0
---
header: 
  seq: 129
  stamp: 
    secs: 1722858649
    nsecs: 212686300
  frame_id: ''
twist: 
  linear: 
    x: 0.5588851833441064
    y: 0.07503916716510972
    z: 0.0
  angular: 
    x: 0.0
    y: 0.0
    z: 0.0
---
header: 
  seq: 130
  stamp: 
    secs: 1722858649
    nsecs: 229575395
  frame_id: ''
twist: 
  linear: 
    x: 0.5588832951978269
    y: 0.07488084139298919
    z: 0.0
  angular: 
    x: 0.0
    y: 0.0
    z: 0.0
---
header: 
  seq: 131
  stamp: 
    secs: 1722858649
    nsecs: 262581586
  frame_id: ''
twist: 
  linear: 
    x: 0.5588957391552263
    y: 0.07499846518644532
    z: 0.0
  angular: 
    x: 0.0
    y: 0.0
    z: 0.0
---
header: 
  seq: 132
  stamp: 
    secs: 1722858649
    nsecs: 283432245
  frame_id: ''
twist: 
  linear: 
    x: 0.5588936940002621
    y: 0.07458409703609933
    z: 0.0
  angular: 
    x: 0.0
    y: 0.0
    z: 0.0
---
header: 
  seq: 133
  stamp: 
    secs: 1722858649
    nsecs: 294499874
  frame_id: ''
twist: 
  linear: 
    x: 0.558898304370758
    y: 0.07467212331548335
    z: 0.0
  angular: 
    x: 0.0
    y: 0.0
    z: 0.0
---
header: 
  seq: 134
  stamp: 
    secs: 1722858649
    nsecs: 305639266
  frame_id: ''
twist: 
  linear: 
    x: 0.558896214158351
    y: 0.07457437965185237
    z: 0.0
  angular: 
    x: 0.0
    y: 0.0
    z: 0.0
---
header: 
  seq: 135
  stamp: 
    secs: 1722858649
    nsecs: 317891120
  frame_id: ''
twist: 
  linear: 
    x: 0.5589026309085812
    y: 0.07475148511100008
    z: 0.0
  angular: 
    x: 0.0
    y: 0.0
    z: 0.0
---
header: 
  seq: 136
  stamp: 
    secs: 1722858649
    nsecs: 331188201
  frame_id: ''
twist: 
  linear: 
    x: 0.5588951599229759
    y: 0.0745257802603376
    z: 0.0
  angular: 
    x: 0.0
    y: 0.0
    z: 0.0
---
header: 
  seq: 137
  stamp: 
    secs: 1722858649
    nsecs: 342761278
  frame_id: ''
twist: 
  linear: 
    x: 0.558902115708301
    y: 0.07470229899723216
    z: 0.0
  angular: 
    x: 0.0
    y: 0.0
    z: 0.0
---
header: 
  seq: 138
  stamp: 
    secs: 1722858649
    nsecs: 359033346
  frame_id: ''
twist: 
  linear: 
    x: 0.5588944519305754
    y: 0.07447428847585
    z: 0.0
  angular: 
    x: 0.0
    y: 0.0
    z: 0.0
---
header: 
  seq: 139
  stamp: 
    secs: 1722858649
    nsecs: 379493236
  frame_id: ''
twist: 
  linear: 
    x: 0.5589013029810506
    y: 0.07461167988754293
    z: 0.0
  angular: 
    x: 0.0
    y: 0.0
    z: 0.0
---
header: 
  seq: 140
  stamp: 
    secs: 1722858649
    nsecs: 396657466
  frame_id: ''
twist: 
  linear: 
    x: 0.5589072212502536
    y: 0.07477361635776231
    z: 0.0
  angular: 
    x: 0.0
    y: 0.0
    z: 0.0
---
header: 
  seq: 141
  stamp: 
    secs: 1722858649
    nsecs: 411959409
  frame_id: ''
twist: 
  linear: 
    x: 0.5589052249220573
    y: 0.07426619272634963
    z: 0.0
  angular: 
    x: 0.0
    y: 0.0
    z: 0.0
---
header: 
  seq: 142
  stamp: 
    secs: 1722858649
    nsecs: 418400049
  frame_id: ''
twist: 
  linear: 
    x: 0.558917383719475
    y: 0.0743879557641183
    z: 0.0
  angular: 
    x: 0.0
    y: 0.0
    z: 0.0
---
header: 
  seq: 143
  stamp: 
    secs: 1722858649
    nsecs: 446998834
  frame_id: ''
twist: 
  linear: 
    x: 0.5589182473943933
    y: 0.07441479367248538
    z: 0.0
  angular: 
    x: 0.0
    y: 0.0
    z: 0.0
---
header: 
  seq: 144
  stamp: 
    secs: 1722858649
    nsecs: 466194629
  frame_id: ''
twist: 
  linear: 
    x: 0.5589243079999362
    y: 0.07450881921200765
    z: 0.0
  angular: 
    x: 0.0
    y: 0.0
    z: 0.0
---
header: 
  seq: 145
  stamp: 
    secs: 1722858649
    nsecs: 479596138
  frame_id: ''
twist: 
  linear: 
    x: 0.5589181459961334
    y: 0.0743086013982995
    z: 0.0
  angular: 
    x: 0.0
    y: 0.0
    z: 0.0
---
header: 
  seq: 146
  stamp: 
    secs: 1722858649
    nsecs: 492761850
  frame_id: ''
twist: 
  linear: 
    x: 0.5589203277434995
    y: 0.07435164611393952
    z: 0.0
  angular: 
    x: 0.0
    y: 0.0
    z: 0.0
---
header: 
  seq: 147
  stamp: 
    secs: 1722858649
    nsecs: 516004800
  frame_id: ''
twist: 
  linear: 
    x: 0.5589186778297944
    y: 0.07433538200708842
    z: 0.0
  angular: 
    x: 0.0
    y: 0.0
    z: 0.0
---
header: 
  seq: 148
  stamp: 
    secs: 1722858649
    nsecs: 556324243
  frame_id: ''
twist: 
  linear: 
    x: 0.5589324948896998
    y: 0.07364669385759913
    z: 0.0
  angular: 
    x: 0.0
    y: 0.0
    z: 0.0
---
header: 
  seq: 149
  stamp: 
    secs: 1722858649
    nsecs: 571338415
  frame_id: ''
twist: 
  linear: 
    x: 0.5589376056445026
    y: 0.0737666389402243
    z: 0.0
  angular: 
    x: 0.0
    y: 0.0
    z: 0.0
---
header: 
  seq: 150
  stamp: 
    secs: 1722858649
    nsecs: 584523916
  frame_id: ''
twist: 
  linear: 
    x: 0.5589307208672631
    y: 0.07341280037071357
    z: 0.0
  angular: 
    x: 0.0
    y: 0.0
    z: 0.0
---
header: 
  seq: 151
  stamp: 
    secs: 1722858649
    nsecs: 605010271
  frame_id: ''
twist: 
  linear: 
    x: 0.5589364523499663
    y: 0.07361787835917111
    z: 0.0
  angular: 
    x: 0.0
    y: 0.0
    z: 0.0
---
header: 
  seq: 152
  stamp: 
    secs: 1722858649
    nsecs: 619378805
  frame_id: ''
twist: 
  linear: 
    x: 0.5589328952493356
    y: 0.07331565673490506
    z: 0.0
  angular: 
    x: 0.0
    y: 0.0
    z: 0.0
---
header: 
  seq: 153
  stamp: 
    secs: 1722858649
    nsecs: 644270658
  frame_id: ''
twist: 
  linear: 
    x: 0.558943566450576
    y: 0.07360914067740541
    z: 0.0
  angular: 
    x: 0.0
    y: 0.0
    z: 0.0
---
header: 
  seq: 154
  stamp: 
    secs: 1722858649
    nsecs: 665022611
  frame_id: ''
twist: 
  linear: 
    x: 0.558941914959082
    y: 0.07306818869560203
    z: 0.0
  angular: 
    x: 0.0
    y: 0.0
    z: 0.0
---
header: 
  seq: 155
  stamp: 
    secs: 1722858649
    nsecs: 675261020
  frame_id: ''
twist: 
  linear: 
    x: 0.5589541866808959
    y: 0.07340940867757866
    z: 0.0
  angular: 
    x: 0.0
    y: 0.0
    z: 0.0
---
header: 
  seq: 156
  stamp: 
    secs: 1722858649
    nsecs: 688125371
  frame_id: ''
twist: 
  linear: 
    x: 0.5589494627611007
    y: 0.07314789216646372
    z: 0.0
  angular: 
    x: 0.0
    y: 0.0
    z: 0.0
---
header: 
  seq: 157
  stamp: 
    secs: 1722858649
    nsecs: 712690114
  frame_id: ''
twist: 
  linear: 
    x: 0.5589578911737687
    y: 0.07329577486727977
    z: 0.0
  angular: 
    x: 0.0
    y: 0.0
    z: 0.0
---
header: 
  seq: 158
  stamp: 
    secs: 1722858649
    nsecs: 719838857
  frame_id: ''
twist: 
  linear: 
    x: 0.558948296014214
    y: 0.07283455341271011
    z: 0.0
  angular: 
    x: 0.0
    y: 0.0
    z: 0.0
---
header: 
  seq: 159
  stamp: 
    secs: 1722858649
    nsecs: 736613273
  frame_id: ''
twist: 
  linear: 
    x: 0.5589525430638482
    y: 0.07297698797069255
    z: 0.0
  angular: 
    x: 0.0
    y: 0.0
    z: 0.0
---
header: 
  seq: 160
  stamp: 
    secs: 1722858649
    nsecs: 750534057
  frame_id: ''
twist: 
  linear: 
    x: 0.5589478719872191
    y: 0.07268124157234891
    z: 0.0
  angular: 
    x: 0.0
    y: 0.0
    z: 0.0
---
header: 
  seq: 161
  stamp: 
    secs: 1722858649
    nsecs: 764445543
  frame_id: ''
twist: 
  linear: 
    x: 0.5589533270152711
    y: 0.0728830335838895
    z: 0.0
  angular: 
    x: 0.0
    y: 0.0
    z: 0.0
---
header: 
  seq: 162
  stamp: 
    secs: 1722858649
    nsecs: 775174140
  frame_id: ''
twist: 
  linear: 
    x: 0.5589599277895428
    y: 0.07300872258254151
    z: 0.0
  angular: 
    x: 0.0
    y: 0.0
    z: 0.0
---
header: 
  seq: 163
  stamp: 
    secs: 1722858649
    nsecs: 788311481
  frame_id: ''
twist: 
  linear: 
    x: 0.5589571677425785
    y: 0.0728648975234866
    z: 0.0
  angular: 
    x: 0.0
    y: 0.0
    z: 0.0
---
header: 
  seq: 164
  stamp: 
    secs: 1722858649
    nsecs: 796592473
  frame_id: ''
twist: 
  linear: 
    x: 0.5589623134869202
    y: 0.07309179381076875
    z: 0.0
  angular: 
    x: 0.0
    y: 0.0
    z: 0.0
---
header: 
  seq: 165
  stamp: 
    secs: 1722858649
    nsecs: 805060625
  frame_id: ''
twist: 
  linear: 
    x: 0.5589596716501803
    y: 0.07297724790970007
    z: 0.0
  angular: 
    x: 0.0
    y: 0.0
    z: 0.0
---
header: 
  seq: 166
  stamp: 
    secs: 1722858649
    nsecs: 822788000
  frame_id: ''
twist: 
  linear: 
    x: 0.5589590134782794
    y: 0.07294143411292191
    z: 0.0
  angular: 
    x: 0.0
    y: 0.0
    z: 0.0
---
header: 
  seq: 167
  stamp: 
    secs: 1722858649
    nsecs: 833986520
  frame_id: ''
twist: 
  linear: 
    x: 0.5589609201794561
    y: 0.07303150159257393
    z: 0.0
  angular: 
    x: 0.0
    y: 0.0
    z: 0.0
---
header: 
  seq: 168
  stamp: 
    secs: 1722858649
    nsecs: 845463752
  frame_id: ''
twist: 
  linear: 
    x: 0.5589560592146258
    y: 0.07278399316378459
    z: 0.0
  angular: 
    x: 0.0
    y: 0.0
    z: 0.0
---
header: 
  seq: 169
  stamp: 
    secs: 1722858649
    nsecs: 863402128
  frame_id: ''
twist: 
  linear: 
    x: 0.5589662990161441
    y: 0.07269686267467342
    z: 0.0
  angular: 
    x: 0.0
    y: 0.0
    z: 0.0
---
header: 
  seq: 170
  stamp: 
    secs: 1722858649
    nsecs: 893568754
  frame_id: ''
twist: 
  linear: 
    x: 0.558975529826828
    y: 0.07267337069758606
    z: 0.0
  angular: 
    x: 0.0
    y: 0.0
    z: 0.0
---
header: 
  seq: 171
  stamp: 
    secs: 1722858649
    nsecs: 908727884
  frame_id: ''
twist: 
  linear: 
    x: 0.5589710743766355
    y: 0.07242728898920162
    z: 0.0
  angular: 
    x: 0.0
    y: 0.0
    z: 0.0
---
header: 
  seq: 172
  stamp: 
    secs: 1722858649
    nsecs: 928205013
  frame_id: ''
twist: 
  linear: 
    x: 0.5589686717252058
    y: 0.07213628101717949
    z: 0.0
  angular: 
    x: 0.0
    y: 0.0
    z: 0.0
---
header: 
  seq: 173
  stamp: 
    secs: 1722858649
    nsecs: 942331314
  frame_id: ''
twist: 
  linear: 
    x: 0.5589759972517702
    y: 0.07228802182189087
    z: 0.0
  angular: 
    x: 0.0
    y: 0.0
    z: 0.0
---
header: 
  seq: 174
  stamp: 
    secs: 1722858649
    nsecs: 953077077
  frame_id: ''
twist: 
  linear: 
    x: 0.558971091751443
    y: 0.07201188716262645
    z: 0.0
  angular: 
    x: 0.0
    y: 0.0
    z: 0.0
---
header: 
  seq: 175
  stamp: 
    secs: 1722858649
    nsecs: 964752674
  frame_id: ''
twist: 
  linear: 
    x: 0.5589774753658996
    y: 0.0722696406876742
    z: 0.0
  angular: 
    x: 0.0
    y: 0.0
    z: 0.0
---
header: 
  seq: 176
  stamp: 
    secs: 1722858649
    nsecs: 979497909
  frame_id: ''
twist: 
  linear: 
    x: 0.5589825157504441
    y: 0.07233931335846547
    z: 0.0
  angular: 
    x: 0.0
    y: 0.0
    z: 0.0
---
header: 
  seq: 177
  stamp: 
    secs: 1722858649
    nsecs: 985675096
  frame_id: ''
twist: 
  linear: 
    x: 0.5589768305951844
    y: 0.07204824636407868
    z: 0.0
  angular: 
    x: 0.0
    y: 0.0
    z: 0.0
---
header: 
  seq: 178
  stamp: 
    secs: 1722858650
    nsecs:   6179809
  frame_id: ''
twist: 
  linear: 
    x: 0.5589855957512999
    y: 0.07192958723747664
    z: 0.0
  angular: 
    x: 0.0
    y: 0.0
    z: 0.0
---
header: 
  seq: 179
  stamp: 
    secs: 1722858650
    nsecs:  16088724
  frame_id: ''
twist: 
  linear: 
    x: 0.5589867939178569
    y: 0.07189771486874649
    z: 0.0
  angular: 
    x: 0.0
    y: 0.0
    z: 0.0
---
header: 
  seq: 180
  stamp: 
    secs: 1722858650
    nsecs:  24507045
  frame_id: ''
twist: 
  linear: 
    x: 0.5589895965588675
    y: 0.0719683315067792
    z: 0.0
  angular: 
    x: 0.0
    y: 0.0
    z: 0.0
---
header: 
  seq: 181
  stamp: 
    secs: 1722858650
    nsecs:  36398172
  frame_id: ''
twist: 
  linear: 
    x: 0.5589906815940544
    y: 0.07194596750011976
    z: 0.0
  angular: 
    x: 0.0
    y: 0.0
    z: 0.0
---
header: 
  seq: 182
  stamp: 
    secs: 1722858650
    nsecs:  60061931
  frame_id: ''
twist: 
  linear: 
    x: 0.5590188716894197
    y: 0.07219495073349531
    z: 0.0
  angular: 
    x: 0.0
    y: 0.0
    z: 0.0
---
header: 
  seq: 183
  stamp: 
    secs: 1722858650
    nsecs:  76647281
  frame_id: ''
twist: 
  linear: 
    x: 0.5590130885431498
    y: 0.07197298825932472
    z: 0.0
  angular: 
    x: 0.0
    y: 0.0
    z: 0.0
---
header: 
  seq: 184
  stamp: 
    secs: 1722858650
    nsecs:  85747241
  frame_id: ''
twist: 
  linear: 
    x: 0.5590017801472726
    y: 0.07154266937054027
    z: 0.0
  angular: 
    x: 0.0
    y: 0.0
    z: 0.0
---
header: 
  seq: 185
  stamp: 
    secs: 1722858650
    nsecs: 100334405
  frame_id: ''
twist: 
  linear: 
    x: 0.5590024382664441
    y: 0.07158659104976371
    z: 0.0
  angular: 
    x: 0.0
    y: 0.0
    z: 0.0
---
header: 
  seq: 186
  stamp: 
    secs: 1722858650
    nsecs: 116537094
  frame_id: ''
twist: 
  linear: 
    x: 0.559010354292525
    y: 0.07178115775396386
    z: 0.0
  angular: 
    x: 0.0
    y: 0.0
    z: 0.0
---
header: 
  seq: 187
  stamp: 
    secs: 1722858650
    nsecs: 132219314
  frame_id: ''
twist: 
  linear: 
    x: 0.5590095275196831
    y: 0.07160479621947177
    z: 0.0
  angular: 
    x: 0.0
    y: 0.0
    z: 0.0
---
header: 
  seq: 188
  stamp: 
    secs: 1722858650
    nsecs: 149876117
  frame_id: ''
twist: 
  linear: 
    x: 0.5590071343799385
    y: 0.07151082901153048
    z: 0.0
  angular: 
    x: 0.0
    y: 0.0
    z: 0.0
---
header: 
  seq: 189
  stamp: 
    secs: 1722858650
    nsecs: 165536165
  frame_id: ''
twist: 
  linear: 
    x: 0.5590152186460406
    y: 0.07166092565451383
    z: 0.0
  angular: 
    x: 0.0
    y: 0.0
    z: 0.0
---
header: 
  seq: 190
  stamp: 
    secs: 1722858650
    nsecs: 184352397
  frame_id: ''
twist: 
  linear: 
    x: 0.5590143410881167
    y: 0.07150505481180221
    z: 0.0
  angular: 
    x: 0.0
    y: 0.0
    z: 0.0
---
header: 
  seq: 191
  stamp: 
    secs: 1722858650
    nsecs: 194362878
  frame_id: ''
twist: 
  linear: 
    x: 0.5590066378812338
    y: 0.07131139923037004
    z: 0.0
  angular: 
    x: 0.0
    y: 0.0
    z: 0.0
---
header: 
  seq: 192
  stamp: 
    secs: 1722858650
    nsecs: 214399814
  frame_id: ''
twist: 
  linear: 
    x: 0.5590081997721397
    y: 0.0712885544652109
    z: 0.0
  angular: 
    x: 0.0
    y: 0.0
    z: 0.0
---
header: 
  seq: 193
  stamp: 
    secs: 1722858650
    nsecs: 236906290
  frame_id: ''
twist: 
  linear: 
    x: 0.5590083205674814
    y: 0.07117568054508455
    z: 0.0
  angular: 
    x: 0.0
    y: 0.0
    z: 0.0
---
header: 
  seq: 194
  stamp: 
    secs: 1722858650
    nsecs: 249815464
  frame_id: ''
twist: 
  linear: 
    x: 0.5590075870031442
    y: 0.071131402350055
    z: 0.0
  angular: 
    x: 0.0
    y: 0.0
    z: 0.0
---
header: 
  seq: 195
  stamp: 
    secs: 1722858650
    nsecs: 261210918
  frame_id: ''
twist: 
  linear: 
    x: 0.5590159915589951
    y: 0.07126860744462715
    z: 0.0
  angular: 
    x: 0.0
    y: 0.0
    z: 0.0
---
header: 
  seq: 196
  stamp: 
    secs: 1722858650
    nsecs: 277225494
  frame_id: ''
twist: 
  linear: 
    x: 0.5590144301499775
    y: 0.07118772752464513
    z: 0.0
  angular: 
    x: 0.0
    y: 0.0
    z: 0.0
---
header: 
  seq: 197
  stamp: 
    secs: 1722858650
    nsecs: 285132884
  frame_id: ''
twist: 
  linear: 
    x: 0.5590134437932134
    y: 0.0711190099482678
    z: 0.0
  angular: 
    x: 0.0
    y: 0.0
    z: 0.0
---
header: 
  seq: 198
  stamp: 
    secs: 1722858650
    nsecs: 298031806
  frame_id: ''
twist: 
  linear: 
    x: 0.5590136875295032
    y: 0.070993786641401
    z: 0.0
  angular: 
    x: 0.0
    y: 0.0
    z: 0.0
---
header: 
  seq: 199
  stamp: 
    secs: 1722858650
    nsecs: 312967061
  frame_id: ''
twist: 
  linear: 
    x: 0.5590265271563574
    y: 0.07120351639005808
    z: 0.0
  angular: 
    x: 0.0
    y: 0.0
    z: 0.0
---
header: 
  seq: 200
  stamp: 
    secs: 1722858650
    nsecs: 322543621
  frame_id: ''
twist: 
  linear: 
    x: 0.5590126785786529
    y: 0.07085393901390712
    z: 0.0
  angular: 
    x: 0.0
    y: 0.0
    z: 0.0
---
header: 
  seq: 201
  stamp: 
    secs: 1722858650
    nsecs: 349460124
  frame_id: ''
twist: 
  linear: 
    x: 0.5590274845995415
    y: 0.07060472841440467
    z: 0.0
  angular: 
    x: 0.0
    y: 0.0
    z: 0.0
---
header: 
  seq: 202
  stamp: 
    secs: 1722858650
    nsecs: 361182451
  frame_id: ''
twist: 
  linear: 
    x: 0.5590417235922008
    y: 0.07077328543191112
    z: 0.0
  angular: 
    x: 0.0
    y: 0.0
    z: 0.0
---
header: 
  seq: 203
  stamp: 
    secs: 1722858650
    nsecs: 369534492
  frame_id: ''
twist: 
  linear: 
    x: 0.559044325594658
    y: 0.0706198165256414
    z: 0.0
  angular: 
    x: 0.0
    y: 0.0
    z: 0.0
---
header: 
  seq: 204
  stamp: 
    secs: 1722858650
    nsecs: 386581182
  frame_id: ''
twist: 
  linear: 
    x: 0.5590524515590353
    y: 0.07071039657085326
    z: 0.0
  angular: 
    x: 0.0
    y: 0.0
    z: 0.0
---
header: 
  seq: 205
  stamp: 
    secs: 1722858650
    nsecs: 401294708
  frame_id: ''
twist: 
  linear: 
    x: 0.559050605855425
    y: 0.07048501445078363
    z: 0.0
  angular: 
    x: 0.0
    y: 0.0
    z: 0.0
---
header: 
  seq: 206
  stamp: 
    secs: 1722858650
    nsecs: 418031454
  frame_id: ''
twist: 
  linear: 
    x: 0.5590561494932614
    y: 0.07052575100575409
    z: 0.0
  angular: 
    x: 0.0
    y: 0.0
    z: 0.0
---
header: 
  seq: 207
  stamp: 
    secs: 1722858650
    nsecs: 426582813
  frame_id: ''
twist: 
  linear: 
    x: 0.5590621691085325
    y: 0.07057086335198091
    z: 0.0
  angular: 
    x: 0.0
    y: 0.0
    z: 0.0
---
header: 
  seq: 208
  stamp: 
    secs: 1722858650
    nsecs: 435943365
  frame_id: ''
twist: 
  linear: 
    x: 0.5590608563259597
    y: 0.07053028728197674
    z: 0.0
  angular: 
    x: 0.0
    y: 0.0
    z: 0.0
---
header: 
  seq: 209
  stamp: 
    secs: 1722858650
    nsecs: 448198795
  frame_id: ''
twist: 
  linear: 
    x: 0.5590597004054113
    y: 0.07047412377667181
    z: 0.0
  angular: 
    x: 0.0
    y: 0.0
    z: 0.0
---
header: 
  seq: 210
  stamp: 
    secs: 1722858650
    nsecs: 467589616
  frame_id: ''
twist: 
  linear: 
    x: 0.5590613195916223
    y: 0.07047839996360837
    z: 0.0
  angular: 
    x: 0.0
    y: 0.0
    z: 0.0
---
header: 
  seq: 211
  stamp: 
    secs: 1722858650
    nsecs: 494373083
  frame_id: ''
twist: 
  linear: 
    x: 0.559046264805425
    y: 0.07024845706137084
    z: 0.0
  angular: 
    x: 0.0
    y: 0.0
    z: 0.0
---
header: 
  seq: 212
  stamp: 
    secs: 1722858650
    nsecs: 513009071
  frame_id: ''
twist: 
  linear: 
    x: 0.5590626277297864
    y: 0.07046311829145267
    z: 0.0
  angular: 
    x: 0.0
    y: 0.0
    z: 0.0
---
header: 
  seq: 213
  stamp: 
    secs: 1722858650
    nsecs: 533727645
  frame_id: ''
twist: 
  linear: 
    x: 0.5590466060914512
    y: 0.07028660538024137
    z: 0.0
  angular: 
    x: 0.0
    y: 0.0
    z: 0.0
---
header: 
  seq: 214
  stamp: 
    secs: 1722858650
    nsecs: 545528411
  frame_id: ''
twist: 
  linear: 
    x: 0.559045581521546
    y: 0.07026094931902496
    z: 0.0
  angular: 
    x: 0.0
    y: 0.0
    z: 0.0
---
header: 
  seq: 215
  stamp: 
    secs: 1722858650
    nsecs: 567267656
  frame_id: ''
twist: 
  linear: 
    x: 0.5590765950166177
    y: 0.07015737619265872
    z: 0.0
  angular: 
    x: 0.0
    y: 0.0
    z: 0.0
---
header: 
  seq: 216
  stamp: 
    secs: 1722858650
    nsecs: 594335079
  frame_id: ''
twist: 
  linear: 
    x: 0.5591055842343499
    y: 0.069883609995134
    z: 0.0
  angular: 
    x: 0.0
    y: 0.0
    z: 0.0
---
header: 
  seq: 217
  stamp: 
    secs: 1722858650
    nsecs: 615373134
  frame_id: ''
twist: 
  linear: 
    x: 0.5591021239532901
    y: 0.06968886988841981
    z: 0.0
  angular: 
    x: 0.0
    y: 0.0
    z: 0.0
---
header: 
  seq: 218
  stamp: 
    secs: 1722858650
    nsecs: 628587007
  frame_id: ''
twist: 
  linear: 
    x: 0.5590861379344119
    y: 0.06945027850018017
    z: 0.0
  angular: 
    x: 0.0
    y: 0.0
    z: 0.0
---
header: 
  seq: 219
  stamp: 
    secs: 1722858650
    nsecs: 640223026
  frame_id: ''
twist: 
  linear: 
    x: 0.5590895212937209
    y: 0.06943578884932111
    z: 0.0
  angular: 
    x: 0.0
    y: 0.0
    z: 0.0
---
header: 
  seq: 220
  stamp: 
    secs: 1722858650
    nsecs: 651252746
  frame_id: ''
twist: 
  linear: 
    x: 0.5591073899656049
    y: 0.0696166597244024
    z: 0.0
  angular: 
    x: 0.0
    y: 0.0
    z: 0.0
---
header: 
  seq: 221
  stamp: 
    secs: 1722858650
    nsecs: 683044433
  frame_id: ''
twist: 
  linear: 
    x: 0.5591219597750227
    y: 0.06975528576322879
    z: 0.0
  angular: 
    x: 0.0
    y: 0.0
    z: 0.0
---
header: 
  seq: 222
  stamp: 
    secs: 1722858650
    nsecs: 700487375
  frame_id: ''
twist: 
  linear: 
    x: 0.5591306285014975
    y: 0.06979104437044292
    z: 0.0
  angular: 
    x: 0.0
    y: 0.0
    z: 0.0
---
header: 
  seq: 223
  stamp: 
    secs: 1722858650
    nsecs: 715514183
  frame_id: ''
twist: 
  linear: 
    x: 0.5591258748253235
    y: 0.06971162793567351
    z: 0.0
  angular: 
    x: 0.0
    y: 0.0
    z: 0.0
---
header: 
  seq: 224
  stamp: 
    secs: 1722858650
    nsecs: 727466344
  frame_id: ''
twist: 
  linear: 
    x: 0.5590954728008876
    y: 0.06931071639177294
    z: 0.0
  angular: 
    x: 0.0
    y: 0.0
    z: 0.0
---
header: 
  seq: 225
  stamp: 
    secs: 1722858650
    nsecs: 743509769
  frame_id: ''
twist: 
  linear: 
    x: 0.5591119786037785
    y: 0.06948219659326296
    z: 0.0
  angular: 
    x: 0.0
    y: 0.0
    z: 0.0
---
header: 
  seq: 226
  stamp: 
    secs: 1722858650
    nsecs: 765611171
  frame_id: ''
twist: 
  linear: 
    x: 0.5591162240482139
    y: 0.06950406779148674
    z: 0.0
  angular: 
    x: 0.0
    y: 0.0
    z: 0.0
---
header: 
  seq: 227
  stamp: 
    secs: 1722858650
    nsecs: 778421401
  frame_id: ''
twist: 
  linear: 
    x: 0.5591078381524519
    y: 0.06936917020752244
    z: 0.0
  angular: 
    x: 0.0
    y: 0.0
    z: 0.0
---
header: 
  seq: 228
  stamp: 
    secs: 1722858650
    nsecs: 784354209
  frame_id: ''
twist: 
  linear: 
    x: 0.5591255105313859
    y: 0.06951447288884224
    z: 0.0
  angular: 
    x: 0.0
    y: 0.0
    z: 0.0
---
header: 
  seq: 229
  stamp: 
    secs: 1722858650
    nsecs: 800214529
  frame_id: ''
twist: 
  linear: 
    x: 0.5591469945704388
    y: 0.06970888799200647
    z: 0.0
  angular: 
    x: 0.0
    y: 0.0
    z: 0.0
---
header: 
  seq: 230
  stamp: 
    secs: 1722858650
    nsecs: 827475786
  frame_id: ''
twist: 
  linear: 
    x: 0.5591046652057804
    y: 0.06896673488845477
    z: 0.0
  angular: 
    x: 0.0
    y: 0.0
    z: 0.0
---
header: 
  seq: 231
  stamp: 
    secs: 1722858650
    nsecs: 867349386
  frame_id: ''
twist: 
  linear: 
    x: 0.5591227659969481
    y: 0.06906974286835696
    z: 0.0
  angular: 
    x: 0.0
    y: 0.0
    z: 0.0
---
header: 
  seq: 232
  stamp: 
    secs: 1722858650
    nsecs: 885140419
  frame_id: ''
twist: 
  linear: 
    x: 0.5591029050152699
    y: 0.06846419909071043
    z: 0.0
  angular: 
    x: 0.0
    y: 0.0
    z: 0.0
---
header: 
  seq: 233
  stamp: 
    secs: 1722858650
    nsecs: 899437427
  frame_id: ''
twist: 
  linear: 
    x: 0.559129015967248
    y: 0.06876096937328055
    z: 0.0
  angular: 
    x: 0.0
    y: 0.0
    z: 0.0
---
header: 
  seq: 234
  stamp: 
    secs: 1722858650
    nsecs: 908245563
  frame_id: ''
twist: 
  linear: 
    x: 0.5591153183900428
    y: 0.06863688422025438
    z: 0.0
  angular: 
    x: 0.0
    y: 0.0
    z: 0.0
---
header: 
  seq: 235
  stamp: 
    secs: 1722858650
    nsecs: 919222593
  frame_id: ''
twist: 
  linear: 
    x: 0.5591287651703866
    y: 0.06879448508951555
    z: 0.0
  angular: 
    x: 0.0
    y: 0.0
    z: 0.0
---
header: 
  seq: 236
  stamp: 
    secs: 1722858650
    nsecs: 933992147
  frame_id: ''
twist: 
  linear: 
    x: 0.5590889436459376
    y: 0.06832202647037953
    z: 0.0
  angular: 
    x: 0.0
    y: 0.0
    z: 0.0
---
header: 
  seq: 237
  stamp: 
    secs: 1722858650
    nsecs: 945518016
  frame_id: ''
twist: 
  linear: 
    x: 0.5591694399783129
    y: 0.06878244200434205
    z: 0.0
  angular: 
    x: 0.0
    y: 0.0
    z: 0.0
---
header: 
  seq: 238
  stamp: 
    secs: 1722858650
    nsecs: 952388048
  frame_id: ''
twist: 
  linear: 
    x: 0.5591469311357871
    y: 0.0684594878882536
    z: 0.0
  angular: 
    x: 0.0
    y: 0.0
    z: 0.0
---
header: 
  seq: 239
  stamp: 
    secs: 1722858650
    nsecs: 965468883
  frame_id: ''
twist: 
  linear: 
    x: 0.5591425402407012
    y: 0.06840273930846988
    z: 0.0
  angular: 
    x: 0.0
    y: 0.0
    z: 0.0
---
header: 
  seq: 240
  stamp: 
    secs: 1722858650
    nsecs: 974658966
  frame_id: ''
twist: 
  linear: 
    x: 0.5591579381812576
    y: 0.06858110369239746
    z: 0.0
  angular: 
    x: 0.0
    y: 0.0
    z: 0.0
---
header: 
  seq: 241
  stamp: 
    secs: 1722858650
    nsecs: 996253490
  frame_id: ''
twist: 
  linear: 
    x: 0.559156866914158
    y: 0.06854901054961204
    z: 0.0
  angular: 
    x: 0.0
    y: 0.0
    z: 0.0
---
header: 
  seq: 242
  stamp: 
    secs: 1722858651
    nsecs:  13433694
  frame_id: ''
twist: 
  linear: 
    x: 0.5591456307393887
    y: 0.06847266353639272
    z: 0.0
  angular: 
    x: 0.0
    y: 0.0
    z: 0.0
---
header: 
  seq: 243
  stamp: 
    secs: 1722858651
    nsecs:  30271530
  frame_id: ''
twist: 
  linear: 
    x: 0.559159250246174
    y: 0.06859363272472754
    z: 0.0
  angular: 
    x: 0.0
    y: 0.0
    z: 0.0
---
header: 
  seq: 244
  stamp: 
    secs: 1722858651
    nsecs:  45172691
  frame_id: ''
twist: 
  linear: 
    x: 0.5591584876905261
    y: 0.0686086036403386
    z: 0.0
  angular: 
    x: 0.0
    y: 0.0
    z: 0.0
---
header: 
  seq: 245
  stamp: 
    secs: 1722858651
    nsecs:  55637598
  frame_id: ''
twist: 
  linear: 
    x: 0.5591693820877948
    y: 0.06870337908059101
    z: 0.0
  angular: 
    x: 0.0
    y: 0.0
    z: 0.0
---
header: 
  seq: 246
  stamp: 
    secs: 1722858651
    nsecs:  72521448
  frame_id: ''
twist: 
  linear: 
    x: 0.5591404305886222
    y: 0.06843660138759482
    z: 0.0
  angular: 
    x: 0.0
    y: 0.0
    z: 0.0
---
header: 
  seq: 247
  stamp: 
    secs: 1722858651
    nsecs:  88894128
  frame_id: ''
twist: 
  linear: 
    x: 0.5591755129994008
    y: 0.06863750642918506
    z: 0.0
  angular: 
    x: 0.0
    y: 0.0
    z: 0.0
---
header: 
  seq: 248
  stamp: 
    secs: 1722858651
    nsecs: 102863550
  frame_id: ''
twist: 
  linear: 
    x: 0.5591455074740047
    y: 0.06833377739079965
    z: 0.0
  angular: 
    x: 0.0
    y: 0.0
    z: 0.0
---
header: 
  seq: 249
  stamp: 
    secs: 1722858651
    nsecs: 122560024
  frame_id: ''
twist: 
  linear: 
    x: 0.5591443508225109
    y: 0.06825159996155895
    z: 0.0
  angular: 
    x: 0.0
    y: 0.0
    z: 0.0
---
header: 
  seq: 250
  stamp: 
    secs: 1722858651
    nsecs: 142508745
  frame_id: ''
twist: 
  linear: 
    x: 0.5591532304235864
    y: 0.06799853264923984
    z: 0.0
  angular: 
    x: 0.0
    y: 0.0
    z: 0.0
---
header: 
  seq: 251
  stamp: 
    secs: 1722858651
    nsecs: 168271064
  frame_id: ''
twist: 
  linear: 
    x: 0.5592017972075369
    y: 0.06844277628085024
    z: 0.0
  angular: 
    x: 0.0
    y: 0.0
    z: 0.0
---
header: 
  seq: 252
  stamp: 
    secs: 1722858651
    nsecs: 183274030
  frame_id: ''
twist: 
  linear: 
    x: 0.5591702759481716
    y: 0.06818977297796738
    z: 0.0
  angular: 
    x: 0.0
    y: 0.0
    z: 0.0
---
header: 
  seq: 253
  stamp: 
    secs: 1722858651
    nsecs: 211678266
  frame_id: ''
twist: 
  linear: 
    x: 0.559169066780116
    y: 0.06767546944390396
    z: 0.0
  angular: 
    x: 0.0
    y: 0.0
    z: 0.0
---
header: 
  seq: 254
  stamp: 
    secs: 1722858651
    nsecs: 228154420
  frame_id: ''
twist: 
  linear: 
    x: 0.5591662387098194
    y: 0.06741492372545595
    z: 0.0
  angular: 
    x: 0.0
    y: 0.0
    z: 0.0
---
header: 
  seq: 255
  stamp: 
    secs: 1722858651
    nsecs: 249752759
  frame_id: ''
twist: 
  linear: 
    x: 0.5591837220454647
    y: 0.06757817444819308
    z: 0.0
  angular: 
    x: 0.0
    y: 0.0
    z: 0.0
---
header: 
  seq: 256
  stamp: 
    secs: 1722858651
    nsecs: 261513233
  frame_id: ''
twist: 
  linear: 
    x: 0.5591622000708258
    y: 0.06729938748373183
    z: 0.0
  angular: 
    x: 0.0
    y: 0.0
    z: 0.0
---
header: 
  seq: 257
  stamp: 
    secs: 1722858651
    nsecs: 276274204
  frame_id: ''
twist: 
  linear: 
    x: 0.5591995083416481
    y: 0.06760500863381891
    z: 0.0
  angular: 
    x: 0.0
    y: 0.0
    z: 0.0
---
header: 
  seq: 258
  stamp: 
    secs: 1722858651
    nsecs: 289928197
  frame_id: ''
twist: 
  linear: 
    x: 0.5591853303766594
    y: 0.0667463337064747
    z: 0.0
  angular: 
    x: 0.0
    y: 0.0
    z: 0.0
---
header: 
  seq: 259
  stamp: 
    secs: 1722858651
    nsecs: 314698696
  frame_id: ''
twist: 
  linear: 
    x: 0.5592107376714908
    y: 0.06695640657370426
    z: 0.0
  angular: 
    x: 0.0
    y: 0.0
    z: 0.0
---
header: 
  seq: 260
  stamp: 
    secs: 1722858651
    nsecs: 335513830
  frame_id: ''
twist: 
  linear: 
    x: 0.5591969880439377
    y: 0.0668404212043841
    z: 0.0
  angular: 
    x: 0.0
    y: 0.0
    z: 0.0
---
header: 
  seq: 261
  stamp: 
    secs: 1722858651
    nsecs: 368636846
  frame_id: ''
twist: 
  linear: 
    x: 0.5592361667245986
    y: 0.0671609882671101
    z: 0.0
  angular: 
    x: 0.0
    y: 0.0
    z: 0.0
---
header: 
  seq: 262
  stamp: 
    secs: 1722858651
    nsecs: 381147146
  frame_id: ''
twist: 
  linear: 
    x: 0.559194119937262
    y: 0.06679234190672204
    z: 0.0
  angular: 
    x: 0.0
    y: 0.0
    z: 0.0
---
header: 
  seq: 263
  stamp: 
    secs: 1722858651
    nsecs: 402402639
  frame_id: ''
twist: 
  linear: 
    x: 0.5592035933693099
    y: 0.06685760258861545
    z: 0.0
  angular: 
    x: 0.0
    y: 0.0
    z: 0.0
---
header: 
  seq: 264
  stamp: 
    secs: 1722858651
    nsecs: 417028188
  frame_id: ''
twist: 
  linear: 
    x: 0.5592018950976654
    y: 0.06683369025919446
    z: 0.0
  angular: 
    x: 0.0
    y: 0.0
    z: 0.0
---
header: 
  seq: 265
  stamp: 
    secs: 1722858651
    nsecs: 431570291
  frame_id: ''
twist: 
  linear: 
    x: 0.5591980661464803
    y: 0.06679540815037352
    z: 0.0
  angular: 
    x: 0.0
    y: 0.0
    z: 0.0
---
header: 
  seq: 266
  stamp: 
    secs: 1722858651
    nsecs: 444503068
  frame_id: ''
twist: 
  linear: 
    x: 0.559165913103458
    y: 0.06647699964723919
    z: 0.0
  angular: 
    x: 0.0
    y: 0.0
    z: 0.0
---
header: 
  seq: 267
  stamp: 
    secs: 1722858651
    nsecs: 457927227
  frame_id: ''
twist: 
  linear: 
    x: 0.5592318440397054
    y: 0.06705164499524831
    z: 0.0
  angular: 
    x: 0.0
    y: 0.0
    z: 0.0
---
header: 
  seq: 268
  stamp: 
    secs: 1722858651
    nsecs: 467517137
  frame_id: ''
twist: 
  linear: 
    x: 0.5592204571462458
    y: 0.06696012469626403
    z: 0.0
  angular: 
    x: 0.0
    y: 0.0
    z: 0.0
---
header: 
  seq: 269
  stamp: 
    secs: 1722858651
    nsecs: 484587430
  frame_id: ''
twist: 
  linear: 
    x: 0.5592205577697229
    y: 0.06694554866365969
    z: 0.0
  angular: 
    x: 0.0
    y: 0.0
    z: 0.0
---
header: 
  seq: 270
  stamp: 
    secs: 1722858651
    nsecs: 499554872
  frame_id: ''
twist: 
  linear: 
    x: 0.5592712593149134
    y: 0.06732781094981648
    z: 0.0
  angular: 
    x: 0.0
    y: 0.0
    z: 0.0
---
header: 
  seq: 271
  stamp: 
    secs: 1722858651
    nsecs: 521308660
  frame_id: ''
twist: 
  linear: 
    x: 0.5592024959566418
    y: 0.06672151644859958
    z: 0.0
  angular: 
    x: 0.0
    y: 0.0
    z: 0.0
---
header: 
  seq: 272
  stamp: 
    secs: 1722858651
    nsecs: 537043571
  frame_id: ''
twist: 
  linear: 
    x: 0.5592164721875065
    y: 0.06610711957576608
    z: 0.0
  angular: 
    x: 0.0
    y: 0.0
    z: 0.0
---
header: 
  seq: 273
  stamp: 
    secs: 1722858651
    nsecs: 568845510
  frame_id: ''
twist: 
  linear: 
    x: 0.559252067120955
    y: 0.06626830154962715
    z: 0.0
  angular: 
    x: 0.0
    y: 0.0
    z: 0.0
---
header: 
  seq: 274
  stamp: 
    secs: 1722858651
    nsecs: 592863082
  frame_id: ''
twist: 
  linear: 
    x: 0.5592696521719707
    y: 0.06639488688850093
    z: 0.0
  angular: 
    x: 0.0
    y: 0.0
    z: 0.0
---
header: 
  seq: 275
  stamp: 
    secs: 1722858651
    nsecs: 603060960
  frame_id: ''
twist: 
  linear: 
    x: 0.5592694126068265
    y: 0.06631778782266456
    z: 0.0
  angular: 
