header: 
  seq: 1803365
  stamp: 
    secs: 1722859091
    nsecs:  42622745
  frame_id: ''
magnetic_x: -9962.6796875
magnetic_y: 5178.7119140625
magnetic_z: 16049.640625
---
header: 
  seq: 1803366
  stamp: 
    secs: 1722859091
    nsecs:  48622745
  frame_id: ''
magnetic_x: -9952.095703125
magnetic_y: 5183.80810546875
magnetic_z: 16058.48828125
---
header: 
  seq: 1803367
  stamp: 
    secs: 1722859091
    nsecs:  54622745
  frame_id: ''
magnetic_x: -9961.111328125
magnetic_y: 5188.90380859375
magnetic_z: 16058.48828125
---
header: 
  seq: 1803368
  stamp: 
    secs: 1722859091
    nsecs:  60622745
  frame_id: ''
magnetic_x: -9954.447265625
magnetic_y: 5181.4560546875
magnetic_z: 16061.6484375
---
header: 
  seq: 1803369
  stamp: 
    secs: 1722859091
    nsecs:  67622745
  frame_id: ''
magnetic_x: -9956.408203125
magnetic_y: 5178.7119140625
magnetic_z: 16052.1689453125
---
header: 
  seq: 1803370
  stamp: 
    secs: 1722859091
    nsecs:  73622745
  frame_id: ''
magnetic_x: -9976.0078125
magnetic_y: 5181.06396484375
magnetic_z: 16045.216796875
---
header: 
  seq: 1803371
  stamp: 
    secs: 1722859091
    nsecs:  79622745
  frame_id: ''
magnetic_x: -9967.3837890625
magnetic_y: 5181.06396484375
magnetic_z: 16067.3369140625
---
header: 
  seq: 1803372
  stamp: 
    secs: 1722859091
    nsecs:  85622745
  frame_id: ''
magnetic_x: -9965.8154296875
magnetic_y: 5183.416015625
magnetic_z: 16037.6328125
---
header: 
  seq: 1803373
  stamp: 
    secs: 1722859091
    nsecs:  91622745
  frame_id: ''
magnetic_x: -9964.6396484375
magnetic_y: 5189.2958984375
magnetic_z: 16058.48828125
---
header: 
  seq: 1803374
  stamp: 
    secs: 1722859091
    nsecs:  97622745
  frame_id: ''
magnetic_x: -9965.0322265625
magnetic_y: 5181.84765625
magnetic_z: 16045.8486328125
---
header: 
  seq: 1803375
  stamp: 
    secs: 1722859091
    nsecs: 102622745
  frame_id: ''
magnetic_x: -9953.6640625
magnetic_y: 5184.19970703125
magnetic_z: 16053.4326171875
---
header: 
  seq: 1803376
  stamp: 
    secs: 1722859091
    nsecs: 109622745
  frame_id: ''
magnetic_x: -9957.583984375
magnetic_y: 5184.19970703125
magnetic_z: 16030.048828125
---
header: 
  seq: 1803377
  stamp: 
    secs: 1722859091
    nsecs: 115622745
  frame_id: ''
magnetic_x: -9968.5595703125
magnetic_y: 5184.19970703125
magnetic_z: 16051.537109375
---
header: 
  seq: 1803378
  stamp: 
    secs: 1722859091
    nsecs: 121622745
  frame_id: ''
magnetic_x: -9969.34375
magnetic_y: 5186.5517578125
magnetic_z: 16060.384765625
---
header: 
  seq: 1803379
  stamp: 
    secs: 1722859091
    nsecs: 127622745
  frame_id: ''
magnetic_x: -9962.2880859375
magnetic_y: 5184.591796875
magnetic_z: 16074.2890625
---
header: 
  seq: 1803380
  stamp: 
    secs: 1722859091
    nsecs: 133622745
  frame_id: ''
magnetic_x: -9963.85546875
magnetic_y: 5178.7119140625
magnetic_z: 16058.48828125
---
header: 
  seq: 1803381
  stamp: 
    secs: 1722859091
    nsecs: 139622745
  frame_id: ''
magnetic_x: -9958.759765625
magnetic_y: 5175.18408203125
magnetic_z: 16045.216796875
---
header: 
  seq: 1803382
  stamp: 
    secs: 1722859091
    nsecs: 145622745
  frame_id: ''
magnetic_x: -9956.408203125
magnetic_y: 5177.14404296875
magnetic_z: 16050.2724609375
---
header: 
  seq: 1803383
  stamp: 
    secs: 1722859091
    nsecs: 152622745
  frame_id: ''
magnetic_x: -9960.7197265625
magnetic_y: 5179.8876953125
magnetic_z: 16047.7451171875
---
header: 
  seq: 1803384
  stamp: 
    secs: 1722859091
    nsecs: 158622745
  frame_id: ''
magnetic_x: -9965.8154296875
magnetic_y: 5185.76806640625
magnetic_z: 16060.384765625
---
header: 
  seq: 1803385
  stamp: 
    secs: 1722859091
    nsecs: 164622745
  frame_id: ''
magnetic_x: -9964.6396484375
magnetic_y: 5179.8876953125
magnetic_z: 16055.3291015625
---
header: 
  seq: 1803386
  stamp: 
    secs: 1722859091
    nsecs: 170622745
  frame_id: ''
magnetic_x: -9972.087890625
magnetic_y: 5181.4560546875
magnetic_z: 16055.3291015625
---
header: 
  seq: 1803387
  stamp: 
    secs: 1722859091
    nsecs: 176622745
  frame_id: ''
magnetic_x: -9975.2236328125
magnetic_y: 5177.927734375
magnetic_z: 16074.2890625
---
header: 
  seq: 1803388
  stamp: 
    secs: 1722859091
    nsecs: 182622745
  frame_id: ''
magnetic_x: -9955.6240234375
magnetic_y: 5179.49609375
magnetic_z: 16072.392578125
---
header: 
  seq: 1803389
  stamp: 
    secs: 1722859091
    nsecs: 188622745
  frame_id: ''
magnetic_x: -9956.408203125
magnetic_y: 5183.416015625
magnetic_z: 16055.9609375
---
header: 
  seq: 1803390
  stamp: 
    secs: 1722859091
    nsecs: 195622745
  frame_id: ''
magnetic_x: -9961.8955078125
magnetic_y: 5179.49609375
magnetic_z: 16049.640625
---
header: 
  seq: 1803391
  stamp: 
    secs: 1722859091
    nsecs: 201622745
  frame_id: ''
magnetic_x: -9964.248046875
magnetic_y: 5184.98388671875
magnetic_z: 16050.904296875
---
header: 
  seq: 1803392
  stamp: 
    secs: 1722859091
    nsecs: 207622745
  frame_id: ''
magnetic_x: -9964.248046875
magnetic_y: 5181.84765625
magnetic_z: 16045.216796875
---
header: 
  seq: 1803393
  stamp: 
    secs: 1722859091
    nsecs: 213622745
  frame_id: ''
magnetic_x: -9966.2080078125
magnetic_y: 5181.4560546875
magnetic_z: 16060.384765625
---
header: 
  seq: 1803394
  stamp: 
    secs: 1722859091
    nsecs: 219622745
  frame_id: ''
magnetic_x: -9962.6796875
magnetic_y: 5178.31982421875
magnetic_z: 16063.544921875
---
header: 
  seq: 1803395
  stamp: 
    secs: 1722859091
    nsecs: 225622745
  frame_id: ''
magnetic_x: -9952.095703125
magnetic_y: 5191.255859375
magnetic_z: 16068.6005859375
---
header: 
  seq: 1803396
  stamp: 
    secs: 1722859091
    nsecs: 231622745
  frame_id: ''
magnetic_x: -9965.423828125
magnetic_y: 5181.06396484375
magnetic_z: 16054.6962890625
---
header: 
  seq: 1803397
  stamp: 
    secs: 1722859091
    nsecs: 238622745
  frame_id: ''
magnetic_x: -9969.7353515625
magnetic_y: 5184.591796875
magnetic_z: 16048.376953125
---
header: 
  seq: 1803398
  stamp: 
    secs: 1722859091
    nsecs: 244622745
  frame_id: ''
magnetic_x: -9960.328125
magnetic_y: 5177.14404296875
magnetic_z: 16059.7529296875
---
header: 
  seq: 1803399
  stamp: 
    secs: 1722859091
    nsecs: 250622745
  frame_id: ''
magnetic_x: -9952.8798828125
magnetic_y: 5182.6318359375
magnetic_z: 16064.1767578125
---
header: 
  seq: 1803400
  stamp: 
    secs: 1722859091
    nsecs: 256622745
  frame_id: ''
magnetic_x: -9955.2314453125
magnetic_y: 5184.98388671875
magnetic_z: 16076.1845703125
---
header: 
  seq: 1803401
  stamp: 
    secs: 1722859091
    nsecs: 262622745
  frame_id: ''
magnetic_x: -9969.7353515625
magnetic_y: 5182.23974609375
magnetic_z: 16067.96875
---
header: 
  seq: 1803402
  stamp: 
    secs: 1722859091
    nsecs: 268622745
  frame_id: ''
magnetic_x: -9965.423828125
magnetic_y: 5181.84765625
magnetic_z: 16068.6005859375
---
header: 
  seq: 1803403
  stamp: 
    secs: 1722859091
    nsecs: 274622745
  frame_id: ''
magnetic_x: -9962.2880859375
magnetic_y: 5183.02392578125
magnetic_z: 16050.2724609375
---
header: 
  seq: 1803404
  stamp: 
    secs: 1722859091
    nsecs: 281622745
  frame_id: ''
magnetic_x: -9963.85546875
magnetic_y: 5181.4560546875
magnetic_z: 16049.0087890625
---
header: 
  seq: 1803405
  stamp: 
    secs: 1722859091
    nsecs: 287622745
  frame_id: ''
magnetic_x: -9961.111328125
magnetic_y: 5187.3359375
magnetic_z: 16062.9130859375
---
header: 
  seq: 1803406
  stamp: 
    secs: 1722859091
    nsecs: 293622745
  frame_id: ''
magnetic_x: -9958.759765625
magnetic_y: 5183.416015625
magnetic_z: 16051.537109375
---
header: 
  seq: 1803407
  stamp: 
    secs: 1722859091
    nsecs: 299622745
  frame_id: ''
magnetic_x: -9963.85546875
magnetic_y: 5183.80810546875
magnetic_z: 16053.4326171875
---
header: 
  seq: 1803408
  stamp: 
    secs: 1722859091
    nsecs: 305622745
  frame_id: ''
magnetic_x: -9964.248046875
magnetic_y: 5185.76806640625
magnetic_z: 16060.384765625
---
header: 
  seq: 1803409
  stamp: 
    secs: 1722859091
    nsecs: 311622745
  frame_id: ''
magnetic_x: -9978.751953125
magnetic_y: 5180.671875
magnetic_z: 16070.4970703125
---
header: 
  seq: 1803410
  stamp: 
    secs: 1722859091
    nsecs: 318622745
  frame_id: ''
magnetic_x: -9970.1279296875
magnetic_y: 5180.671875
magnetic_z: 16050.2724609375
---
header: 
  seq: 1803411
  stamp: 
    secs: 1722859091
    nsecs: 324622745
  frame_id: ''
magnetic_x: -9971.3037109375
magnetic_y: 5182.6318359375
magnetic_z: 16061.0166015625
---
header: 
  seq: 1803412
  stamp: 
    secs: 1722859091
    nsecs: 330622745
  frame_id: ''
magnetic_x: -9968.5595703125
magnetic_y: 5182.6318359375
magnetic_z: 16052.80078125
---
header: 
  seq: 1803413
  stamp: 
    secs: 1722859091
    nsecs: 336622745
  frame_id: ''
magnetic_x: -9957.9755859375
magnetic_y: 5176.751953125
magnetic_z: 16046.48046875
---
header: 
  seq: 1803414
  stamp: 
    secs: 1722859091
    nsecs: 342622745
  frame_id: ''
magnetic_x: -9963.0712890625
magnetic_y: 5178.7119140625
magnetic_z: 16040.1611328125
---
header: 
  seq: 1803415
  stamp: 
    secs: 1722859091
    nsecs: 348622745
  frame_id: ''
magnetic_x: -9970.51953125
magnetic_y: 5184.98388671875
magnetic_z: 16037.6328125
---
header: 
  seq: 1803416
  stamp: 
    secs: 1722859091
    nsecs: 354622745
  frame_id: ''
magnetic_x: -9963.0712890625
magnetic_y: 5182.23974609375
magnetic_z: 16057.8564453125
---
header: 
  seq: 1803417
  stamp: 
    secs: 1722859091
    nsecs: 361622745
  frame_id: ''
magnetic_x: -9963.0712890625
magnetic_y: 5186.15966796875
magnetic_z: 16057.224609375
---
header: 
  seq: 1803418
  stamp: 
    secs: 1722859091
    nsecs: 366622745
  frame_id: ''
magnetic_x: -9962.6796875
magnetic_y: 5180.27978515625
magnetic_z: 16061.6484375
---
header: 
  seq: 1803419
  stamp: 
    secs: 1722859091
    nsecs: 372622745
  frame_id: ''
magnetic_x: -9969.34375
magnetic_y: 5180.27978515625
magnetic_z: 16041.4248046875
---
header: 
  seq: 1803420
  stamp: 
    secs: 1722859091
    nsecs: 378622745
  frame_id: ''
magnetic_x: -9958.759765625
magnetic_y: 5178.31982421875
magnetic_z: 16064.80859375
---
header: 
  seq: 1803421
  stamp: 
    secs: 1722859091
    nsecs: 384622745
  frame_id: ''
magnetic_x: -9966.2080078125
magnetic_y: 5176.35986328125
magnetic_z: 16064.1767578125
---
header: 
  seq: 1803422
  stamp: 
    secs: 1722859091
    nsecs: 390622745
  frame_id: ''
magnetic_x: -9957.19140625
magnetic_y: 5176.35986328125
magnetic_z: 16059.7529296875
---
header: 
  seq: 1803423
  stamp: 
    secs: 1722859091
    nsecs: 396622745
  frame_id: ''
magnetic_x: -9970.1279296875
magnetic_y: 5185.76806640625
magnetic_z: 16067.96875
---
header: 
  seq: 1803424
  stamp: 
    secs: 1722859091
    nsecs: 402622745
  frame_id: ''
magnetic_x: -9966.9921875
magnetic_y: 5183.02392578125
magnetic_z: 16066.072265625
---
header: 
  seq: 1803425
  stamp: 
    secs: 1722859091
    nsecs: 409622745
  frame_id: ''
magnetic_x: -9969.34375
magnetic_y: 5186.94384765625
magnetic_z: 16062.9130859375
---
header: 
  seq: 1803426
  stamp: 
    secs: 1722859091
    nsecs: 415622745
  frame_id: ''
magnetic_x: -9954.83984375
magnetic_y: 5178.7119140625
magnetic_z: 16054.6962890625
---
header: 
  seq: 1803427
  stamp: 
    secs: 1722859091
    nsecs: 421622745
  frame_id: ''
magnetic_x: -9955.2314453125
magnetic_y: 5183.416015625
magnetic_z: 16047.1123046875
---
header: 
  seq: 1803428
  stamp: 
    secs: 1722859091
    nsecs: 427622745
  frame_id: ''
magnetic_x: -9969.7353515625
magnetic_y: 5175.57568359375
magnetic_z: 16062.9130859375
---
header: 
  seq: 1803429
  stamp: 
    secs: 1722859091
    nsecs: 433622745
  frame_id: ''
magnetic_x: -9956.7998046875
magnetic_y: 5174.7919921875
magnetic_z: 16036.369140625
---
header: 
  seq: 1803430
  stamp: 
    secs: 1722859091
    nsecs: 439622745
  frame_id: ''
magnetic_x: -9964.248046875
magnetic_y: 5179.8876953125
magnetic_z: 16057.224609375
---
header: 
  seq: 1803431
  stamp: 
    secs: 1722859091
    nsecs: 446622745
  frame_id: ''
magnetic_x: -9961.8955078125
magnetic_y: 5189.2958984375
magnetic_z: 16061.6484375
---
header: 
  seq: 1803432
  stamp: 
    secs: 1722859091
    nsecs: 452622745
  frame_id: ''
magnetic_x: -9962.6796875
magnetic_y: 5187.72802734375
magnetic_z: 16057.224609375
---
header: 
  seq: 1803433
  stamp: 
    secs: 1722859091
    nsecs: 458622745
  frame_id: ''
magnetic_x: -9964.248046875
magnetic_y: 5181.84765625
magnetic_z: 16043.953125
---
header: 
  seq: 1803434
  stamp: 
    secs: 1722859091
    nsecs: 464622745
  frame_id: ''
magnetic_x: -9974.0478515625
magnetic_y: 5184.98388671875
magnetic_z: 16054.064453125
---
header: 
  seq: 1803435
  stamp: 
    secs: 1722859091
    nsecs: 470622745
  frame_id: ''
magnetic_x: -9968.5595703125
magnetic_y: 5175.9677734375
magnetic_z: 16050.904296875
---
header: 
  seq: 1803436
  stamp: 
    secs: 1722859091
    nsecs: 476622745
  frame_id: ''
magnetic_x: -9959.935546875
magnetic_y: 5174.39990234375
magnetic_z: 16063.544921875
---
header: 
  seq: 1803437
  stamp: 
    secs: 1722859091
    nsecs: 482622745
  frame_id: ''
magnetic_x: -9968.5595703125
magnetic_y: 5184.591796875
magnetic_z: 16062.2802734375
---
header: 
  seq: 1803438
  stamp: 
    secs: 1722859091
    nsecs: 489622745
  frame_id: ''
magnetic_x: -9950.1357421875
magnetic_y: 5183.416015625
magnetic_z: 16061.0166015625
---
header: 
  seq: 1803439
  stamp: 
    secs: 1722859091
    nsecs: 495622745
  frame_id: ''
magnetic_x: -9960.328125
magnetic_y: 5184.19970703125
magnetic_z: 16060.384765625
---
header: 
  seq: 1803440
  stamp: 
    secs: 1722859091
    nsecs: 501622745
  frame_id: ''
magnetic_x: -9965.423828125
magnetic_y: 5185.3759765625
magnetic_z: 16069.232421875
---
header: 
  seq: 1803441
  stamp: 
    secs: 1722859091
    nsecs: 507622745
  frame_id: ''
magnetic_x: -9957.583984375
magnetic_y: 5178.7119140625
magnetic_z: 16051.537109375
---
header: 
  seq: 1803442
  stamp: 
    secs: 1722859091
    nsecs: 513622745
  frame_id: ''
magnetic_x: -9963.4638671875
magnetic_y: 5180.671875
magnetic_z: 16057.8564453125
---
header: 
  seq: 1803443
  stamp: 
    secs: 1722859091
    nsecs: 519622745
  frame_id: ''
magnetic_x: -9963.4638671875
magnetic_y: 5174.39990234375
magnetic_z: 16050.2724609375
---
header: 
  seq: 1803444
  stamp: 
    secs: 1722859091
    nsecs: 525622745
  frame_id: ''
magnetic_x: -9959.5439453125
magnetic_y: 5184.19970703125
magnetic_z: 16076.1845703125
---
header: 
  seq: 1803445
  stamp: 
    secs: 1722859091
    nsecs: 532622745
  frame_id: ''
magnetic_x: -9963.85546875
magnetic_y: 5182.6318359375
magnetic_z: 16060.384765625
---
header: 
  seq: 1803446
  stamp: 
    secs: 1722859091
    nsecs: 538622745
  frame_id: ''
magnetic_x: -9963.4638671875
magnetic_y: 5195.9599609375
magnetic_z: 16054.6962890625
---
header: 
  seq: 1803447
  stamp: 
    secs: 1722859091
    nsecs: 544622745
  frame_id: ''
magnetic_x: -9948.5673828125
magnetic_y: 5186.15966796875
magnetic_z: 16069.232421875
---
header: 
  seq: 1803448
  stamp: 
    secs: 1722859091
    nsecs: 550622745
  frame_id: ''
magnetic_x: -9969.34375
magnetic_y: 5188.11962890625
magnetic_z: 16054.6962890625
---
header: 
  seq: 1803449
  stamp: 
    secs: 1722859091
    nsecs: 556622745
  frame_id: ''
magnetic_x: -9966.599609375
magnetic_y: 5179.8876953125
magnetic_z: 16061.6484375
---
header: 
  seq: 1803450
  stamp: 
    secs: 1722859091
    nsecs: 562622745
  frame_id: ''
magnetic_x: -9963.85546875
magnetic_y: 5176.751953125
magnetic_z: 16061.6484375
---
header: 
  seq: 1803451
  stamp: 
    secs: 1722859091
    nsecs: 568622745
  frame_id: ''
magnetic_x: -9961.8955078125
magnetic_y: 5182.23974609375
magnetic_z: 16045.216796875
---
header: 
  seq: 1803452
  stamp: 
    secs: 1722859091
    nsecs: 575622745
  frame_id: ''
magnetic_x: -9957.9755859375
magnetic_y: 5185.3759765625
magnetic_z: 16046.48046875
---
header: 
  seq: 1803453
  stamp: 
    secs: 1722859091
    nsecs: 581622745
  frame_id: ''
magnetic_x: -9963.0712890625
magnetic_y: 5185.76806640625
magnetic_z: 16062.9130859375
---
header: 
  seq: 1803454
  stamp: 
    secs: 1722859091
    nsecs: 587622745
  frame_id: ''
magnetic_x: -9969.34375
magnetic_y: 5174.0078125
magnetic_z: 16052.80078125
---
header: 
  seq: 1803455
  stamp: 
    secs: 1722859091
    nsecs: 593622745
  frame_id: ''
magnetic_x: -9964.6396484375
magnetic_y: 5182.6318359375
magnetic_z: 16067.96875
---
header: 
  seq: 1803456
  stamp: 
    secs: 1722859091
    nsecs: 599622745
  frame_id: ''
magnetic_x: -9954.0556640625
magnetic_y: 5177.14404296875
magnetic_z: 16069.8642578125
---
header: 
  seq: 1803457
  stamp: 
    secs: 1722859091
    nsecs: 605622745
  frame_id: ''
magnetic_x: -9965.8154296875
magnetic_y: 5170.087890625
magnetic_z: 16052.1689453125
---
header: 
  seq: 1803458
  stamp: 
    secs: 1722859091
    nsecs: 611622745
  frame_id: ''
magnetic_x: -9960.328125
magnetic_y: 5188.11962890625
magnetic_z: 16057.224609375
---
header: 
  seq: 1803459
  stamp: 
    secs: 1722859091
    nsecs: 618622745
  frame_id: ''
magnetic_x: -9960.328125
magnetic_y: 5178.31982421875
magnetic_z: 16054.6962890625
---
header: 
  seq: 1803460
  stamp: 
    secs: 1722859091
    nsecs: 624622745
  frame_id: ''
magnetic_x: -9965.0322265625
magnetic_y: 5183.02392578125
magnetic_z: 16066.072265625
---
header: 
  seq: 1803461
  stamp: 
    secs: 1722859091
    nsecs: 629622745
  frame_id: ''
magnetic_x: -9952.4873046875
magnetic_y: 5177.927734375
magnetic_z: 16048.376953125
---
header: 
  seq: 1803462
  stamp: 
    secs: 1722859091
    nsecs: 635622745
  frame_id: ''
magnetic_x: -9961.8955078125
magnetic_y: 5185.76806640625
magnetic_z: 16045.8486328125
---
header: 
  seq: 1803463
  stamp: 
    secs: 1722859091
    nsecs: 641622745
  frame_id: ''
magnetic_x: -9962.2880859375
magnetic_y: 5182.23974609375
magnetic_z: 16050.2724609375
---
header: 
  seq: 1803464
  stamp: 
    secs: 1722859091
    nsecs: 647622745
  frame_id: ''
magnetic_x: -9962.6796875
magnetic_y: 5173.61572265625
magnetic_z: 16047.7451171875
---
header: 
  seq: 1803465
  stamp: 
    secs: 1722859091
    nsecs: 653622745
  frame_id: ''
magnetic_x: -9973.263671875
magnetic_y: 5184.591796875
magnetic_z: 16057.224609375
---
header: 
  seq: 1803466
  stamp: 
    secs: 1722859091
    nsecs: 660622745
  frame_id: ''
magnetic_x: -9966.9921875
magnetic_y: 5181.4560546875
magnetic_z: 16047.1123046875
---
header: 
  seq: 1803467
  stamp: 
    secs: 1722859091
    nsecs: 666622745
  frame_id: ''
magnetic_x: -9968.9521484375
magnetic_y: 5181.4560546875
magnetic_z: 16052.80078125
---
header: 
  seq: 1803468
  stamp: 
    secs: 1722859091
    nsecs: 672622745
  frame_id: ''
magnetic_x: -9968.16796875
magnetic_y: 5190.4716796875
magnetic_z: 16052.1689453125
---
header: 
  seq: 1803469
  stamp: 
    secs: 1722859091
    nsecs: 678622745
  frame_id: ''
magnetic_x: -9952.4873046875
magnetic_y: 5189.2958984375
magnetic_z: 16050.904296875
---
header: 
  seq: 1803470
  stamp: 
    secs: 1722859091
    nsecs: 684622745
  frame_id: ''
magnetic_x: -9962.6796875
magnetic_y: 5171.263671875
magnetic_z: 16060.384765625
---
header: 
  seq: 1803471
  stamp: 
    secs: 1722859091
    nsecs: 690622745
  frame_id: ''
magnetic_x: -9971.3037109375
magnetic_y: 5183.02392578125
magnetic_z: 16047.1123046875
---
header: 
  seq: 1803472
  stamp: 
    secs: 1722859091
    nsecs: 696622745
  frame_id: ''
magnetic_x: -9975.2236328125
magnetic_y: 5176.35986328125
magnetic_z: 16063.544921875
---
header: 
  seq: 1803473
  stamp: 
    secs: 1722859091
    nsecs: 703622745
  frame_id: ''
magnetic_x: -9961.50390625
magnetic_y: 5184.98388671875
magnetic_z: 16057.224609375
---
header: 
  seq: 1803474
  stamp: 
    secs: 1722859091
    nsecs: 709622745
  frame_id: ''
magnetic_x: -9970.1279296875
magnetic_y: 5173.61572265625
magnetic_z: 16051.537109375
---
header: 
  seq: 1803475
  stamp: 
    secs: 1722859091
    nsecs: 715622745
  frame_id: ''
magnetic_x: -9966.9921875
magnetic_y: 5180.671875
magnetic_z: 16043.3203125
---
header: 
  seq: 1803476
  stamp: 
    secs: 1722859091
    nsecs: 721622745
  frame_id: ''
magnetic_x: -9961.111328125
magnetic_y: 5185.76806640625
magnetic_z: 16069.232421875
---
header: 
  seq: 1803477
  stamp: 
    secs: 1722859091
    nsecs: 727622745
  frame_id: ''
magnetic_x: -9964.6396484375
magnetic_y: 5178.7119140625
magnetic_z: 16048.376953125
---
header: 
  seq: 1803478
  stamp: 
    secs: 1722859091
    nsecs: 733622745
  frame_id: ''
magnetic_x: -9957.9755859375
magnetic_y: 5180.27978515625
magnetic_z: 16052.80078125
---
header: 
  seq: 1803479
  stamp: 
    secs: 1722859091
    nsecs: 739622745
  frame_id: ''
magnetic_x: -9963.4638671875
magnetic_y: 5178.31982421875
magnetic_z: 16054.6962890625
---
header: 
  seq: 1803480
  stamp: 
    secs: 1722859091
    nsecs: 746622745
  frame_id: ''
magnetic_x: -9961.111328125
magnetic_y: 5179.8876953125
magnetic_z: 16065.4404296875
---
header: 
  seq: 1803481
  stamp: 
    secs: 1722859091
    nsecs: 752622745
  frame_id: ''
magnetic_x: -9964.248046875
magnetic_y: 5181.4560546875
magnetic_z: 16065.4404296875
---
header: 
  seq: 1803482
  stamp: 
    secs: 1722859091
    nsecs: 758622745
  frame_id: ''
magnetic_x: -9964.248046875
magnetic_y: 5183.416015625
magnetic_z: 16040.79296875
---
header: 
  seq: 1803483
  stamp: 
    secs: 1722859091
    nsecs: 764622745
  frame_id: ''
magnetic_x: -9970.912109375
magnetic_y: 5180.27978515625
magnetic_z: 16040.1611328125
---
header: 
  seq: 1803484
  stamp: 
    secs: 1722859091
    nsecs: 770622745
  frame_id: ''
magnetic_x: -9966.599609375
magnetic_y: 5177.14404296875
magnetic_z: 16049.0087890625
---
header: 
  seq: 1803485
  stamp: 
    secs: 1722859091
    nsecs: 776622745
  frame_id: ''
magnetic_x: -9958.3681640625
magnetic_y: 5177.14404296875
magnetic_z: 16059.12109375
---
header: 
  seq: 1803486
  stamp: 
    secs: 1722859091
    nsecs: 782622745
  frame_id: ''
magnetic_x: -9958.759765625
magnetic_y: 5182.6318359375
magnetic_z: 16074.2890625
---
header: 
  seq: 1803487
  stamp: 
    secs: 1722859091
    nsecs: 789622745
  frame_id: ''
magnetic_x: -9961.111328125
magnetic_y: 5179.49609375
magnetic_z: 16059.7529296875
---
header: 
  seq: 1803488
  stamp: 
    secs: 1722859091
    nsecs: 795622745
  frame_id: ''
magnetic_x: -9962.6796875
magnetic_y: 5182.23974609375
magnetic_z: 16067.3369140625
---
header: 
  seq: 1803489
  stamp: 
    secs: 1722859091
    nsecs: 801622745
  frame_id: ''
magnetic_x: -9960.7197265625
magnetic_y: 5174.39990234375
magnetic_z: 16055.3291015625
---
header: 
  seq: 1803490
  stamp: 
    secs: 1722859091
    nsecs: 807622745
  frame_id: ''
magnetic_x: -9960.7197265625
magnetic_y: 5177.927734375
magnetic_z: 16061.0166015625
---
header: 
  seq: 1803491
  stamp: 
    secs: 1722859091
    nsecs: 813622745
  frame_id: ''
magnetic_x: -9968.5595703125
magnetic_y: 5188.11962890625
magnetic_z: 16050.2724609375
---
header: 
  seq: 1803492
  stamp: 
    secs: 1722859091
    nsecs: 819622745
  frame_id: ''
magnetic_x: -9965.423828125
magnetic_y: 5181.06396484375
magnetic_z: 16043.953125
---
header: 
  seq: 1803493
  stamp: 
    secs: 1722859091
    nsecs: 825622745
  frame_id: ''
magnetic_x: -9962.2880859375
magnetic_y: 5179.49609375
magnetic_z: 16063.544921875
---
header: 
  seq: 1803494
  stamp: 
    secs: 1722859091
    nsecs: 832622745
  frame_id: ''
magnetic_x: -9961.111328125
magnetic_y: 5183.02392578125
magnetic_z: 16068.6005859375
---
header: 
  seq: 1803495
  stamp: 
    secs: 1722859091
    nsecs: 838622745
  frame_id: ''
magnetic_x: -9962.2880859375
magnetic_y: 5180.27978515625
magnetic_z: 16057.224609375
---
header: 
  seq: 1803496
  stamp: 
    secs: 1722859091
    nsecs: 844622745
  frame_id: ''
magnetic_x: -9972.4794921875
magnetic_y: 5182.23974609375
magnetic_z: 16061.6484375
---
header: 
  seq: 1803497
  stamp: 
    secs: 1722859091
    nsecs: 850622745
  frame_id: ''
magnetic_x: -9960.7197265625
magnetic_y: 5179.10400390625
magnetic_z: 16049.640625
---
header: 
  seq: 1803498
  stamp: 
    secs: 1722859091
    nsecs: 856622745
  frame_id: ''
magnetic_x: -9963.85546875
magnetic_y: 5186.5517578125
magnetic_z: 16069.232421875
---
header: 
  seq: 1803499
  stamp: 
    secs: 1722859091
    nsecs: 862622745
  frame_id: ''
magnetic_x: -9957.9755859375
magnetic_y: 5179.8876953125
magnetic_z: 16061.0166015625
---
header: 
  seq: 1803500
  stamp: 
    secs: 1722859091
    nsecs: 868622745
  frame_id: ''
magnetic_x: -9964.248046875
magnetic_y: 5178.7119140625
magnetic_z: 16056.5927734375
---
header: 
  seq: 1803501
  stamp: 
    secs: 1722859091
    nsecs: 875622745
  frame_id: ''
magnetic_x: -9965.423828125
magnetic_y: 5179.8876953125
magnetic_z: 16080.6083984375
---
header: 
  seq: 1803502
  stamp: 
    secs: 1722859091
    nsecs: 881622745
  frame_id: ''
magnetic_x: -9960.7197265625
magnetic_y: 5190.86376953125
magnetic_z: 16044.5849609375
---
header: 
  seq: 1803503
  stamp: 
    secs: 1722859091
    nsecs: 886622745
  frame_id: ''
magnetic_x: -9964.6396484375
magnetic_y: 5180.671875
magnetic_z: 16044.5849609375
---
header: 
  seq: 1803504
  stamp: 
    secs: 1722859091
    nsecs: 892622745
  frame_id: ''
magnetic_x: -9969.34375
magnetic_y: 5175.57568359375
magnetic_z: 16042.056640625
---
header: 
  seq: 1803505
  stamp: 
    secs: 1722859091
    nsecs: 898622745
  frame_id: ''
magnetic_x: -9971.3037109375
magnetic_y: 5188.51171875
magnetic_z: 16054.064453125
---
header: 
  seq: 1803506
  stamp: 
    secs: 1722859091
    nsecs: 904622745
  frame_id: ''
magnetic_x: -9964.6396484375
magnetic_y: 5174.39990234375
magnetic_z: 16055.9609375
---
header: 
  seq: 1803507
  stamp: 
    secs: 1722859091
    nsecs: 910622745
  frame_id: ''
magnetic_x: -9962.2880859375
magnetic_y: 5177.53564453125
magnetic_z: 16054.064453125
---
header: 
  seq: 1803508
  stamp: 
    secs: 1722859091
    nsecs: 917622745
  frame_id: ''
magnetic_x: -9968.16796875
magnetic_y: 5183.02392578125
magnetic_z: 16057.8564453125
---
header: 
  seq: 1803509
  stamp: 
    secs: 1722859091
    nsecs: 923622745
  frame_id: ''
magnetic_x: -9969.7353515625
magnetic_y: 5182.23974609375
magnetic_z: 16072.392578125
---
header: 
  seq: 1803510
  stamp: 
    secs: 1722859091
    nsecs: 929622745
  frame_id: ''
magnetic_x: -9961.8955078125
magnetic_y: 5170.8720703125
magnetic_z: 16043.953125
---
header: 
  seq: 1803511
  stamp: 
    secs: 1722859091
    nsecs: 935622745
  frame_id: ''
magnetic_x: -9961.111328125
magnetic_y: 5180.27978515625
magnetic_z: 16065.4404296875
---
header: 
  seq: 1803512
  stamp: 
    secs: 1722859091
    nsecs: 941622745
  frame_id: ''
magnetic_x: -9954.447265625
magnetic_y: 5174.7919921875
magnetic_z: 16046.48046875
---
header: 
  seq: 1803513
  stamp: 
    secs: 1722859091
    nsecs: 947622745
  frame_id: ''
magnetic_x: -9967.775390625
magnetic_y: 5176.751953125
magnetic_z: 16053.4326171875
---
header: 
  seq: 1803514
  stamp: 
    secs: 1722859091
    nsecs: 953622745
  frame_id: ''
magnetic_x: -9963.85546875
magnetic_y: 5184.98388671875
magnetic_z: 16049.640625
---
header: 
  seq: 1803515
  stamp: 
    secs: 1722859091
    nsecs: 960622745
  frame_id: ''
magnetic_x: -9961.111328125
magnetic_y: 5180.671875
magnetic_z: 16074.9208984375
---
header: 
  seq: 1803516
  stamp: 
    secs: 1722859091
    nsecs: 966622745
  frame_id: ''
magnetic_x: -9956.408203125
magnetic_y: 5177.14404296875
magnetic_z: 16066.072265625
---
header: 
  seq: 1803517
  stamp: 
    secs: 1722859091
    nsecs: 972622745
  frame_id: ''
magnetic_x: -9962.2880859375
magnetic_y: 5181.84765625
magnetic_z: 16050.2724609375
---
header: 
  seq: 1803518
  stamp: 
    secs: 1722859091
    nsecs: 978622745
  frame_id: ''
magnetic_x: -9959.935546875
magnetic_y: 5179.8876953125
magnetic_z: 16054.064453125
---
header: 
  seq: 1803519
  stamp: 
    secs: 1722859091
    nsecs: 984622745
  frame_id: ''
magnetic_x: -9947.3916015625
magnetic_y: 5179.49609375
magnetic_z: 16061.0166015625
---
header: 
  seq: 1803520
  stamp: 
    secs: 1722859091
    nsecs: 990622745
  frame_id: ''
magnetic_x: -9959.1513671875
magnetic_y: 5188.90380859375
magnetic_z: 16050.904296875
---
header: 
  seq: 1803521
  stamp: 
    secs: 1722859091
    nsecs: 996622745
  frame_id: ''
magnetic_x: -9956.7998046875
magnetic_y: 5168.91162109375
magnetic_z: 16045.216796875
---
header: 
  seq: 1803522
  stamp: 
    secs: 1722859092
    nsecs:   3622745
  frame_id: ''
magnetic_x: -9958.3681640625
magnetic_y: 5174.7919921875
magnetic_z: 16055.3291015625
---
header: 
  seq: 1803523
  stamp: 
    secs: 1722859092
    nsecs:   9622745
  frame_id: ''
magnetic_x: -9955.2314453125
magnetic_y: 5180.671875
magnetic_z: 16057.8564453125
---
header: 
  seq: 1803524
  stamp: 
    secs: 1722859092
    nsecs:  15622745
  frame_id: ''
magnetic_x: -9963.0712890625
magnetic_y: 5181.4560546875
magnetic_z: 16049.0087890625
---
header: 
  seq: 1803525
  stamp: 
    secs: 1722859092
    nsecs:  21622745
  frame_id: ''
magnetic_x: -9966.9921875
magnetic_y: 5176.751953125
magnetic_z: 16040.79296875
---
header: 
  seq: 1803526
  stamp: 
    secs: 1722859092
    nsecs:  27622745
  frame_id: ''
magnetic_x: -9963.4638671875
magnetic_y: 5186.94384765625
magnetic_z: 16049.0087890625
---
header: 
  seq: 1803527
  stamp: 
    secs: 1722859092
    nsecs:  33622745
  frame_id: ''
magnetic_x: -9964.6396484375
magnetic_y: 5178.31982421875
magnetic_z: 16058.48828125
---
header: 
  seq: 1803528
  stamp: 
    secs: 1722859092
    nsecs:  39622745
  frame_id: ''
magnetic_x: -9961.8955078125
magnetic_y: 5182.23974609375
magnetic_z: 16052.1689453125
---
header: 
  seq: 1803529
  stamp: 
    secs: 1722859092
    nsecs:  46622745
  frame_id: ''
magnetic_x: -9958.3681640625
magnetic_y: 5180.671875
magnetic_z: 16069.232421875
---
header: 
  seq: 1803530
  stamp: 
    secs: 1722859092
    nsecs:  52622745
  frame_id: ''
magnetic_x: -9965.8154296875
magnetic_y: 5187.72802734375
magnetic_z: 16069.232421875
---
header: 
  seq: 1803531
  stamp: 
    secs: 1722859092
    nsecs:  58622745
  frame_id: ''
magnetic_x: -9957.9755859375
magnetic_y: 5190.4716796875
magnetic_z: 16063.544921875
---
header: 
  seq: 1803532
  stamp: 
    secs: 1722859092
    nsecs:  64622745
  frame_id: ''
magnetic_x: -9959.1513671875
magnetic_y: 5173.61572265625
magnetic_z: 16048.376953125
---
header: 
  seq: 1803533
  stamp: 
    secs: 1722859092
    nsecs:  70622745
  frame_id: ''
magnetic_x: -9956.7998046875
magnetic_y: 5184.98388671875
magnetic_z: 16068.6005859375
---
header: 
  seq: 1803534
  stamp: 
    secs: 1722859092
    nsecs:  76622745
  frame_id: ''
magnetic_x: -9965.423828125
magnetic_y: 5196.35205078125
magnetic_z: 16067.96875
---
header: 
  seq: 1803535
  stamp: 
    secs: 1722859092
    nsecs:  82622745
  frame_id: ''
magnetic_x: -9969.34375
magnetic_y: 5182.6318359375
magnetic_z: 16067.96875
---
header: 
  seq: 1803536
  stamp: 
    secs: 1722859092
    nsecs:  89622745
  frame_id: ''
magnetic_x: -9965.0322265625
magnetic_y: 5188.11962890625
magnetic_z: 16076.81640625
---
header: 
  seq: 1803537
  stamp: 
    secs: 1722859092
    nsecs:  95622745
  frame_id: ''
magnetic_x: -9964.248046875
magnetic_y: 5175.57568359375
magnetic_z: 16055.3291015625
---
header: 
  seq: 1803538
  stamp: 
    secs: 1722859092
    nsecs: 101622745
  frame_id: ''
magnetic_x: -9953.271484375
magnetic_y: 5176.35986328125
magnetic_z: 16053.4326171875
---
header: 
  seq: 1803539
  stamp: 
    secs: 1722859092
    nsecs: 107622745
  frame_id: ''
magnetic_x: -9965.8154296875
magnetic_y: 5177.53564453125
magnetic_z: 16061.0166015625
---
header: 
  seq: 1803540
  stamp: 
    secs: 1722859092
    nsecs: 113622745
  frame_id: ''
magnetic_x: -9968.5595703125
magnetic_y: 5190.4716796875
magnetic_z: 16061.0166015625
---
header: 
  seq: 1803541
  stamp: 
    secs: 1722859092
    nsecs: 119622745
  frame_id: ''
magnetic_x: -9968.5595703125
magnetic_y: 5190.4716796875
magnetic_z: 16050.904296875
---
header: 
  seq: 1803542
  stamp: 
    secs: 1722859092
    nsecs: 125622745
  frame_id: ''
magnetic_x: -9963.85546875
magnetic_y: 5180.671875
magnetic_z: 16064.1767578125
---
header: 
  seq: 1803543
  stamp: 
    secs: 1722859092
    nsecs: 132622745
  frame_id: ''
magnetic_x: -9966.599609375
magnetic_y: 5175.18408203125
magnetic_z: 16043.953125
---
header: 
  seq: 1803544
  stamp: 
    secs: 1722859092
    nsecs: 138622745
  frame_id: ''
magnetic_x: -9962.6796875
magnetic_y: 5179.8876953125
magnetic_z: 16053.4326171875
---
header: 
  seq: 1803545
  stamp: 
    secs: 1722859092
    nsecs: 144622745
  frame_id: ''
magnetic_x: -9957.19140625
magnetic_y: 5185.76806640625
magnetic_z: 16068.6005859375
---
header: 
  seq: 1803546
  stamp: 
    secs: 1722859092
    nsecs: 149622745
  frame_id: ''
magnetic_x: -9963.4638671875
magnetic_y: 5183.02392578125
magnetic_z: 16056.5927734375
---
header: 
  seq: 1803547
  stamp: 
    secs: 1722859092
    nsecs: 155622745
  frame_id: ''
magnetic_x: -9966.9921875
magnetic_y: 5184.591796875
magnetic_z: 16058.48828125
---
header: 
  seq: 1803548
  stamp: 
    secs: 1722859092
    nsecs: 161622745
  frame_id: ''
magnetic_x: -9970.51953125
magnetic_y: 5179.49609375
magnetic_z: 16066.072265625
---
header: 
  seq: 1803549
  stamp: 
    secs: 1722859092
    nsecs: 167622745
  frame_id: ''
magnetic_x: -9963.4638671875
magnetic_y: 5184.98388671875
magnetic_z: 16069.8642578125
---
header: 
  seq: 1803550
  stamp: 
    secs: 1722859092
    nsecs: 174622745
  frame_id: ''
magnetic_x: -9964.6396484375
magnetic_y: 5175.57568359375
magnetic_z: 16057.8564453125
---
header: 
  seq: 1803551
  stamp: 
    secs: 1722859092
    nsecs: 180622745
  frame_id: ''
magnetic_x: -9964.248046875
magnetic_y: 5176.751953125
magnetic_z: 16059.7529296875
---
header: 
  seq: 1803552
  stamp: 
    secs: 1722859092
    nsecs: 186622745
  frame_id: ''
magnetic_x: -9966.2080078125
magnetic_y: 5181.84765625
magnetic_z: 16046.48046875
---
header: 
  seq: 1803553
  stamp: 
    secs: 1722859092
    nsecs: 192622745
  frame_id: ''
magnetic_x: -9968.16796875
magnetic_y: 5185.76806640625
magnetic_z: 16064.80859375
---
header: 
  seq: 1803554
  stamp: 
    secs: 1722859092
    nsecs: 198622745
  frame_id: ''
magnetic_x: -9967.775390625
magnetic_y: 5177.14404296875
magnetic_z: 16068.6005859375
---
header: 
  seq: 1803555
  stamp: 
    secs: 1722859092
    nsecs: 204622745
  frame_id: ''
magnetic_x: -9957.583984375
magnetic_y: 5188.11962890625
magnetic_z: 16056.5927734375
---
header: 
  seq: 1803556
  stamp: 
    secs: 1722859092
    nsecs: 210622745
  frame_id: ''
magnetic_x: -9959.5439453125
magnetic_y: 5183.416015625
magnetic_z: 16044.5849609375
---
header: 
  seq: 1803557
  stamp: 
    secs: 1722859092
    nsecs: 217622745
  frame_id: ''
magnetic_x: -9959.935546875
magnetic_y: 5179.10400390625
magnetic_z: 16045.8486328125
---
header: 
  seq: 1803558
  stamp: 
    secs: 1722859092
    nsecs: 223622745
  frame_id: ''
magnetic_x: -9963.0712890625
magnetic_y: 5184.19970703125
magnetic_z: 16056.5927734375
---
header: 
  seq: 1803559
  stamp: 
    secs: 1722859092
    nsecs: 229622745
  frame_id: ''
magnetic_x: -9970.51953125
magnetic_y: 5186.5517578125
magnetic_z: 16061.6484375
---
header: 
  seq: 1803560
  stamp: 
    secs: 1722859092
    nsecs: 235622745
  frame_id: ''
magnetic_x: -9966.9921875
magnetic_y: 5186.94384765625
magnetic_z: 16074.2890625
---
header: 
  seq: 1803561
  stamp: 
    secs: 1722859092
    nsecs: 241622745
  frame_id: ''
magnetic_x: -9971.6953125
magnetic_y: 5181.4560546875
magnetic_z: 16061.6484375
---
header: 
  seq: 1803562
  stamp: 
    secs: 1722859092
    nsecs: 247622745
  frame_id: ''
magnetic_x: -9963.0712890625
magnetic_y: 5182.23974609375
magnetic_z: 16057.8564453125
---
header: 
  seq: 1803563
  stamp: 
    secs: 1722859092
    nsecs: 253622745
  frame_id: ''
magnetic_x: -9964.248046875
magnetic_y: 5188.90380859375
magnetic_z: 16059.12109375
---
header: 
  seq: 1803564
  stamp: 
    secs: 1722859092
    nsecs: 260622745
  frame_id: ''
magnetic_x: -9966.2080078125
magnetic_y: 5173.2236328125
magnetic_z: 16043.3203125
---
header: 
  seq: 1803565
  stamp: 
    secs: 1722859092
    nsecs: 266622745
  frame_id: ''
magnetic_x: -9977.576171875
magnetic_y: 5176.751953125
magnetic_z: 16052.1689453125
---
header: 
  seq: 1803566
  stamp: 
    secs: 1722859092
    nsecs: 272622745
  frame_id: ''
magnetic_x: -9960.7197265625
magnetic_y: 5181.84765625
magnetic_z: 16058.48828125
---
header: 
  seq: 1803567
  stamp: 
    secs: 1722859092
    nsecs: 278622745
  frame_id: ''
magnetic_x: -9961.50390625
magnetic_y: 5184.19970703125
magnetic_z: 16054.6962890625
---
header: 
  seq: 1803568
  stamp: 
    secs: 1722859092
    nsecs: 284622745
  frame_id: ''
magnetic_x: -9959.935546875
magnetic_y: 5178.7119140625
magnetic_z: 16065.4404296875
---
header: 
  seq: 1803569
  stamp: 
    secs: 1722859092
    nsecs: 290622745
  frame_id: ''
magnetic_x: -9960.328125
magnetic_y: 5183.02392578125
magnetic_z: 16053.4326171875
---
header: 
  seq: 1803570
  stamp: 
    secs: 1722859092
    nsecs: 296622745
  frame_id: ''
magnetic_x: -9958.3681640625
magnetic_y: 5171.65576171875
magnetic_z: 16061.6484375
---
header: 
  seq: 1803571
  stamp: 
    secs: 1722859092
    nsecs: 303622745
  frame_id: ''
magnetic_x: -9955.6240234375
magnetic_y: 5179.8876953125
magnetic_z: 16061.0166015625
---
header: 
  seq: 1803572
  stamp: 
    secs: 1722859092
    nsecs: 309622745
  frame_id: ''
magnetic_x: -9970.51953125
magnetic_y: 5179.10400390625
magnetic_z: 16047.1123046875
---
header: 
  seq: 1803573
  stamp: 
    secs: 1722859092
    nsecs: 315622745
  frame_id: ''
magnetic_x: -9959.935546875
magnetic_y: 5181.84765625
magnetic_z: 16072.392578125
---
header: 
  seq: 1803574
  stamp: 
    secs: 1722859092
    nsecs: 321622745
  frame_id: ''
magnetic_x: -9954.447265625
magnetic_y: 5189.2958984375
magnetic_z: 16067.96875
---
header: 
  seq: 1803575
  stamp: 
    secs: 1722859092
    nsecs: 327622745
  frame_id: ''
magnetic_x: -9959.935546875
magnetic_y: 5185.76806640625
magnetic_z: 16059.7529296875
---
header: 
  seq: 1803576
  stamp: 
    secs: 1722859092
    nsecs: 333622745
  frame_id: ''
magnetic_x: -9967.775390625
magnetic_y: 5186.94384765625
magnetic_z: 16044.5849609375
---
header: 
  seq: 1803577
  stamp: 
    secs: 1722859092
    nsecs: 339622745
  frame_id: ''
magnetic_x: -9966.9921875
magnetic_y: 5186.15966796875
magnetic_z: 16068.6005859375
---
header: 
  seq: 1803578
  stamp: 
    secs: 1722859092
    nsecs: 346622745
  frame_id: ''
magnetic_x: -9969.7353515625
magnetic_y: 5177.927734375
magnetic_z: 16067.96875
---
header: 
  seq: 1803579
  stamp: 
    secs: 1722859092
    nsecs: 352622745
  frame_id: ''
magnetic_x: -9963.0712890625
magnetic_y: 5190.4716796875
magnetic_z: 16063.544921875
---
header: 
  seq: 1803580
  stamp: 
    secs: 1722859092
    nsecs: 358622745
  frame_id: ''
magnetic_x: -9962.2880859375
magnetic_y: 5191.64794921875
magnetic_z: 16051.537109375
---
header: 
  seq: 1803581
  stamp: 
    secs: 1722859092
    nsecs: 364622745
  frame_id: ''
magnetic_x: -9963.4638671875
magnetic_y: 5179.10400390625
magnetic_z: 16042.6884765625
---
header: 
  seq: 1803582
  stamp: 
    secs: 1722859092
    nsecs: 370622745
  frame_id: ''
magnetic_x: -9956.7998046875
magnetic_y: 5176.35986328125
magnetic_z: 16069.232421875
---
header: 
  seq: 1803583
  stamp: 
    secs: 1722859092
    nsecs: 376622745
  frame_id: ''
magnetic_x: -9957.583984375
magnetic_y: 5182.6318359375
magnetic_z: 16067.96875
---
header: 
  seq: 1803584
  stamp: 
    secs: 1722859092
    nsecs: 382622745
  frame_id: ''
magnetic_x: -9963.0712890625
magnetic_y: 5183.416015625
magnetic_z: 16060.384765625
---
header: 
  seq: 1803585
  stamp: 
    secs: 1722859092
    nsecs: 389622745
  frame_id: ''
magnetic_x: -9965.423828125
magnetic_y: 5169.69580078125
magnetic_z: 16053.4326171875
---
header: 
  seq: 1803586
  stamp: 
    secs: 1722859092
    nsecs: 395622745
  frame_id: ''
magnetic_x: -9958.3681640625
magnetic_y: 5180.27978515625
magnetic_z: 16053.4326171875
---
header: 
  seq: 1803587
  stamp: 
    secs: 1722859092
    nsecs: 401622745
  frame_id: ''
magnetic_x: -9959.5439453125
magnetic_y: 5184.98388671875
magnetic_z: 16049.640625
---
header: 
  seq: 1803588
  stamp: 
    secs: 1722859092
    nsecs: 407622745
  frame_id: ''
magnetic_x: -9963.0712890625
magnetic_y: 5186.94384765625
magnetic_z: 16052.1689453125
---
header: 
  seq: 1803589
  stamp: 
    secs: 1722859092
    nsecs: 412622745
  frame_id: ''
magnetic_x: -9970.51953125
magnetic_y: 5179.8876953125
magnetic_z: 16050.2724609375
---
header: 
  seq: 1803590
  stamp: 
    secs: 1722859092
    nsecs: 418622745
  frame_id: ''
magnetic_x: -9963.85546875
magnetic_y: 5173.61572265625
magnetic_z: 16066.705078125
---
header: 
  seq: 1803591
  stamp: 
    secs: 1722859092
    nsecs: 424622745
  frame_id: ''
magnetic_x: -9958.3681640625
magnetic_y: 5172.83203125
magnetic_z: 16067.3369140625
---
header: 
  seq: 1803592
  stamp: 
    secs: 1722859092
    nsecs: 431622745
  frame_id: ''
magnetic_x: -9958.3681640625
magnetic_y: 5183.416015625
magnetic_z: 16064.80859375
---
header: 
  seq: 1803593
  stamp: 
    secs: 1722859092
    nsecs: 437622745
  frame_id: ''
magnetic_x: -9960.328125
magnetic_y: 5183.416015625
magnetic_z: 16058.48828125
---
header: 
  seq: 1803594
  stamp: 
    secs: 1722859092
    nsecs: 443622745
  frame_id: ''
magnetic_x: -9962.2880859375
magnetic_y: 5181.06396484375
magnetic_z: 16074.2890625
---
header: 
  seq: 1803595
  stamp: 
    secs: 1722859092
    nsecs: 449622745
  frame_id: ''
magnetic_x: -9959.1513671875
magnetic_y: 5182.6318359375
magnetic_z: 16050.2724609375
---
header: 
  seq: 1803596
  stamp: 
    secs: 1722859092
    nsecs: 455622745
  frame_id: ''
magnetic_x: -9963.0712890625
magnetic_y: 5178.7119140625
magnetic_z: 16061.0166015625
---
header: 
  seq: 1803597
  stamp: 
    secs: 1722859092
    nsecs: 461622745
  frame_id: ''
magnetic_x: -9966.9921875
magnetic_y: 5184.98388671875
magnetic_z: 16049.640625
---
header: 
  seq: 1803598
  stamp: 
    secs: 1722859092
    nsecs: 467622745
  frame_id: ''
magnetic_x: -9959.5439453125
magnetic_y: 5189.68798828125
magnetic_z: 16069.232421875
---
header: 
  seq: 1803599
  stamp: 
    secs: 1722859092
    nsecs: 474622745
  frame_id: ''
magnetic_x: -9962.2880859375
magnetic_y: 5175.57568359375
magnetic_z: 16048.376953125
---
header: 
  seq: 1803600
  stamp: 
    secs: 1722859092
    nsecs: 480622745
  frame_id: ''
magnetic_x: -9964.6396484375
magnetic_y: 5187.3359375
magnetic_z: 16069.232421875
---
header: 
  seq: 1803601
  stamp: 
    secs: 1722859092
    nsecs: 486622745
  frame_id: ''
magnetic_x: -9961.50390625
magnetic_y: 5176.35986328125
magnetic_z: 16059.7529296875
---
header: 
  seq: 1803602
  stamp: 
    secs: 1722859092
    nsecs: 492622745
  frame_id: ''
magnetic_x: -9968.9521484375
magnetic_y: 5179.8876953125
magnetic_z: 16054.064453125
---
header: 
  seq: 1803603
  stamp: 
    secs: 1722859092
    nsecs: 498622745
  frame_id: ''
magnetic_x: -9964.248046875
magnetic_y: 5193.2158203125
magnetic_z: 16066.072265625
---
header: 
  seq: 1803604
  stamp: 
    secs: 1722859092
    nsecs: 504622745
  frame_id: ''
magnetic_x: -9965.423828125
magnetic_y: 5186.94384765625
magnetic_z: 16070.4970703125
---
header: 
  seq: 1803605
  stamp: 
    secs: 1722859092
    nsecs: 510622745
  frame_id: ''
magnetic_x: -9957.583984375
magnetic_y: 5179.8876953125
magnetic_z: 16066.705078125
---
header: 
  seq: 1803606
  stamp: 
    secs: 1722859092
    nsecs: 517622745
  frame_id: ''
magnetic_x: -9957.583984375
magnetic_y: 5184.98388671875
magnetic_z: 16050.904296875
---
header: 
  seq: 1803607
  stamp: 
    secs: 1722859092
    nsecs: 523622745
  frame_id: ''
magnetic_x: -9972.087890625
magnetic_y: 5179.8876953125
magnetic_z: 16054.064453125
---
header: 
  seq: 1803608
  stamp: 
    secs: 1722859092
    nsecs: 529622745
  frame_id: ''
magnetic_x: -9959.5439453125
magnetic_y: 5168.91162109375
magnetic_z: 16054.6962890625
---
header: 
  seq: 1803609
  stamp: 
    secs: 1722859092
    nsecs: 535622745
  frame_id: ''
magnetic_x: -9959.5439453125
magnetic_y: 5174.7919921875
magnetic_z: 16050.2724609375
---
header: 
  seq: 1803610
  stamp: 
    secs: 1722859092
    nsecs: 541622745
  frame_id: ''
magnetic_x: -9965.8154296875
magnetic_y: 5182.23974609375
magnetic_z: 16055.9609375
---
header: 
  seq: 1803611
  stamp: 
    secs: 1722859092
    nsecs: 547622745
  frame_id: ''
magnetic_x: -9961.8955078125
magnetic_y: 5184.591796875
magnetic_z: 16067.3369140625
---
header: 
  seq: 1803612
  stamp: 
    secs: 1722859092
    nsecs: 553622745
  frame_id: ''
magnetic_x: -9957.9755859375
magnetic_y: 5186.15966796875
magnetic_z: 16064.1767578125
---
header: 
  seq: 1803613
  stamp: 
    secs: 1722859092
    nsecs: 560622745
  frame_id: ''
magnetic_x: -9962.6796875
magnetic_y: 5179.49609375
magnetic_z: 16066.705078125
---
header: 
  seq: 1803614
  stamp: 
    secs: 1722859092
    nsecs: 566622745
  frame_id: ''
magnetic_x: -9966.2080078125
magnetic_y: 5183.02392578125
magnetic_z: 16054.064453125
---
header: 
  seq: 1803615
  stamp: 
    secs: 1722859092
    nsecs: 572622745
  frame_id: ''
magnetic_x: -9960.7197265625
magnetic_y: 5177.927734375
magnetic_z: 16055.9609375
---
header: 
  seq: 1803616
  stamp: 
    secs: 1722859092
    nsecs: 578622745
  frame_id: ''
magnetic_x: -9966.9921875
magnetic_y: 5189.68798828125
magnetic_z: 16065.4404296875
---
header: 
  seq: 1803617
  stamp: 
    secs: 1722859092
    nsecs: 584622745
  frame_id: ''
magnetic_x: -9961.50390625
magnetic_y: 5177.927734375
magnetic_z: 16054.064453125
---
header: 
  seq: 1803618
  stamp: 
    secs: 1722859092
    nsecs: 590622745
  frame_id: ''
magnetic_x: -9972.8720703125
magnetic_y: 5174.7919921875
magnetic_z: 16071.7607421875
---
header: 
  seq: 1803619
  stamp: 
    secs: 1722859092
    nsecs: 596622745
  frame_id: ''
magnetic_x: -9963.85546875
magnetic_y: 5181.06396484375
magnetic_z: 16049.0087890625
---
header: 
  seq: 1803620
  stamp: 
    secs: 1722859092
    nsecs: 603622745
  frame_id: ''
magnetic_x: -9966.2080078125
magnetic_y: 5182.23974609375
magnetic_z: 16066.705078125
---
header: 
  seq: 1803621
  stamp: 
    secs: 1722859092
    nsecs: 609622745
  frame_id: ''
magnetic_x: -9960.328125
magnetic_y: 5175.9677734375
magnetic_z: 16056.5927734375
---
header: 
  seq: 1803622
  stamp: 
    secs: 1722859092
    nsecs: 615622745
  frame_id: ''
magnetic_x: -9963.4638671875
magnetic_y: 5180.27978515625
magnetic_z: 16049.640625
---
header: 
  seq: 1803623
  stamp: 
    secs: 1722859092
    nsecs: 621622745
  frame_id: ''
magnetic_x: -9961.50390625
magnetic_y: 5175.57568359375
magnetic_z: 16066.705078125
---
header: 
  seq: 1803624
  stamp: 
    secs: 1722859092
    nsecs: 627622745
  frame_id: ''
magnetic_x: -9962.6796875
magnetic_y: 5180.27978515625
magnetic_z: 16066.072265625
---
header: 
  seq: 1803625
  stamp: 
    secs: 1722859092
    nsecs: 633622745
  frame_id: ''
magnetic_x: -9960.7197265625
magnetic_y: 5184.591796875
magnetic_z: 16054.064453125
---
header: 
  seq: 1803626
  stamp: 
    secs: 1722859092
    nsecs: 639622745
  frame_id: ''
magnetic_x: -9971.3037109375
magnetic_y: 5188.51171875
magnetic_z: 16055.3291015625
---
header: 
  seq: 1803627
  stamp: 
    secs: 1722859092
    nsecs: 646622745
  frame_id: ''
magnetic_x: -9963.85546875
magnetic_y: 5177.14404296875
magnetic_z: 16071.7607421875
---
header: 
  seq: 1803628
  stamp: 
    secs: 1722859092
    nsecs: 652622745
  frame_id: ''
magnetic_x: -9956.7998046875
magnetic_y: 5167.73583984375
magnetic_z: 16057.224609375
---
header: 
  seq: 1803629
  stamp: 
    secs: 1722859092
    nsecs: 658622745
  frame_id: ''
magnetic_x: -9961.111328125
magnetic_y: 5184.591796875
magnetic_z: 16064.1767578125
---
header: 
  seq: 1803630
  stamp: 
    secs: 1722859092
    nsecs: 664622745
  frame_id: ''
magnetic_x: -9969.7353515625
magnetic_y: 5186.94384765625
magnetic_z: 16063.544921875
---
header: 
  seq: 1803631
  stamp: 
    secs: 1722859092
    nsecs: 669622745
  frame_id: ''
magnetic_x: -9966.9921875
magnetic_y: 5178.31982421875
magnetic_z: 16051.537109375
---
header: 
  seq: 1803632
  stamp: 
    secs: 1722859092
    nsecs: 675622745
  frame_id: ''
magnetic_x: -9964.248046875
magnetic_y: 5180.27978515625
magnetic_z: 16068.6005859375
---
header: 
  seq: 1803633
  stamp: 
    secs: 1722859092
    nsecs: 681622745
  frame_id: ''
magnetic_x: -9961.8955078125
magnetic_y: 5181.4560546875
magnetic_z: 16069.232421875
---
header: 
  seq: 1803634
  stamp: 
    secs: 1722859092
    nsecs: 688622745
  frame_id: ''
magnetic_x: -9961.8955078125
magnetic_y: 5187.72802734375
magnetic_z: 16071.12890625
---
header: 
  seq: 1803635
  stamp: 
    secs: 1722859092
    nsecs: 694622745
  frame_id: ''
magnetic_x: -9957.19140625
magnetic_y: 5185.3759765625
magnetic_z: 16060.384765625
---
header: 
  seq: 1803636
  stamp: 
    secs: 1722859092
    nsecs: 700622745
  frame_id: ''
magnetic_x: -9969.7353515625
magnetic_y: 5183.416015625
magnetic_z: 16060.384765625
---
header: 
  seq: 1803637
  stamp: 
    secs: 1722859092
    nsecs: 706622745
  frame_id: ''
magnetic_x: -9961.8955078125
magnetic_y: 5177.53564453125
magnetic_z: 16052.80078125
---
header: 
  seq: 1803638
  stamp: 
    secs: 1722859092
    nsecs: 712622745
  frame_id: ''
magnetic_x: -9968.9521484375
magnetic_y: 5175.9677734375
magnetic_z: 16054.064453125
---
header: 
  seq: 1803639
  stamp: 
    secs: 1722859092
    nsecs: 718622745
  frame_id: ''
magnetic_x: -9960.7197265625
magnetic_y: 5185.76806640625
magnetic_z: 16072.392578125
---
header: 
  seq: 1803640
  stamp: 
    secs: 1722859092
    nsecs: 724622745
  frame_id: ''
magnetic_x: -9971.6953125
magnetic_y: 5169.3037109375
magnetic_z: 16040.79296875
---
header: 
  seq: 1803641
  stamp: 
    secs: 1722859092
    nsecs: 731622745
  frame_id: ''
magnetic_x: -9958.3681640625
magnetic_y: 5182.6318359375
magnetic_z: 16053.4326171875
---
header: 
  seq: 1803642
  stamp: 
    secs: 1722859092
    nsecs: 737622745
  frame_id: ''
magnetic_x: -9965.0322265625
magnetic_y: 5187.72802734375
magnetic_z: 16049.0087890625
---
header: 
  seq: 1803643
  stamp: 
    secs: 1722859092
    nsecs: 743622745
  frame_id: ''
magnetic_x: -9969.34375
magnetic_y: 5183.80810546875
magnetic_z: 16055.9609375
---
header: 
  seq: 1803644
  stamp: 
    secs: 1722859092
    nsecs: 749622745
  frame_id: ''
magnetic_x: -9962.2880859375
magnetic_y: 5176.35986328125
magnetic_z: 16047.7451171875
---
header: 
  seq: 1803645
  stamp: 
    secs: 1722859092
    nsecs: 755622745
  frame_id: ''
magnetic_x: -9961.8955078125
magnetic_y: 5181.06396484375
magnetic_z: 16058.48828125
---
header: 
  seq: 1803646
  stamp: 
    secs: 1722859092
    nsecs: 761622745
  frame_id: ''
magnetic_x: -9968.9521484375
magnetic_y: 5175.18408203125
magnetic_z: 16055.3291015625
---
header: 
  seq: 1803647
  stamp: 
    secs: 1722859092
    nsecs: 767622745
  frame_id: ''
magnetic_x: -9963.0712890625
magnetic_y: 5176.751953125
magnetic_z: 16063.544921875
---
header: 
  seq: 1803648
  stamp: 
    secs: 1722859092
    nsecs: 774622745
  frame_id: ''
magnetic_x: -9965.0322265625
magnetic_y: 5186.94384765625
magnetic_z: 16062.9130859375
---
header: 
  seq: 1803649
  stamp: 
    secs: 1722859092
    nsecs: 780622745
  frame_id: ''
magnetic_x: -9960.328125
magnetic_y: 5181.06396484375
magnetic_z: 16069.232421875
---
header: 
  seq: 1803650
  stamp: 
    secs: 1722859092
    nsecs: 786622745
  frame_id: ''
magnetic_x: -9965.0322265625
magnetic_y: 5183.02392578125
magnetic_z: 16069.8642578125
---
header: 
  seq: 1803651
  stamp: 
    secs: 1722859092
    nsecs: 792622745
  frame_id: ''
magnetic_x: -9964.6396484375
magnetic_y: 5176.35986328125
magnetic_z: 16062.2802734375
---
header: 
  seq: 1803652
  stamp: 
    secs: 1722859092
    nsecs: 798622745
  frame_id: ''
magnetic_x: -9961.8955078125
magnetic_y: 5179.10400390625
magnetic_z: 16050.2724609375
---
header: 
  seq: 1803653
  stamp: 
    secs: 1722859092
    nsecs: 804622745
  frame_id: ''
magnetic_x: -9959.1513671875
magnetic_y: 5181.84765625
magnetic_z: 16065.4404296875
---
header: 
  seq: 1803654
  stamp: 
    secs: 1722859092
    nsecs: 810622745
  frame_id: ''
magnetic_x: -9961.50390625
magnetic_y: 5179.10400390625
magnetic_z: 16048.376953125
---
header: 
  seq: 1803655
  stamp: 
    secs: 1722859092
    nsecs: 817622745
  frame_id: ''
magnetic_x: -9968.5595703125
magnetic_y: 5170.47998046875
magnetic_z: 16059.12109375
---
header: 
  seq: 1803656
  stamp: 
    secs: 1722859092
    nsecs: 823622745
  frame_id: ''
magnetic_x: -9961.8955078125
magnetic_y: 5177.14404296875
magnetic_z: 16051.537109375
---
header: 
  seq: 1803657
  stamp: 
    secs: 1722859092
    nsecs: 829622745
  frame_id: ''
magnetic_x: -9956.7998046875
magnetic_y: 5183.02392578125
magnetic_z: 16043.953125
---
header: 
  seq: 1803658
  stamp: 
    secs: 1722859092
    nsecs: 838622745
  frame_id: ''
magnetic_x: -9965.8154296875
magnetic_y: 5186.94384765625
magnetic_z: 16073.0244140625
---
header: 
  seq: 1803659
  stamp: 
    secs: 1722859092
    nsecs: 843622745
  frame_id: ''
magnetic_x: -9965.423828125
magnetic_y: 5181.06396484375
magnetic_z: 16043.953125
---
header: 
  seq: 1803660
  stamp: 
    secs: 1722859092
    nsecs: 849622745
  frame_id: ''
magnetic_x: -9963.0712890625
magnetic_y: 5184.19970703125
magnetic_z: 16042.056640625
---
header: 
  seq: 1803661
  stamp: 
    secs: 1722859092
    nsecs: 856622745
  frame_id: ''
magnetic_x: -9967.775390625
magnetic_y: 5175.57568359375
magnetic_z: 16069.232421875
---
header: 
  seq: 1803662
  stamp: 
    secs: 1722859092
    nsecs: 862622745
  frame_id: ''
magnetic_x: -9967.3837890625
magnetic_y: 5186.5517578125
magnetic_z: 16069.8642578125
---
header: 
  seq: 1803663
  stamp: 
    secs: 1722859092
    nsecs: 868245920
  frame_id: ''
magnetic_x: -9957.9755859375
magnetic_y: 5182.23974609375
magnetic_z: 16067.3369140625
---
header: 
  seq: 1803664
  stamp: 
    secs: 1722859092
    nsecs: 873245920
  frame_id: ''
magnetic_x: -9964.6396484375
magnetic_y: 5181.06396484375
magnetic_z: 16043.3203125
---
header: 
  seq: 1803665
  stamp: 
    secs: 1722859092
    nsecs: 879245920
  frame_id: ''
magnetic_x: -9968.16796875
magnetic_y: 5192.0400390625
magnetic_z: 16045.216796875
---
header: 
  seq: 1803666
  stamp: 
    secs: 1722859092
    nsecs: 885245920
  frame_id: ''
magnetic_x: -9967.775390625
magnetic_y: 5179.8876953125
magnetic_z: 16053.4326171875
---
header: 
  seq: 1803667
  stamp: 
    secs: 1722859092
    nsecs: 891245920
  frame_id: ''
magnetic_x: -9966.2080078125
magnetic_y: 5179.8876953125
magnetic_z: 16050.904296875
---
header: 
  seq: 1803668
  stamp: 
    secs: 1722859092
    nsecs: 898245920
  frame_id: ''
magnetic_x: -9968.5595703125
magnetic_y: 5172.0478515625
magnetic_z: 16061.6484375
---
header: 
  seq: 1803669
  stamp: 
    secs: 1722859092
    nsecs: 904245920
  frame_id: ''
magnetic_x: -9970.1279296875
magnetic_y: 5182.23974609375
magnetic_z: 16073.6572265625
---
header: 
  seq: 1803670
  stamp: 
    secs: 1722859092
    nsecs: 910245920
  frame_id: ''
magnetic_x: -9958.3681640625
magnetic_y: 5178.31982421875
magnetic_z: 16058.48828125
---
header: 
  seq: 1803671
  stamp: 
    secs: 1722859092
    nsecs: 916245920
  frame_id: ''
magnetic_x: -9965.423828125
magnetic_y: 5176.751953125
magnetic_z: 16057.224609375
---
header: 
  seq: 1803672
  stamp: 
    secs: 1722859092
    nsecs: 922245920
  frame_id: ''
magnetic_x: -9961.111328125
magnetic_y: 5179.8876953125
magnetic_z: 16049.0087890625
---
header: 
  seq: 1803673
  stamp: 
    secs: 1722859092
    nsecs: 928245920
  frame_id: ''
magnetic_x: -9966.599609375
magnetic_y: 5183.02392578125
magnetic_z: 16045.8486328125
---
header: 
  seq: 1803674
  stamp: 
    secs: 1722859092
    nsecs: 934245920
  frame_id: ''
magnetic_x: -9959.1513671875
magnetic_y: 5179.10400390625
magnetic_z: 16047.7451171875
---
header: 
  seq: 1803675
  stamp: 
    secs: 1722859092
    nsecs: 941245920
  frame_id: ''
magnetic_x: -9968.16796875
magnetic_y: 5177.927734375
magnetic_z: 16053.4326171875
---
header: 
  seq: 1803676
  stamp: 
    secs: 1722859092
    nsecs: 947245920
  frame_id: ''
magnetic_x: -9966.599609375
magnetic_y: 5182.23974609375
magnetic_z: 16054.064453125
---
header: 
  seq: 1803677
  stamp: 
    secs: 1722859092
    nsecs: 953245920
  frame_id: ''
magnetic_x: -9961.8955078125
magnetic_y: 5186.5517578125
magnetic_z: 16060.384765625
---
header: 
  seq: 1803678
  stamp: 
    secs: 1722859092
    nsecs: 959245920
  frame_id: ''
magnetic_x: -9956.015625
magnetic_y: 5175.9677734375
magnetic_z: 16058.48828125
---
header: 
  seq: 1803679
  stamp: 
    secs: 1722859092
    nsecs: 965245920
  frame_id: ''
magnetic_x: -9965.0322265625
magnetic_y: 5185.76806640625
magnetic_z: 16049.0087890625
---
header: 
  seq: 1803680
  stamp: 
    secs: 1722859092
    nsecs: 971245920
  frame_id: ''
magnetic_x: -9962.2880859375
magnetic_y: 5175.9677734375
magnetic_z: 16063.544921875
---
header: 
  seq: 1803681
  stamp: 
    secs: 1722859092
    nsecs: 977245920
  frame_id: ''
magnetic_x: -9960.7197265625
magnetic_y: 5183.80810546875
magnetic_z: 16046.48046875
---
header: 
  seq: 1803682
  stamp: 
    secs: 1722859092
    nsecs: 984245920
  frame_id: ''
magnetic_x: -9957.583984375
magnetic_y: 5185.3759765625
magnetic_z: 16067.96875
---
header: 
  seq: 1803683
  stamp: 
    secs: 1722859092
    nsecs: 990245920
  frame_id: ''
magnetic_x: -9973.263671875
magnetic_y: 5184.591796875
magnetic_z: 16049.0087890625
---
header: 
  seq: 1803684
  stamp: 
    secs: 1722859092
    nsecs: 996245920
  frame_id: ''
magnetic_x: -9958.759765625
magnetic_y: 5185.76806640625
magnetic_z: 16068.6005859375
---
header: 
  seq: 1803685
  stamp: 
    secs: 1722859093
    nsecs:   2245920
  frame_id: ''
magnetic_x: -9971.3037109375
magnetic_y: 5187.72802734375
magnetic_z: 16066.072265625
---
header: 
  seq: 1803686
  stamp: 
    secs: 1722859093
    nsecs:   8245920
  frame_id: ''
magnetic_x: -9960.328125
magnetic_y: 5180.671875
magnetic_z: 16053.4326171875
---
header: 
  seq: 1803687
  stamp: 
    secs: 1722859093
    nsecs:  14245920
  frame_id: ''
magnetic_x: -9968.16796875
magnetic_y: 5180.27978515625
magnetic_z: 16046.48046875
---
header: 
  seq: 1803688
  stamp: 
    secs: 1722859093
    nsecs:  20245920
  frame_id: ''
magnetic_x: -9959.5439453125
magnetic_y: 5183.416015625
magnetic_z: 16062.9130859375
---
header: 
  seq: 1803689
  stamp: 
    secs: 1722859093
    nsecs:  27245920
  frame_id: ''
magnetic_x: -9959.935546875
magnetic_y: 5170.8720703125
magnetic_z: 16040.79296875
---
header: 
  seq: 1803690
  stamp: 
    secs: 1722859093
    nsecs:  33245920
  frame_id: ''
magnetic_x: -9961.111328125
magnetic_y: 5175.9677734375
magnetic_z: 16042.6884765625
---
header: 
  seq: 1803691
  stamp: 
    secs: 1722859093
    nsecs:  39245920
  frame_id: ''
magnetic_x: -9957.9755859375
magnetic_y: 5185.76806640625
magnetic_z: 16061.6484375
---
header: 
  seq: 1803692
  stamp: 
    secs: 1722859093
    nsecs:  45245920
  frame_id: ''
magnetic_x: -9964.248046875
magnetic_y: 5188.51171875
magnetic_z: 16065.4404296875
---
header: 
  seq: 1803693
  stamp: 
    secs: 1722859093
    nsecs:  51245920
  frame_id: ''
magnetic_x: -9970.1279296875
magnetic_y: 5188.51171875
magnetic_z: 16057.224609375
---
header: 
  seq: 1803694
  stamp: 
    secs: 1722859093
    nsecs:  57245920
  frame_id: ''
magnetic_x: -9961.8955078125
magnetic_y: 5177.927734375
magnetic_z: 16052.1689453125
---
header: 
  seq: 1803695
  stamp: 
    secs: 1722859093
    nsecs:  63245920
  frame_id: ''
magnetic_x: -9956.015625
magnetic_y: 5183.02392578125
magnetic_z: 16063.544921875
---
header: 
  seq: 1803696
  stamp: 
    secs: 1722859093
    nsecs:  70245920
  frame_id: ''
magnetic_x: -9955.6240234375
magnetic_y: 5180.671875
magnetic_z: 16059.7529296875
---
header: 
  seq: 1803697
  stamp: 
    secs: 1722859093
    nsecs:  76245920
  frame_id: ''
magnetic_x: -9966.2080078125
magnetic_y: 5180.671875
magnetic_z: 16061.0166015625
---
header: 
  seq: 1803698
  stamp: 
    secs: 1722859093
    nsecs:  82245920
  frame_id: ''
magnetic_x: -9968.9521484375
magnetic_y: 5170.47998046875
magnetic_z: 16051.537109375
---
header: 
  seq: 1803699
  stamp: 
    secs: 1722859093
    nsecs:  88245920
  frame_id: ''
magnetic_x: -9972.4794921875
magnetic_y: 5178.7119140625
