header: 
  seq: 1
  stamp: 
    secs: 1722859110
    nsecs:  20329713
  frame_id: ''
twist: 
  linear: 
    x: 0.5555496477609361
    y: 0.08208675466143234
    z: 0.0
  angular: 
    x: 0.0
    y: 0.0
    z: 0.0
---
header: 
  seq: 2
  stamp: 
    secs: 1722859110
    nsecs:  27330636
  frame_id: ''
twist: 
  linear: 
    x: 0.5553472461502571
    y: 0.0817531567986973
    z: 0.0
  angular: 
    x: 0.0
    y: 0.0
    z: 0.0
---
header: 
  seq: 3
  stamp: 
    secs: 1722859110
    nsecs:  41529417
  frame_id: ''
twist: 
  linear: 
    x: 0.5554013612846882
    y: 0.08177604109189025
    z: 0.0
  angular: 
    x: 0.0
    y: 0.0
    z: 0.0
---
header: 
  seq: 4
  stamp: 
    secs: 1722859110
    nsecs:  57932615
  frame_id: ''
twist: 
  linear: 
    x: 0.5553158807138743
    y: 0.08150842048437146
    z: 0.0
  angular: 
    x: 0.0
    y: 0.0
    z: 0.0
---
header: 
  seq: 5
  stamp: 
    secs: 1722859110
    nsecs:  73710918
  frame_id: ''
twist: 
  linear: 
    x: 0.5554868461143525
    y: 0.08150586413823921
    z: 0.0
  angular: 
    x: 0.0
    y: 0.0
    z: 0.0
---
header: 
  seq: 6
  stamp: 
    secs: 1722859110
    nsecs:  83826780
  frame_id: ''
twist: 
  linear: 
    x: 0.5557773052103412
    y: 0.08188473293001207
    z: 0.0
  angular: 
    x: 0.0
    y: 0.0
    z: 0.0
---
header: 
  seq: 7
  stamp: 
    secs: 1722859110
    nsecs: 100874423
  frame_id: ''
twist: 
  linear: 
    x: 0.5556403220706081
    y: 0.08163305152986425
    z: 0.0
  angular: 
    x: 0.0
    y: 0.0
    z: 0.0
---
header: 
  seq: 8
  stamp: 
    secs: 1722859110
    nsecs: 112283945
  frame_id: ''
twist: 
  linear: 
    x: 0.5556523326138146
    y: 0.08160079541303787
    z: 0.0
  angular: 
    x: 0.0
    y: 0.0
    z: 0.0
---
header: 
  seq: 9
  stamp: 
    secs: 1722859110
    nsecs: 119503021
  frame_id: ''
twist: 
  linear: 
    x: 0.5556586571763512
    y: 0.08156268139474844
    z: 0.0
  angular: 
    x: 0.0
    y: 0.0
    z: 0.0
---
header: 
  seq: 10
  stamp: 
    secs: 1722859110
    nsecs: 138907194
  frame_id: ''
twist: 
  linear: 
    x: 0.5556167802289358
    y: 0.08144464048705723
    z: 0.0
  angular: 
    x: 0.0
    y: 0.0
    z: 0.0
---
header: 
  seq: 11
  stamp: 
    secs: 1722859110
    nsecs: 152359485
  frame_id: ''
twist: 
  linear: 
    x: 0.5557242024675523
    y: 0.08154569764089183
    z: 0.0
  angular: 
    x: 0.0
    y: 0.0
    z: 0.0
---
header: 
  seq: 12
  stamp: 
    secs: 1722859110
    nsecs: 170867919
  frame_id: ''
twist: 
  linear: 
    x: 0.5557816234496276
    y: 0.08147089985732557
    z: 0.0
  angular: 
    x: 0.0
    y: 0.0
    z: 0.0
---
header: 
  seq: 13
  stamp: 
    secs: 1722859110
    nsecs: 185200452
  frame_id: ''
twist: 
  linear: 
    x: 0.5557794731326372
    y: 0.08141997649484566
    z: 0.0
  angular: 
    x: 0.0
    y: 0.0
    z: 0.0
---
header: 
  seq: 14
  stamp: 
    secs: 1722859110
    nsecs: 214552164
  frame_id: ''
twist: 
  linear: 
    x: 0.5560787433715704
    y: 0.08132789304012064
    z: 0.0
  angular: 
    x: 0.0
    y: 0.0
    z: 0.0
---
header: 
  seq: 15
  stamp: 
    secs: 1722859110
    nsecs: 233476161
  frame_id: ''
twist: 
  linear: 
    x: 0.5561342306985269
    y: 0.08136678763075014
    z: 0.0
  angular: 
    x: 0.0
    y: 0.0
    z: 0.0
---
header: 
  seq: 16
  stamp: 
    secs: 1722859110
    nsecs: 258309602
  frame_id: ''
twist: 
  linear: 
    x: 0.5562878468509596
    y: 0.0815594621451973
    z: 0.0
  angular: 
    x: 0.0
    y: 0.0
    z: 0.0
---
header: 
  seq: 17
  stamp: 
    secs: 1722859110
    nsecs: 281253576
  frame_id: ''
twist: 
  linear: 
    x: 0.5561796429643847
    y: 0.08133715799442581
    z: 0.0
  angular: 
    x: 0.0
    y: 0.0
    z: 0.0
---
header: 
  seq: 18
  stamp: 
    secs: 1722859110
    nsecs: 297560214
  frame_id: ''
twist: 
  linear: 
    x: 0.5562825416564267
    y: 0.08145663274958853
    z: 0.0
  angular: 
    x: 0.0
    y: 0.0
    z: 0.0
---
header: 
  seq: 19
  stamp: 
    secs: 1722859110
    nsecs: 316052436
  frame_id: ''
twist: 
  linear: 
    x: 0.5561870451576347
    y: 0.0812518790055717
    z: 0.0
  angular: 
    x: 0.0
    y: 0.0
    z: 0.0
---
header: 
  seq: 20
  stamp: 
    secs: 1722859110
    nsecs: 351541042
  frame_id: ''
twist: 
  linear: 
    x: 0.5564701861642032
    y: 0.08086279067038647
    z: 0.0
  angular: 
    x: 0.0
    y: 0.0
    z: 0.0
---
header: 
  seq: 21
  stamp: 
    secs: 1722859110
    nsecs: 374349117
  frame_id: ''
twist: 
  linear: 
    x: 0.5565385935702154
    y: 0.08092295629009329
    z: 0.0
  angular: 
    x: 0.0
    y: 0.0
    z: 0.0
---
header: 
  seq: 22
  stamp: 
    secs: 1722859110
    nsecs: 423242807
  frame_id: ''
twist: 
  linear: 
    x: 0.5567198079818492
    y: 0.08071615951513347
    z: 0.0
  angular: 
    x: 0.0
    y: 0.0
    z: 0.0
---
header: 
  seq: 23
  stamp: 
    secs: 1722859110
    nsecs: 442028999
  frame_id: ''
twist: 
  linear: 
    x: 0.5568861703780987
    y: 0.08087991329196001
    z: 0.0
  angular: 
    x: 0.0
    y: 0.0
    z: 0.0
---
header: 
  seq: 24
  stamp: 
    secs: 1722859110
    nsecs: 470973968
  frame_id: ''
twist: 
  linear: 
    x: 0.5569565516468593
    y: 0.08078039757141398
    z: 0.0
  angular: 
    x: 0.0
    y: 0.0
    z: 0.0
---
header: 
  seq: 25
  stamp: 
    secs: 1722859110
    nsecs: 485347986
  frame_id: ''
twist: 
  linear: 
    x: 0.5569375738454732
    y: 0.08069523976325402
    z: 0.0
  angular: 
    x: 0.0
    y: 0.0
    z: 0.0
---
header: 
  seq: 26
  stamp: 
    secs: 1722859110
    nsecs: 508183479
  frame_id: ''
twist: 
  linear: 
    x: 0.5571036666587497
    y: 0.08097764882333071
    z: 0.0
  angular: 
    x: 0.0
    y: 0.0
    z: 0.0
---
header: 
  seq: 27
  stamp: 
    secs: 1722859110
    nsecs: 523232221
  frame_id: ''
twist: 
  linear: 
    x: 0.5570896270098751
    y: 0.08089414625866985
    z: 0.0
  angular: 
    x: 0.0
    y: 0.0
    z: 0.0
---
header: 
  seq: 28
  stamp: 
    secs: 1722859110
    nsecs: 546823263
  frame_id: ''
twist: 
  linear: 
    x: 0.557199452939244
    y: 0.08064631243807366
    z: 0.0
  angular: 
    x: 0.0
    y: 0.0
    z: 0.0
---
header: 
  seq: 29
  stamp: 
    secs: 1722859110
    nsecs: 557314157
  frame_id: ''
twist: 
  linear: 
    x: 0.5571134673004854
    y: 0.08041650712034382
    z: 0.0
  angular: 
    x: 0.0
    y: 0.0
    z: 0.0
---
header: 
  seq: 30
  stamp: 
    secs: 1722859110
    nsecs: 588629007
  frame_id: ''
twist: 
  linear: 
    x: 0.5573205364793172
    y: 0.08064305933595352
    z: 0.0
  angular: 
    x: 0.0
    y: 0.0
    z: 0.0
---
header: 
  seq: 31
  stamp: 
    secs: 1722859110
    nsecs: 605016231
  frame_id: ''
twist: 
  linear: 
    x: 0.5571790583534683
    y: 0.08028921095085496
    z: 0.0
  angular: 
    x: 0.0
    y: 0.0
    z: 0.0
---
header: 
  seq: 32
  stamp: 
    secs: 1722859110
    nsecs: 623063087
  frame_id: ''
twist: 
  linear: 
    x: 0.5572730949531205
    y: 0.08044243550823188
    z: 0.0
  angular: 
    x: 0.0
    y: 0.0
    z: 0.0
---
header: 
  seq: 33
  stamp: 
    secs: 1722859110
    nsecs: 633047819
  frame_id: ''
twist: 
  linear: 
    x: 0.5573521033958408
    y: 0.0804685152800001
    z: 0.0
  angular: 
    x: 0.0
    y: 0.0
    z: 0.0
---
header: 
  seq: 34
  stamp: 
    secs: 1722859110
    nsecs: 644637107
  frame_id: ''
twist: 
  linear: 
    x: 0.5573564212133166
    y: 0.0804348376683503
    z: 0.0
  angular: 
    x: 0.0
    y: 0.0
    z: 0.0
---
header: 
  seq: 35
  stamp: 
    secs: 1722859110
    nsecs: 673471450
  frame_id: ''
twist: 
  linear: 
    x: 0.557435645584943
    y: 0.08015419383978181
    z: 0.0
  angular: 
    x: 0.0
    y: 0.0
    z: 0.0
---
header: 
  seq: 36
  stamp: 
    secs: 1722859110
    nsecs: 690831661
  frame_id: ''
twist: 
  linear: 
    x: 0.5574883922435959
    y: 0.08024016918837204
    z: 0.0
  angular: 
    x: 0.0
    y: 0.0
    z: 0.0
---
header: 
  seq: 37
  stamp: 
    secs: 1722859110
    nsecs: 704550743
  frame_id: ''
twist: 
  linear: 
    x: 0.5575452662821093
    y: 0.0803397898166279
    z: 0.0
  angular: 
    x: 0.0
    y: 0.0
    z: 0.0
---
header: 
  seq: 38
  stamp: 
    secs: 1722859110
    nsecs: 728052854
  frame_id: ''
twist: 
  linear: 
    x: 0.5575043984266108
    y: 0.08018537158706393
    z: 0.0
  angular: 
    x: 0.0
    y: 0.0
    z: 0.0
---
header: 
  seq: 39
  stamp: 
    secs: 1722859110
    nsecs: 740562200
  frame_id: ''
twist: 
  linear: 
    x: 0.5575242638007928
    y: 0.08018771018085143
    z: 0.0
  angular: 
    x: 0.0
    y: 0.0
    z: 0.0
---
header: 
  seq: 40
  stamp: 
    secs: 1722859110
    nsecs: 757041215
  frame_id: ''
twist: 
  linear: 
    x: 0.5575010191461394
    y: 0.08008176086877415
    z: 0.0
  angular: 
    x: 0.0
    y: 0.0
    z: 0.0
---
header: 
  seq: 41
  stamp: 
    secs: 1722859110
    nsecs: 784100055
  frame_id: ''
twist: 
  linear: 
    x: 0.5575375200442078
    y: 0.08012846898178255
    z: 0.0
  angular: 
    x: 0.0
    y: 0.0
    z: 0.0
---
header: 
  seq: 42
  stamp: 
    secs: 1722859110
    nsecs: 817235231
  frame_id: ''
twist: 
  linear: 
    x: 0.557592674423791
    y: 0.08020663345032195
    z: 0.0
  angular: 
    x: 0.0
    y: 0.0
    z: 0.0
---
header: 
  seq: 43
  stamp: 
    secs: 1722859110
    nsecs: 874171495
  frame_id: ''
twist: 
  linear: 
    x: 0.5578576688240633
    y: 0.07968178016383387
    z: 0.0
  angular: 
    x: 0.0
    y: 0.0
    z: 0.0
---
header: 
  seq: 44
  stamp: 
    secs: 1722859110
    nsecs: 891371965
  frame_id: ''
twist: 
  linear: 
    x: 0.5578501293906708
    y: 0.07961738295875802
    z: 0.0
  angular: 
    x: 0.0
    y: 0.0
    z: 0.0
---
header: 
  seq: 45
  stamp: 
    secs: 1722859110
    nsecs: 909095764
  frame_id: ''
twist: 
  linear: 
    x: 0.5579147787693451
    y: 0.07953216166388578
    z: 0.0
  angular: 
    x: 0.0
    y: 0.0
    z: 0.0
---
header: 
  seq: 46
  stamp: 
    secs: 1722859110
    nsecs: 924156904
  frame_id: ''
twist: 
  linear: 
    x: 0.5579786907765727
    y: 0.0796297461057357
    z: 0.0
  angular: 
    x: 0.0
    y: 0.0
    z: 0.0
---
header: 
  seq: 47
  stamp: 
    secs: 1722859110
    nsecs: 938107252
  frame_id: ''
twist: 
  linear: 
    x: 0.5579799462305854
    y: 0.07958397229214687
    z: 0.0
  angular: 
    x: 0.0
    y: 0.0
    z: 0.0
---
header: 
  seq: 48
  stamp: 
    secs: 1722859110
    nsecs: 966392993
  frame_id: ''
twist: 
  linear: 
    x: 0.5580455828581539
    y: 0.07948411684417776
    z: 0.0
  angular: 
    x: 0.0
    y: 0.0
    z: 0.0
---
header: 
  seq: 49
  stamp: 
    secs: 1722859110
    nsecs: 982501029
  frame_id: ''
twist: 
  linear: 
    x: 0.558041409306892
    y: 0.07943542150134515
    z: 0.0
  angular: 
    x: 0.0
    y: 0.0
    z: 0.0
---
header: 
  seq: 50
  stamp: 
    secs: 1722859111
    nsecs:   1380443
  frame_id: ''
twist: 
  linear: 
    x: 0.5580543282200623
    y: 0.0794300958591153
    z: 0.0
  angular: 
    x: 0.0
    y: 0.0
    z: 0.0
---
header: 
  seq: 51
  stamp: 
    secs: 1722859111
    nsecs:  36549806
  frame_id: ''
twist: 
  linear: 
    x: 0.5581463129705334
    y: 0.07940284285613536
    z: 0.0
  angular: 
    x: 0.0
    y: 0.0
    z: 0.0
---
header: 
  seq: 52
  stamp: 
    secs: 1722859111
    nsecs:  43339014
  frame_id: ''
twist: 
  linear: 
    x: 0.5581264240342287
    y: 0.07925773974249992
    z: 0.0
  angular: 
    x: 0.0
    y: 0.0
    z: 0.0
---
header: 
  seq: 53
  stamp: 
    secs: 1722859111
    nsecs:  50814867
  frame_id: ''
twist: 
  linear: 
    x: 0.5581050254072042
    y: 0.07913199485124839
    z: 0.0
  angular: 
    x: 0.0
    y: 0.0
    z: 0.0
---
header: 
  seq: 54
  stamp: 
    secs: 1722859111
    nsecs:  61332702
  frame_id: ''
twist: 
  linear: 
    x: 0.5581609681230091
    y: 0.0792815342611727
    z: 0.0
  angular: 
    x: 0.0
    y: 0.0
    z: 0.0
---
header: 
  seq: 55
  stamp: 
    secs: 1722859111
    nsecs:  72048902
  frame_id: ''
twist: 
  linear: 
    x: 0.5581270827015106
    y: 0.07911126039945822
    z: 0.0
  angular: 
    x: 0.0
    y: 0.0
    z: 0.0
---
header: 
  seq: 56
  stamp: 
    secs: 1722859111
    nsecs:  85405588
  frame_id: ''
twist: 
  linear: 
    x: 0.5582003724362097
    y: 0.07932884071144544
    z: 0.0
  angular: 
    x: 0.0
    y: 0.0
    z: 0.0
---
header: 
  seq: 57
  stamp: 
    secs: 1722859111
    nsecs:  94027280
  frame_id: ''
twist: 
  linear: 
    x: 0.5580847221574173
    y: 0.07886252595856003
    z: 0.0
  angular: 
    x: 0.0
    y: 0.0
    z: 0.0
---
header: 
  seq: 58
  stamp: 
    secs: 1722859111
    nsecs: 103911876
  frame_id: ''
twist: 
  linear: 
    x: 0.5582151361579957
    y: 0.07928526687998927
    z: 0.0
  angular: 
    x: 0.0
    y: 0.0
    z: 0.0
---
header: 
  seq: 59
  stamp: 
    secs: 1722859111
    nsecs: 120301246
  frame_id: ''
twist: 
  linear: 
    x: 0.5581107175033226
    y: 0.0788457157208303
    z: 0.0
  angular: 
    x: 0.0
    y: 0.0
    z: 0.0
---
header: 
  seq: 60
  stamp: 
    secs: 1722859111
    nsecs: 169191360
  frame_id: ''
twist: 
  linear: 
    x: 0.5583469615874247
    y: 0.07904010727650666
    z: 0.0
  angular: 
    x: 0.0
    y: 0.0
    z: 0.0
---
header: 
  seq: 61
  stamp: 
    secs: 1722859111
    nsecs: 186411857
  frame_id: ''
twist: 
  linear: 
    x: 0.5582877341697463
    y: 0.07875111169810094
    z: 0.0
  angular: 
    x: 0.0
    y: 0.0
    z: 0.0
---
header: 
  seq: 62
  stamp: 
    secs: 1722859111
    nsecs: 210021734
  frame_id: ''
twist: 
  linear: 
    x: 0.5583014068743353
    y: 0.07877022616476792
    z: 0.0
  angular: 
    x: 0.0
    y: 0.0
    z: 0.0
---
header: 
  seq: 63
  stamp: 
    secs: 1722859111
    nsecs: 243329048
  frame_id: ''
twist: 
  linear: 
    x: 0.5583686516860928
    y: 0.0784530390128138
    z: 0.0
  angular: 
    x: 0.0
    y: 0.0
    z: 0.0
---
header: 
  seq: 64
  stamp: 
    secs: 1722859111
    nsecs: 260028123
  frame_id: ''
twist: 
  linear: 
    x: 0.5583987594577499
    y: 0.07848178527684231
    z: 0.0
  angular: 
    x: 0.0
    y: 0.0
    z: 0.0
---
header: 
  seq: 65
  stamp: 
    secs: 1722859111
    nsecs: 276165485
  frame_id: ''
twist: 
  linear: 
    x: 0.5584535225827034
    y: 0.07871598425934652
    z: 0.0
  angular: 
    x: 0.0
    y: 0.0
    z: 0.0
---
header: 
  seq: 66
  stamp: 
    secs: 1722859111
    nsecs: 290422677
  frame_id: ''
twist: 
  linear: 
    x: 0.5584491052455254
    y: 0.07864845230339386
    z: 0.0
  angular: 
    x: 0.0
    y: 0.0
    z: 0.0
---
header: 
  seq: 67
  stamp: 
    secs: 1722859111
    nsecs: 306891679
  frame_id: ''
twist: 
  linear: 
    x: 0.5584348815018397
    y: 0.07852716863843738
    z: 0.0
  angular: 
    x: 0.0
    y: 0.0
    z: 0.0
---
header: 
  seq: 68
  stamp: 
    secs: 1722859111
    nsecs: 324348688
  frame_id: ''
twist: 
  linear: 
    x: 0.5584450685449567
    y: 0.07852073834385054
    z: 0.0
  angular: 
    x: 0.0
    y: 0.0
    z: 0.0
---
header: 
  seq: 69
  stamp: 
    secs: 1722859111
    nsecs: 346308708
  frame_id: ''
twist: 
  linear: 
    x: 0.5584763166454236
    y: 0.07863205802703405
    z: 0.0
  angular: 
    x: 0.0
    y: 0.0
    z: 0.0
---
header: 
  seq: 70
  stamp: 
    secs: 1722859111
    nsecs: 357976913
  frame_id: ''
twist: 
  linear: 
    x: 0.558450713037175
    y: 0.0784456811947189
    z: 0.0
  angular: 
    x: 0.0
    y: 0.0
    z: 0.0
---
header: 
  seq: 71
  stamp: 
    secs: 1722859111
    nsecs: 378167629
  frame_id: ''
twist: 
  linear: 
    x: 0.558458872682239
    y: 0.0784548940269429
    z: 0.0
  angular: 
    x: 0.0
    y: 0.0
    z: 0.0
---
header: 
  seq: 72
  stamp: 
    secs: 1722859111
    nsecs: 417393207
  frame_id: ''
twist: 
  linear: 
    x: 0.5585326032537891
    y: 0.07801825023231189
    z: 0.0
  angular: 
    x: 0.0
    y: 0.0
    z: 0.0
---
header: 
  seq: 73
  stamp: 
    secs: 1722859111
    nsecs: 433497905
  frame_id: ''
twist: 
  linear: 
    x: 0.5585578208392438
    y: 0.07811829591574909
    z: 0.0
  angular: 
    x: 0.0
    y: 0.0
    z: 0.0
---
header: 
  seq: 74
  stamp: 
    secs: 1722859111
    nsecs: 451353073
  frame_id: ''
twist: 
  linear: 
    x: 0.558575805596553
    y: 0.0781699803607965
    z: 0.0
  angular: 
    x: 0.0
    y: 0.0
    z: 0.0
---
header: 
  seq: 75
  stamp: 
    secs: 1722859111
    nsecs: 461436271
  frame_id: ''
twist: 
  linear: 
    x: 0.5585642212293571
    y: 0.07805312504437058
    z: 0.0
  angular: 
    x: 0.0
    y: 0.0
    z: 0.0
---
header: 
  seq: 76
  stamp: 
    secs: 1722859111
    nsecs: 469916343
  frame_id: ''
twist: 
  linear: 
    x: 0.558575383292408
    y: 0.07808844642776598
    z: 0.0
  angular: 
    x: 0.0
    y: 0.0
    z: 0.0
---
header: 
  seq: 77
  stamp: 
    secs: 1722859111
    nsecs: 483131647
  frame_id: ''
twist: 
  linear: 
    x: 0.5585776363582772
    y: 0.07803704897377343
    z: 0.0
  angular: 
    x: 0.0
    y: 0.0
    z: 0.0
---
header: 
  seq: 78
  stamp: 
    secs: 1722859111
    nsecs: 493422746
  frame_id: ''
twist: 
  linear: 
    x: 0.5586038646049786
    y: 0.07814726112201345
    z: 0.0
  angular: 
    x: 0.0
    y: 0.0
    z: 0.0
---
header: 
  seq: 79
  stamp: 
    secs: 1722859111
    nsecs: 508616209
  frame_id: ''
twist: 
  linear: 
    x: 0.5586004963011126
    y: 0.07807212924370345
    z: 0.0
  angular: 
    x: 0.0
    y: 0.0
    z: 0.0
---
header: 
  seq: 80
  stamp: 
    secs: 1722859111
    nsecs: 536578655
  frame_id: ''
twist: 
  linear: 
    x: 0.558652949763299
    y: 0.07786117258194324
    z: 0.0
  angular: 
    x: 0.0
    y: 0.0
    z: 0.0
---
header: 
  seq: 81
  stamp: 
    secs: 1722859111
    nsecs: 553678512
  frame_id: ''
twist: 
  linear: 
    x: 0.5586734903968106
    y: 0.07773110266052433
    z: 0.0
  angular: 
    x: 0.0
    y: 0.0
    z: 0.0
---
header: 
  seq: 82
  stamp: 
    secs: 1722859111
    nsecs: 565415382
  frame_id: ''
twist: 
  linear: 
    x: 0.5586690610664865
    y: 0.07763722490961987
    z: 0.0
  angular: 
    x: 0.0
    y: 0.0
    z: 0.0
---
header: 
  seq: 83
  stamp: 
    secs: 1722859111
    nsecs: 604001998
  frame_id: ''
twist: 
  linear: 
    x: 0.5586794542771603
    y: 0.07767097984950772
    z: 0.0
  angular: 
    x: 0.0
    y: 0.0
    z: 0.0
---
header: 
  seq: 84
  stamp: 
    secs: 1722859111
    nsecs: 621348619
  frame_id: ''
twist: 
  linear: 
    x: 0.5586821767516702
    y: 0.07761556921298686
    z: 0.0
  angular: 
    x: 0.0
    y: 0.0
    z: 0.0
---
header: 
  seq: 85
  stamp: 
    secs: 1722859111
    nsecs: 633234262
  frame_id: ''
twist: 
  linear: 
    x: 0.5586947892733463
    y: 0.07767382217330562
    z: 0.0
  angular: 
    x: 0.0
    y: 0.0
    z: 0.0
---
header: 
  seq: 86
  stamp: 
    secs: 1722859111
    nsecs: 651417970
  frame_id: ''
twist: 
  linear: 
    x: 0.5586858694154199
    y: 0.07754431868606126
    z: 0.0
  angular: 
    x: 0.0
    y: 0.0
    z: 0.0
---
header: 
  seq: 87
  stamp: 
    secs: 1722859111
    nsecs: 679977893
  frame_id: ''
twist: 
  linear: 
    x: 0.558684660297736
    y: 0.07747449611326154
    z: 0.0
  angular: 
    x: 0.0
    y: 0.0
    z: 0.0
---
header: 
  seq: 88
  stamp: 
    secs: 1722859111
    nsecs: 711986541
  frame_id: ''
twist: 
  linear: 
    x: 0.5587507755517337
    y: 0.07719537124050573
    z: 0.0
  angular: 
    x: 0.0
    y: 0.0
    z: 0.0
---
header: 
  seq: 89
  stamp: 
    secs: 1722859111
    nsecs: 744098663
  frame_id: ''
twist: 
  linear: 
    x: 0.5587827931751632
    y: 0.07721315009820241
    z: 0.0
  angular: 
    x: 0.0
    y: 0.0
    z: 0.0
---
header: 
  seq: 90
  stamp: 
    secs: 1722859111
    nsecs: 776198625
  frame_id: ''
twist: 
  linear: 
    x: 0.5587738054039572
    y: 0.07694937868992616
    z: 0.0
  angular: 
    x: 0.0
    y: 0.0
    z: 0.0
---
header: 
  seq: 91
  stamp: 
    secs: 1722859111
    nsecs: 797430038
  frame_id: ''
twist: 
  linear: 
    x: 0.5587788808071636
    y: 0.07696574546602478
    z: 0.0
  angular: 
    x: 0.0
    y: 0.0
    z: 0.0
---
header: 
  seq: 92
  stamp: 
    secs: 1722859111
    nsecs: 814475536
  frame_id: ''
twist: 
  linear: 
    x: 0.558763842715764
    y: 0.07676347178031026
    z: 0.0
  angular: 
    x: 0.0
    y: 0.0
    z: 0.0
---
header: 
  seq: 93
  stamp: 
    secs: 1722859111
    nsecs: 829290866
  frame_id: ''
twist: 
  linear: 
    x: 0.5587936925665326
    y: 0.07703831818134087
    z: 0.0
  angular: 
    x: 0.0
    y: 0.0
    z: 0.0
---
header: 
  seq: 94
  stamp: 
    secs: 1722859111
    nsecs: 844154357
  frame_id: ''
twist: 
  linear: 
    x: 0.558790471666792
    y: 0.07689158657100925
    z: 0.0
  angular: 
    x: 0.0
    y: 0.0
    z: 0.0
---
header: 
  seq: 95
  stamp: 
    secs: 1722859111
    nsecs: 869276046
  frame_id: ''
twist: 
  linear: 
    x: 0.5587934424277841
    y: 0.07653853143642358
    z: 0.0
  angular: 
    x: 0.0
    y: 0.0
    z: 0.0
---
header: 
  seq: 96
  stamp: 
    secs: 1722859111
    nsecs: 877372741
  frame_id: ''
twist: 
  linear: 
    x: 0.5588043251776316
    y: 0.07661964403560963
    z: 0.0
  angular: 
    x: 0.0
    y: 0.0
    z: 0.0
---
header: 
  seq: 97
  stamp: 
    secs: 1722859111
    nsecs: 888861894
  frame_id: ''
twist: 
  linear: 
    x: 0.5588082306523263
    y: 0.07663015453411817
    z: 0.0
  angular: 
    x: 0.0
    y: 0.0
    z: 0.0
---
header: 
  seq: 98
  stamp: 
    secs: 1722859111
    nsecs: 907582044
  frame_id: ''
twist: 
  linear: 
    x: 0.5588008921051946
    y: 0.07642714374883984
    z: 0.0
  angular: 
    x: 0.0
    y: 0.0
    z: 0.0
---
header: 
  seq: 99
  stamp: 
    secs: 1722859111
    nsecs: 929254770
  frame_id: ''
twist: 
  linear: 
    x: 0.5588254046573908
    y: 0.07641196101194817
    z: 0.0
  angular: 
    x: 0.0
    y: 0.0
    z: 0.0
---
header: 
  seq: 100
  stamp: 
    secs: 1722859111
    nsecs: 956892013
  frame_id: ''
twist: 
  linear: 
    x: 0.5588302246509541
    y: 0.07629763946160076
    z: 0.0
  angular: 
    x: 0.0
    y: 0.0
    z: 0.0
---
header: 
  seq: 101
  stamp: 
    secs: 1722859111
    nsecs: 976174116
  frame_id: ''
twist: 
  linear: 
    x: 0.5588473679308579
    y: 0.07635258550291593
    z: 0.0
  angular: 
    x: 0.0
    y: 0.0
    z: 0.0
---
header: 
  seq: 102
  stamp: 
    secs: 1722859111
    nsecs: 998091459
  frame_id: ''
twist: 
  linear: 
    x: 0.5588449543730475
    y: 0.07628132066289141
    z: 0.0
  angular: 
    x: 0.0
    y: 0.0
    z: 0.0
---
header: 
  seq: 103
  stamp: 
    secs: 1722859112
    nsecs:  25192499
  frame_id: ''
twist: 
  linear: 
    x: 0.5588432215663501
    y: 0.07622792528376106
    z: 0.0
  angular: 
    x: 0.0
    y: 0.0
    z: 0.0
---
header: 
  seq: 104
  stamp: 
    secs: 1722859112
    nsecs:  43461084
  frame_id: ''
twist: 
  linear: 
    x: 0.558851579423326
    y: 0.07601001463125534
    z: 0.0
  angular: 
    x: 0.0
    y: 0.0
    z: 0.0
---
header: 
  seq: 105
  stamp: 
    secs: 1722859112
    nsecs:  63897609
  frame_id: ''
twist: 
  linear: 
    x: 0.5588642216661679
    y: 0.0761636281958208
    z: 0.0
  angular: 
    x: 0.0
    y: 0.0
    z: 0.0
---
header: 
  seq: 106
  stamp: 
    secs: 1722859112
    nsecs:  76131820
  frame_id: ''
twist: 
  linear: 
    x: 0.5588603620772614
    y: 0.07605142008219831
    z: 0.0
  angular: 
    x: 0.0
    y: 0.0
    z: 0.0
---
header: 
  seq: 107
  stamp: 
    secs: 1722859112
    nsecs:  85948705
  frame_id: ''
twist: 
  linear: 
    x: 0.5588702134237532
    y: 0.07612558023017829
    z: 0.0
  angular: 
    x: 0.0
    y: 0.0
    z: 0.0
---
header: 
  seq: 108
  stamp: 
    secs: 1722859112
    nsecs: 100185394
  frame_id: ''
twist: 
  linear: 
    x: 0.5588749339915845
    y: 0.07611796643232031
    z: 0.0
  angular: 
    x: 0.0
    y: 0.0
    z: 0.0
---
header: 
  seq: 109
  stamp: 
    secs: 1722859112
    nsecs: 109421014
  frame_id: ''
twist: 
  linear: 
    x: 0.5588728330749604
    y: 0.07589202878239437
    z: 0.0
  angular: 
    x: 0.0
    y: 0.0
    z: 0.0
---
header: 
  seq: 110
  stamp: 
    secs: 1722859112
    nsecs: 117173671
  frame_id: ''
twist: 
  linear: 
    x: 0.5588772675057468
    y: 0.07588226396122068
    z: 0.0
  angular: 
    x: 0.0
    y: 0.0
    z: 0.0
---
header: 
  seq: 111
  stamp: 
    secs: 1722859112
    nsecs: 134257555
  frame_id: ''
twist: 
  linear: 
    x: 0.5588778219573077
    y: 0.07585604229025233
    z: 0.0
  angular: 
    x: 0.0
    y: 0.0
    z: 0.0
---
header: 
  seq: 112
  stamp: 
    secs: 1722859112
    nsecs: 151567697
  frame_id: ''
twist: 
  linear: 
    x: 0.5588782992044979
    y: 0.07585047796554473
    z: 0.0
  angular: 
    x: 0.0
    y: 0.0
    z: 0.0
---
header: 
  seq: 113
  stamp: 
    secs: 1722859112
    nsecs: 181996583
  frame_id: ''
twist: 
  linear: 
    x: 0.5588913567814024
    y: 0.0755366383200846
    z: 0.0
  angular: 
    x: 0.0
    y: 0.0
    z: 0.0
---
header: 
  seq: 114
  stamp: 
    secs: 1722859112
    nsecs: 206268787
  frame_id: ''
twist: 
  linear: 
    x: 0.5588824687993744
    y: 0.0753455652865904
    z: 0.0
  angular: 
    x: 0.0
    y: 0.0
    z: 0.0
---
header: 
  seq: 115
  stamp: 
    secs: 1722859112
    nsecs: 220304965
  frame_id: ''
twist: 
  linear: 
    x: 0.5588863340789475
    y: 0.07538733601860463
    z: 0.0
  angular: 
    x: 0.0
    y: 0.0
    z: 0.0
---
header: 
  seq: 116
  stamp: 
    secs: 1722859112
    nsecs: 226387500
  frame_id: ''
twist: 
  linear: 
    x: 0.5588822823647751
    y: 0.07525606871643038
    z: 0.0
  angular: 
    x: 0.0
    y: 0.0
    z: 0.0
---
header: 
  seq: 117
  stamp: 
    secs: 1722859112
    nsecs: 246079206
  frame_id: ''
twist: 
  linear: 
    x: 0.5588889672240986
    y: 0.07537929809982419
    z: 0.0
  angular: 
    x: 0.0
    y: 0.0
    z: 0.0
---
header: 
  seq: 118
  stamp: 
    secs: 1722859112
    nsecs: 264440774
  frame_id: ''
twist: 
  linear: 
    x: 0.5588821999371604
    y: 0.07516886814913282
    z: 0.0
  angular: 
    x: 0.0
    y: 0.0
    z: 0.0
---
header: 
  seq: 119
  stamp: 
    secs: 1722859112
    nsecs: 277859210
  frame_id: ''
twist: 
  linear: 
    x: 0.5588836749183453
    y: 0.07517341475751964
    z: 0.0
  angular: 
    x: 0.0
    y: 0.0
    z: 0.0
---
header: 
  seq: 120
  stamp: 
    secs: 1722859112
    nsecs: 296276569
  frame_id: ''
twist: 
  linear: 
    x: 0.5588852281160441
    y: 0.07517426376492523
    z: 0.0
  angular: 
    x: 0.0
    y: 0.0
    z: 0.0
---
header: 
  seq: 121
  stamp: 
    secs: 1722859112
    nsecs: 307755231
  frame_id: ''
twist: 
  linear: 
    x: 0.5588864583906309
    y: 0.0751717150411635
    z: 0.0
  angular: 
    x: 0.0
    y: 0.0
    z: 0.0
---
header: 
  seq: 122
  stamp: 
    secs: 1722859112
    nsecs: 332932949
  frame_id: ''
twist: 
  linear: 
    x: 0.5588899860521951
    y: 0.075156871674132
    z: 0.0
  angular: 
    x: 0.0
    y: 0.0
    z: 0.0
---
header: 
  seq: 123
  stamp: 
    secs: 1722859112
    nsecs: 349121809
  frame_id: ''
twist: 
  linear: 
    x: 0.5588945658284649
    y: 0.07505136287791644
    z: 0.0
  angular: 
    x: 0.0
    y: 0.0
    z: 0.0
---
header: 
  seq: 124
  stamp: 
    secs: 1722859112
    nsecs: 377702713
  frame_id: ''
twist: 
  linear: 
    x: 0.5589193212175058
    y: 0.07490718600243397
    z: 0.0
  angular: 
    x: 0.0
    y: 0.0
    z: 0.0
---
header: 
  seq: 125
  stamp: 
    secs: 1722859112
    nsecs: 392966985
  frame_id: ''
twist: 
  linear: 
    x: 0.5589199934697583
    y: 0.07463865993902576
    z: 0.0
  angular: 
    x: 0.0
    y: 0.0
    z: 0.0
---
header: 
  seq: 126
  stamp: 
    secs: 1722859112
    nsecs: 410100460
  frame_id: ''
twist: 
  linear: 
    x: 0.5589312044722929
    y: 0.0746751347982132
    z: 0.0
  angular: 
    x: 0.0
    y: 0.0
    z: 0.0
---
header: 
  seq: 127
  stamp: 
    secs: 1722859112
    nsecs: 423928022
  frame_id: ''
twist: 
  linear: 
    x: 0.558930262400353
    y: 0.07456786545672603
    z: 0.0
  angular: 
    x: 0.0
    y: 0.0
    z: 0.0
---
header: 
  seq: 128
  stamp: 
    secs: 1722859112
    nsecs: 450086355
  frame_id: ''
twist: 
  linear: 
    x: 0.5589270442193247
    y: 0.07443950016823028
    z: 0.0
  angular: 
    x: 0.0
    y: 0.0
    z: 0.0
---
header: 
  seq: 129
  stamp: 
    secs: 1722859112
    nsecs: 476330041
  frame_id: ''
twist: 
  linear: 
    x: 0.5589315514556463
    y: 0.0744122417882456
    z: 0.0
  angular: 
    x: 0.0
    y: 0.0
    z: 0.0
---
header: 
  seq: 130
  stamp: 
    secs: 1722859112
    nsecs: 511854410
  frame_id: ''
twist: 
  linear: 
    x: 0.5589394759173778
    y: 0.07463663509267277
    z: 0.0
  angular: 
    x: 0.0
    y: 0.0
    z: 0.0
---
header: 
  seq: 131
  stamp: 
    secs: 1722859112
    nsecs: 539934396
  frame_id: ''
twist: 
  linear: 
    x: 0.5589330076212813
    y: 0.07401493410332519
    z: 0.0
  angular: 
    x: 0.0
    y: 0.0
    z: 0.0
---
header: 
  seq: 132
  stamp: 
    secs: 1722859112
    nsecs: 559344530
  frame_id: ''
twist: 
  linear: 
    x: 0.5589404603224007
    y: 0.07419225684501064
    z: 0.0
  angular: 
    x: 0.0
    y: 0.0
    z: 0.0
---
header: 
  seq: 133
  stamp: 
    secs: 1722859112
    nsecs: 587407588
  frame_id: ''
twist: 
  linear: 
    x: 0.558946915014224
    y: 0.07402788442157235
    z: 0.0
  angular: 
    x: 0.0
    y: 0.0
    z: 0.0
---
header: 
  seq: 134
  stamp: 
    secs: 1722859112
    nsecs: 602240800
  frame_id: ''
twist: 
  linear: 
    x: 0.5589487136956582
    y: 0.07380961671082159
    z: 0.0
  angular: 
    x: 0.0
    y: 0.0
    z: 0.0
---
header: 
  seq: 135
  stamp: 
    secs: 1722859112
    nsecs: 626739501
  frame_id: ''
twist: 
  linear: 
    x: 0.5589545176312133
    y: 0.07393325343726129
    z: 0.0
  angular: 
    x: 0.0
    y: 0.0
    z: 0.0
---
header: 
  seq: 136
  stamp: 
    secs: 1722859112
    nsecs: 639846086
  frame_id: ''
twist: 
  linear: 
    x: 0.5589503088986687
    y: 0.07364197880862694
    z: 0.0
  angular: 
    x: 0.0
    y: 0.0
    z: 0.0
---
header: 
  seq: 137
  stamp: 
    secs: 1722859112
    nsecs: 652235507
  frame_id: ''
twist: 
  linear: 
    x: 0.5589552734659515
    y: 0.07385190869034863
    z: 0.0
  angular: 
    x: 0.0
    y: 0.0
    z: 0.0
---
header: 
  seq: 138
  stamp: 
    secs: 1722859112
    nsecs: 669466733
  frame_id: ''
twist: 
  linear: 
    x: 0.5589515616279008
    y: 0.07370977105820124
    z: 0.0
  angular: 
    x: 0.0
    y: 0.0
    z: 0.0
---
header: 
  seq: 139
  stamp: 
    secs: 1722859112
    nsecs: 693333148
  frame_id: ''
twist: 
  linear: 
    x: 0.5589552919179119
    y: 0.07361549234615183
    z: 0.0
  angular: 
    x: 0.0
    y: 0.0
    z: 0.0
---
header: 
  seq: 140
  stamp: 
    secs: 1722859112
    nsecs: 718382596
  frame_id: ''
twist: 
  linear: 
    x: 0.5589539214315511
    y: 0.07343761253353807
    z: 0.0
  angular: 
    x: 0.0
    y: 0.0
    z: 0.0
---
header: 
  seq: 141
  stamp: 
    secs: 1722859112
    nsecs: 736362934
  frame_id: ''
twist: 
  linear: 
    x: 0.5589617933712676
    y: 0.07370325138977367
    z: 0.0
  angular: 
    x: 0.0
    y: 0.0
    z: 0.0
---
header: 
  seq: 142
  stamp: 
    secs: 1722859112
    nsecs: 770123004
  frame_id: ''
twist: 
  linear: 
    x: 0.5589716409100546
    y: 0.07331809285349572
    z: 0.0
  angular: 
    x: 0.0
    y: 0.0
    z: 0.0
---
header: 
  seq: 143
  stamp: 
    secs: 1722859112
    nsecs: 786711454
  frame_id: ''
twist: 
  linear: 
    x: 0.5589657328798704
    y: 0.07317365477665236
    z: 0.0
  angular: 
    x: 0.0
    y: 0.0
    z: 0.0
---
header: 
  seq: 144
  stamp: 
    secs: 1722859112
    nsecs: 794112205
  frame_id: ''
twist: 
  linear: 
    x: 0.5589699080424204
    y: 0.07338042051441436
    z: 0.0
  angular: 
    x: 0.0
    y: 0.0
    z: 0.0
---
header: 
  seq: 145
  stamp: 
    secs: 1722859112
    nsecs: 809881687
  frame_id: ''
twist: 
  linear: 
    x: 0.5589638192838734
    y: 0.07316113732178564
    z: 0.0
  angular: 
    x: 0.0
    y: 0.0
    z: 0.0
---
header: 
  seq: 146
  stamp: 
    secs: 1722859112
    nsecs: 823392868
  frame_id: ''
twist: 
  linear: 
    x: 0.5589662757585269
    y: 0.07325075180042376
    z: 0.0
  angular: 
    x: 0.0
    y: 0.0
    z: 0.0
---
header: 
  seq: 147
  stamp: 
    secs: 1722859112
    nsecs: 846120595
  frame_id: ''
twist: 
  linear: 
    x: 0.5589628579757371
    y: 0.07302099643090539
    z: 0.0
  angular: 
    x: 0.0
    y: 0.0
    z: 0.0
---
header: 
  seq: 148
  stamp: 
    secs: 1722859112
    nsecs: 866939544
  frame_id: ''
twist: 
  linear: 
    x: 0.5589692098799728
    y: 0.07316515012874233
    z: 0.0
  angular: 
    x: 0.0
    y: 0.0
    z: 0.0
---
header: 
  seq: 149
  stamp: 
    secs: 1722859112
    nsecs: 889983415
  frame_id: ''
twist: 
  linear: 
    x: 0.5589718137030785
    y: 0.07315351625332837
    z: 0.0
  angular: 
    x: 0.0
    y: 0.0
    z: 0.0
---
header: 
  seq: 150
  stamp: 
    secs: 1722859112
    nsecs: 915200710
  frame_id: ''
twist: 
  linear: 
    x: 0.5589799884379567
    y: 0.07325487955200946
    z: 0.0
  angular: 
    x: 0.0
    y: 0.0
    z: 0.0
---
header: 
  seq: 151
  stamp: 
    secs: 1722859112
    nsecs: 941992521
  frame_id: ''
twist: 
  linear: 
    x: 0.5589825290558129
    y: 0.07318569704649056
    z: 0.0
  angular: 
    x: 0.0
    y: 0.0
    z: 0.0
---
header: 
  seq: 152
  stamp: 
    secs: 1722859112
    nsecs: 954178333
  frame_id: ''
twist: 
  linear: 
    x: 0.5589807721458695
    y: 0.07311450498174774
    z: 0.0
  angular: 
    x: 0.0
    y: 0.0
    z: 0.0
---
header: 
  seq: 153
  stamp: 
    secs: 1722859112
    nsecs: 974502563
  frame_id: ''
twist: 
  linear: 
    x: 0.5589837873756887
    y: 0.07311318173181032
    z: 0.0
  angular: 
    x: 0.0
    y: 0.0
    z: 0.0
---
header: 
  seq: 154
  stamp: 
    secs: 1722859112
    nsecs: 986932754
  frame_id: ''
twist: 
  linear: 
    x: 0.5589808433738532
    y: 0.07290748640762776
    z: 0.0
  angular: 
    x: 0.0
    y: 0.0
    z: 0.0
---
header: 
  seq: 155
  stamp: 
    secs: 1722859113
    nsecs:   6931304
  frame_id: ''
twist: 
  linear: 
    x: 0.5589834895261606
    y: 0.0730115762823613
    z: 0.0
  angular: 
    x: 0.0
    y: 0.0
    z: 0.0
---
header: 
  seq: 156
  stamp: 
    secs: 1722859113
    nsecs:  12355089
  frame_id: ''
twist: 
  linear: 
    x: 0.5589852522357525
    y: 0.07298049725365596
    z: 0.0
  angular: 
    x: 0.0
    y: 0.0
    z: 0.0
---
header: 
  seq: 157
  stamp: 
    secs: 1722859113
    nsecs:  29359579
  frame_id: ''
twist: 
  linear: 
    x: 0.5589868434872473
    y: 0.07304231974736355
    z: 0.0
  angular: 
    x: 0.0
    y: 0.0
    z: 0.0
---
header: 
  seq: 158
  stamp: 
    secs: 1722859113
    nsecs:  40113925
  frame_id: ''
twist: 
  linear: 
    x: 0.5589824056443128
    y: 0.07284219698827968
    z: 0.0
  angular: 
    x: 0.0
    y: 0.0
    z: 0.0
---
header: 
  seq: 159
  stamp: 
    secs: 1722859113
    nsecs:  53935527
  frame_id: ''
twist: 
  linear: 
    x: 0.5589845508504405
    y: 0.07307263099160077
    z: 0.0
  angular: 
    x: 0.0
    y: 0.0
    z: 0.0
---
header: 
  seq: 160
  stamp: 
    secs: 1722859113
    nsecs:  71423292
  frame_id: ''
twist: 
  linear: 
    x: 0.5589759071567539
    y: 0.07274320856912164
    z: 0.0
  angular: 
    x: 0.0
    y: 0.0
    z: 0.0
---
header: 
  seq: 161
  stamp: 
    secs: 1722859113
    nsecs:  88004589
  frame_id: ''
twist: 
  linear: 
    x: 0.5589842532242145
    y: 0.07307134614415933
    z: 0.0
  angular: 
    x: 0.0
    y: 0.0
    z: 0.0
---
header: 
  seq: 162
  stamp: 
    secs: 1722859113
    nsecs: 143035173
  frame_id: ''
twist: 
  linear: 
    x: 0.5590216656400285
    y: 0.07200758049681825
    z: 0.0
  angular: 
    x: 0.0
    y: 0.0
    z: 0.0
---
header: 
  seq: 163
  stamp: 
    secs: 1722859113
    nsecs: 165282011
  frame_id: ''
twist: 
  linear: 
    x: 0.5590229570783815
    y: 0.0720285892599963
    z: 0.0
  angular: 
    x: 0.0
    y: 0.0
    z: 0.0
---
header: 
  seq: 164
  stamp: 
    secs: 1722859113
    nsecs: 191044092
  frame_id: ''
twist: 
  linear: 
    x: 0.5590361468329098
    y: 0.07196965901273004
    z: 0.0
  angular: 
    x: 0.0
    y: 0.0
    z: 0.0
---
header: 
  seq: 165
  stamp: 
    secs: 1722859113
    nsecs: 207054853
  frame_id: ''
twist: 
  linear: 
    x: 0.5590354792381458
    y: 0.07189076935122901
    z: 0.0
  angular: 
    x: 0.0
    y: 0.0
    z: 0.0
---
header: 
  seq: 166
  stamp: 
    secs: 1722859113
    nsecs: 215586185
  frame_id: ''
twist: 
  linear: 
    x: 0.5590305731793874
    y: 0.07174763759839921
    z: 0.0
  angular: 
    x: 0.0
    y: 0.0
    z: 0.0
---
header: 
  seq: 167
  stamp: 
    secs: 1722859113
    nsecs: 228977680
  frame_id: ''
twist: 
  linear: 
    x: 0.559034182647185
    y: 0.07185927138710088
    z: 0.0
  angular: 
    x: 0.0
    y: 0.0
    z: 0.0
---
header: 
  seq: 168
  stamp: 
    secs: 1722859113
    nsecs: 237197875
  frame_id: ''
twist: 
  linear: 
    x: 0.559029478396142
    y: 0.07174267684420198
    z: 0.0
  angular: 
    x: 0.0
    y: 0.0
    z: 0.0
---
header: 
  seq: 169
  stamp: 
    secs: 1722859113
    nsecs: 251108169
  frame_id: ''
twist: 
  linear: 
    x: 0.5590370345776218
    y: 0.07185857762319775
    z: 0.0
  angular: 
    x: 0.0
    y: 0.0
    z: 0.0
---
header: 
  seq: 170
  stamp: 
    secs: 1722859113
    nsecs: 262383937
  frame_id: ''
twist: 
  linear: 
    x: 0.5590328591701617
    y: 0.07177519995358368
    z: 0.0
  angular: 
    x: 0.0
    y: 0.0
    z: 0.0
---
header: 
  seq: 171
  stamp: 
    secs: 1722859113
    nsecs: 278250932
  frame_id: ''
twist: 
  linear: 
    x: 0.5590424037323551
    y: 0.07185779630946845
    z: 0.0
  angular: 
    x: 0.0
    y: 0.0
    z: 0.0
---
header: 
  seq: 172
  stamp: 
    secs: 1722859113
    nsecs: 301263570
  frame_id: ''
twist: 
  linear: 
    x: 0.5590267438827715
    y: 0.07155236606535662
    z: 0.0
  angular: 
    x: 0.0
    y: 0.0
    z: 0.0
---
header: 
  seq: 173
  stamp: 
    secs: 1722859113
    nsecs: 315560340
  frame_id: ''
twist: 
  linear: 
    x: 0.5590336702980696
    y: 0.07161745775643216
    z: 0.0
  angular: 
    x: 0.0
    y: 0.0
    z: 0.0
---
header: 
  seq: 174
  stamp: 
    secs: 1722859113
    nsecs: 329144477
  frame_id: ''
twist: 
  linear: 
    x: 0.5590327241199293
    y: 0.07155375773136366
    z: 0.0
  angular: 
    x: 0.0
    y: 0.0
    z: 0.0
---
header: 
  seq: 175
  stamp: 
    secs: 1722859113
    nsecs: 340314388
  frame_id: ''
twist: 
  linear: 
    x: 0.559031715937205
    y: 0.07147005734012149
    z: 0.0
  angular: 
    x: 0.0
    y: 0.0
    z: 0.0
---
header: 
  seq: 176
  stamp: 
    secs: 1722859113
    nsecs: 358403682
  frame_id: ''
twist: 
  linear: 
    x: 0.5590306704823383
    y: 0.07143514867491066
    z: 0.0
  angular: 
    x: 0.0
    y: 0.0
    z: 0.0
---
header: 
  seq: 177
  stamp: 
    secs: 1722859113
    nsecs: 384837865
  frame_id: ''
twist: 
  linear: 
    x: 0.5590343994531354
    y: 0.07147027447541857
    z: 0.0
  angular: 
    x: 0.0
    y: 0.0
    z: 0.0
---
header: 
  seq: 178
  stamp: 
    secs: 1722859113
    nsecs: 395716667
  frame_id: ''
twist: 
  linear: 
    x: 0.5590148832636342
    y: 0.07102611661505541
    z: 0.0
  angular: 
    x: 0.0
    y: 0.0
    z: 0.0
---
header: 
  seq: 179
  stamp: 
    secs: 1722859113
    nsecs: 427072763
  frame_id: ''
twist: 
  linear: 
    x: 0.559078507575015
    y: 0.07095421502622987
    z: 0.0
  angular: 
    x: 0.0
    y: 0.0
    z: 0.0
---
header: 
  seq: 180
  stamp: 
    secs: 1722859113
    nsecs: 441263675
  frame_id: ''
twist: 
  linear: 
    x: 0.5590852548030067
    y: 0.07080422881530328
    z: 0.0
  angular: 
    x: 0.0
    y: 0.0
    z: 0.0
---
header: 
  seq: 181
  stamp: 
    secs: 1722859113
    nsecs: 450152158
  frame_id: ''
twist: 
  linear: 
    x: 0.5590990086060392
    y: 0.07097548615346491
    z: 0.0
  angular: 
    x: 0.0
    y: 0.0
    z: 0.0
---
header: 
  seq: 182
  stamp: 
    secs: 1722859113
    nsecs: 472219705
  frame_id: ''
twist: 
  linear: 
    x: 0.5590846346129925
    y: 0.07074683861450859
    z: 0.0
  angular: 
    x: 0.0
    y: 0.0
    z: 0.0
---
header: 
  seq: 183
  stamp: 
    secs: 1722859113
    nsecs: 484777927
  frame_id: ''
twist: 
  linear: 
    x: 0.5590902639200908
    y: 0.07081082103013947
    z: 0.0
  angular: 
    x: 0.0
    y: 0.0
    z: 0.0
---
header: 
  seq: 184
  stamp: 
    secs: 1722859113
    nsecs: 505962610
  frame_id: ''
twist: 
  linear: 
    x: 0.5590679068542261
    y: 0.0703306506072431
    z: 0.0
  angular: 
    x: 0.0
    y: 0.0
    z: 0.0
---
header: 
  seq: 185
  stamp: 
    secs: 1722859113
    nsecs: 512168645
  frame_id: ''
twist: 
  linear: 
    x: 0.5590726924746859
    y: 0.07036911573786508
    z: 0.0
  angular: 
    x: 0.0
    y: 0.0
    z: 0.0
---
header: 
  seq: 186
  stamp: 
    secs: 1722859113
    nsecs: 530054807
  frame_id: ''
twist: 
  linear: 
    x: 0.5590788583690598
    y: 0.07043074984005278
    z: 0.0
  angular: 
    x: 0.0
    y: 0.0
    z: 0.0
---
header: 
  seq: 187
  stamp: 
    secs: 1722859113
    nsecs: 544946432
  frame_id: ''
twist: 
  linear: 
    x: 0.5590759922338057
    y: 0.0703785946620762
    z: 0.0
  angular: 
    x: 0.0
    y: 0.0
    z: 0.0
---
header: 
  seq: 188
  stamp: 
    secs: 1722859113
    nsecs: 555539369
  frame_id: ''
twist: 
  linear: 
    x: 0.5590847859989243
    y: 0.07043976166974034
    z: 0.0
  angular: 
    x: 0.0
    y: 0.0
    z: 0.0
---
header: 
  seq: 189
  stamp: 
    secs: 1722859113
    nsecs: 576920032
  frame_id: ''
twist: 
  linear: 
    x: 0.5590832177782017
    y: 0.07008115975514904
    z: 0.0
  angular: 
    x: 0.0
    y: 0.0
    z: 0.0
---
header: 
  seq: 190
  stamp: 
    secs: 1722859113
    nsecs: 585418224
  frame_id: ''
twist: 
  linear: 
    x: 0.5591060404687765
    y: 0.07030322101184579
    z: 0.0
  angular: 
    x: 0.0
    y: 0.0
    z: 0.0
---
header: 
  seq: 191
  stamp: 
    secs: 1722859113
    nsecs: 604148626
  frame_id: ''
twist: 
  linear: 
    x: 0.5591019850906694
    y: 0.07017282100465459
    z: 0.0
  angular: 
    x: 0.0
    y: 0.0
    z: 0.0
---
header: 
  seq: 192
  stamp: 
    secs: 1722859113
    nsecs: 621863842
  frame_id: ''
twist: 
  linear: 
    x: 0.5591101613048084
    y: 0.07024014657895204
    z: 0.0
  angular: 
    x: 0.0
    y: 0.0
    z: 0.0
---
header: 
  seq: 193
  stamp: 
    secs: 1722859113
    nsecs: 650051832
  frame_id: ''
twist: 
  linear: 
    x: 0.5591532474228419
    y: 0.07017671194137075
    z: 0.0
  angular: 
    x: 0.0
    y: 0.0
    z: 0.0
---
header: 
  seq: 194
  stamp: 
    secs: 1722859113
    nsecs: 661055564
  frame_id: ''
twist: 
  linear: 
    x: 0.5591338568029928
    y: 0.06991567509063092
    z: 0.0
  angular: 
    x: 0.0
    y: 0.0
    z: 0.0
---
header: 
  seq: 195
  stamp: 
    secs: 1722859113
    nsecs: 682431221
  frame_id: ''
twist: 
  linear: 
    x: 0.5591469298164113
    y: 0.07000970677218352
    z: 0.0
  angular: 
    x: 0.0
    y: 0.0
    z: 0.0
---
header: 
  seq: 196
  stamp: 
    secs: 1722859113
    nsecs: 712370395
  frame_id: ''
twist: 
  linear: 
    x: 0.5591163772816202
    y: 0.06964959277440266
    z: 0.0
  angular: 
    x: 0.0
    y: 0.0
    z: 0.0
---
header: 
  seq: 197
  stamp: 
    secs: 1722859113
    nsecs: 751249074
  frame_id: ''
twist: 
  linear: 
    x: 0.5591330539548647
    y: 0.06923989606102136
    z: 0.0
  angular: 
    x: 0.0
    y: 0.0
    z: 0.0
---
header: 
  seq: 198
  stamp: 
    secs: 1722859113
    nsecs: 767148971
  frame_id: ''
twist: 
  linear: 
    x: 0.5591719885652087
    y: 0.06955501283061548
    z: 0.0
  angular: 
    x: 0.0
    y: 0.0
    z: 0.0
---
header: 
  seq: 199
  stamp: 
    secs: 1722859113
    nsecs: 781745195
  frame_id: ''
twist: 
  linear: 
    x: 0.5591731332201191
    y: 0.0693781274177117
    z: 0.0
  angular: 
    x: 0.0
    y: 0.0
    z: 0.0
---
header: 
  seq: 200
  stamp: 
    secs: 1722859113
    nsecs: 793143033
  frame_id: ''
twist: 
  linear: 
    x: 0.5591710563810061
    y: 0.06930393782615688
    z: 0.0
  angular: 
    x: 0.0
    y: 0.0
    z: 0.0
---
header: 
  seq: 201
  stamp: 
    secs: 1722859113
    nsecs: 811836242
  frame_id: ''
twist: 
  linear: 
    x: 0.5591853583390445
    y: 0.0694123449019263
    z: 0.0
  angular: 
    x: 0.0
    y: 0.0
    z: 0.0
---
header: 
  seq: 202
  stamp: 
    secs: 1722859113
    nsecs: 836361169
  frame_id: ''
twist: 
  linear: 
    x: 0.5591934971654251
    y: 0.06924184881194317
    z: 0.0
  angular: 
    x: 0.0
    y: 0.0
    z: 0.0
---
header: 
  seq: 203
  stamp: 
    secs: 1722859113
    nsecs: 844772815
  frame_id: ''
twist: 
  linear: 
    x: 0.5592070968775475
    y: 0.06930796230442524
    z: 0.0
  angular: 
    x: 0.0
    y: 0.0
    z: 0.0
---
header: 
  seq: 204
  stamp: 
    secs: 1722859113
    nsecs: 860794305
  frame_id: ''
twist: 
  linear: 
    x: 0.5591949483124004
    y: 0.06901085854987837
    z: 0.0
  angular: 
    x: 0.0
    y: 0.0
    z: 0.0
---
header: 
  seq: 205
  stamp: 
    secs: 1722859113
    nsecs: 877116680
  frame_id: ''
twist: 
  linear: 
    x: 0.5592183969565955
    y: 0.06912416113096474
    z: 0.0
  angular: 
    x: 0.0
    y: 0.0
    z: 0.0
---
header: 
  seq: 206
  stamp: 
    secs: 1722859113
    nsecs: 945145845
  frame_id: ''
twist: 
  linear: 
    x: 0.5592414158277486
    y: 0.06902852787922979
    z: 0.0
  angular: 
    x: 0.0
    y: 0.0
    z: 0.0
---
header: 
  seq: 207
  stamp: 
    secs: 1722859113
    nsecs: 961441516
  frame_id: ''
twist: 
  linear: 
    x: 0.5592557895187296
    y: 0.06910384810226596
    z: 0.0
  angular: 
    x: 0.0
    y: 0.0
    z: 0.0
---
header: 
  seq: 208
  stamp: 
    secs: 1722859113
    nsecs: 977122545
  frame_id: ''
twist: 
  linear: 
    x: 0.5592521676752406
    y: 0.06902764534710647
    z: 0.0
  angular: 
    x: 0.0
    y: 0.0
    z: 0.0
---
header: 
  seq: 209
  stamp: 
    secs: 1722859113
    nsecs: 993650197
  frame_id: ''
twist: 
  linear: 
    x: 0.559251513730218
    y: 0.06884908379706148
    z: 0.0
  angular: 
    x: 0.0
    y: 0.0
    z: 0.0
---
header: 
  seq: 210
  stamp: 
    secs: 1722859114
    nsecs:   4117965
  frame_id: ''
twist: 
  linear: 
    x: 0.559235293822897
    y: 0.06868852830955256
    z: 0.0
  angular: 
    x: 0.0
    y: 0.0
    z: 0.0
---
header: 
  seq: 211
  stamp: 
    secs: 1722859114
    nsecs:  25195360
  frame_id: ''
twist: 
  linear: 
    x: 0.5592523315491926
    y: 0.0687696104579683
    z: 0.0
  angular: 
    x: 0.0
    y: 0.0
    z: 0.0
---
header: 
  seq: 212
  stamp: 
    secs: 1722859114
    nsecs:  45572280
  frame_id: ''
twist: 
  linear: 
    x: 0.5592320110831547
    y: 0.0685595574169642
    z: 0.0
  angular: 
    x: 0.0
    y: 0.0
    z: 0.0
---
header: 
  seq: 213
  stamp: 
    secs: 1722859114
    nsecs:  64702510
  frame_id: ''
twist: 
  linear: 
    x: 0.5592634151435938
    y: 0.06872447690740272
    z: 0.0
  angular: 
    x: 0.0
    y: 0.0
    z: 0.0
---
header: 
  seq: 214
  stamp: 
    secs: 1722859114
    nsecs:  78263521
  frame_id: ''
twist: 
  linear: 
    x: 0.5592643396795104
    y: 0.06868967859130906
    z: 0.0
  angular: 
    x: 0.0
    y: 0.0
    z: 0.0
---
header: 
  seq: 215
  stamp: 
    secs: 1722859114
    nsecs:  95051288
  frame_id: ''
twist: 
  linear: 
    x: 0.5592857879989579
    y: 0.06877689463902396
    z: 0.0
  angular: 
    x: 0.0
    y: 0.0
    z: 0.0
---
header: 
  seq: 216
  stamp: 
    secs: 1722859114
    nsecs: 103767871
  frame_id: ''
twist: 
  linear: 
    x: 0.5592428055586008
    y: 0.06841510336831443
    z: 0.0
  angular: 
    x: 0.0
    y: 0.0
    z: 0.0
---
header: 
  seq: 217
  stamp: 
    secs: 1722859114
    nsecs: 123371601
  frame_id: ''
twist: 
  linear: 
    x: 0.5592853019639767
    y: 0.06869749470246703
    z: 0.0
  angular: 
    x: 0.0
    y: 0.0
    z: 0.0
---
header: 
  seq: 218
  stamp: 
    secs: 1722859114
    nsecs: 133003950
  frame_id: ''
twist: 
  linear: 
    x: 0.5592504808919853
    y: 0.06839283328404144
    z: 0.0
  angular: 
    x: 0.0
    y: 0.0
    z: 0.0
---
header: 
  seq: 219
  stamp: 
    secs: 1722859114
    nsecs: 139958620
  frame_id: ''
twist: 
  linear: 
    x: 0.559273195466435
    y: 0.06853356379436448
    z: 0.0
  angular: 
    x: 0.0
    y: 0.0
    z: 0.0
---
header: 
  seq: 220
  stamp: 
    secs: 1722859114
    nsecs: 144961595
  frame_id: ''
twist: 
  linear: 
    x: 0.5591984551086684
    y: 0.06788773111504967
    z: 0.0
  angular: 
    x: 0.0
    y: 0.0
    z: 0.0
---
header: 
  seq: 221
  stamp: 
    secs: 1722859114
    nsecs: 153995037
  frame_id: ''
twist: 
  linear: 
    x: 0.5592886964587132
    y: 0.0685601363674869
    z: 0.0
  angular: 
    x: 0.0
    y: 0.0
    z: 0.0
---
header: 
  seq: 222
  stamp: 
    secs: 1722859114
    nsecs: 166789531
  frame_id: ''
twist: 
  linear: 
    x: 0.5592410835163397
    y: 0.06814622225331371
    z: 0.0
  angular: 
    x: 0.0
    y: 0.0
    z: 0.0
---
header: 
  seq: 223
  stamp: 
    secs: 1722859114
    nsecs: 178646087
  frame_id: ''
twist: 
  linear: 
    x: 0.5592649173095012
    y: 0.06828104107375485
    z: 0.0
  angular: 
    x: 0.0
    y: 0.0
    z: 0.0
---
header: 
  seq: 224
  stamp: 
    secs: 1722859114
    nsecs: 211304426
  frame_id: ''
twist: 
  linear: 
    x: 0.5593284816272657
    y: 0.06723519227746175
    z: 0.0
  angular: 
    x: 0.0
    y: 0.0
    z: 0.0
---
header: 
  seq: 225
  stamp: 
    secs: 1722859114
    nsecs: 226974487
  frame_id: ''
twist: 
  linear: 
    x: 0.5593827981908686
    y: 0.06740389686687018
    z: 0.0
  angular: 
    x: 0.0
    y: 0.0
    z: 0.0
---
header: 
  seq: 226
  stamp: 
    secs: 1722859114
    nsecs: 243502140
  frame_id: ''
twist: 
  linear: 
    x: 0.559342063222729
    y: 0.06709834778780967
    z: 0.0
  angular: 
    x: 0.0
    y: 0.0
    z: 0.0
---
header: 
  seq: 227
  stamp: 
    secs: 1722859114
    nsecs: 253335714
  frame_id: ''
twist: 
  linear: 
    x: 0.559405034588572
    y: 0.06743061082364692
    z: 0.0
  angular: 
    x: 0.0
    y: 0.0
    z: 0.0
---
header: 
  seq: 228
  stamp: 
    secs: 1722859114
    nsecs: 266395568
  frame_id: ''
twist: 
  linear: 
    x: 0.5593755027412423
    y: 0.06721579122910654
    z: 0.0
  angular: 
    x: 0.0
    y: 0.0
    z: 0.0
---
header: 
  seq: 229
  stamp: 
    secs: 1722859114
    nsecs: 280135631
  frame_id: ''
twist: 
  linear: 
    x: 0.5594146531496673
    y: 0.06738828059976826
    z: 0.0
  angular: 
    x: 0.0
    y: 0.0
    z: 0.0
---
header: 
  seq: 230
  stamp: 
    secs: 1722859114
    nsecs: 292828559
  frame_id: ''
twist: 
  linear: 
    x: 0.5593792925176712
    y: 0.0671277929106694
    z: 0.0
  angular: 
    x: 0.0
    y: 0.0
    z: 0.0
---
header: 
  seq: 231
  stamp: 
    secs: 1722859114
    nsecs: 316707611
  frame_id: ''
twist: 
  linear: 
    x: 0.559411899351652
    y: 0.06682577505235852
    z: 0.0
  angular: 
    x: 0.0
    y: 0.0
    z: 0.0
---
header: 
  seq: 232
  stamp: 
    secs: 1722859114
    nsecs: 328470468
  frame_id: ''
twist: 
  linear: 
    x: 0.5594130126973555
    y: 0.06676858264815835
    z: 0.0
  angular: 
    x: 0.0
    y: 0.0
    z: 0.0
---
header: 
  seq: 233
  stamp: 
    secs: 1722859114
    nsecs: 339828014
  frame_id: ''
twist: 
  linear: 
    x: 0.5594478915266563
    y: 0.06691419112217996
    z: 0.0
  angular: 
    x: 0.0
    y: 0.0
    z: 0.0
---
header: 
  seq: 234
  stamp: 
    secs: 1722859114
    nsecs: 347916126
  frame_id: ''
twist: 
  linear: 
    x: 0.5594511823179911
    y: 0.0668955834864225
    z: 0.0
  angular: 
    x: 0.0
    y: 0.0
    z: 0.0
---
header: 
  seq: 235
  stamp: 
    secs: 1722859114
    nsecs: 363752603
  frame_id: ''
twist: 
  linear: 
    x: 0.5594434727562075
    y: 0.06678117263025078
    z: 0.0
  angular: 
    x: 0.0
    y: 0.0
    z: 0.0
---
header: 
  seq: 236
  stamp: 
    secs: 1722859114
    nsecs: 371728181
  frame_id: ''
twist: 
  linear: 
    x: 0.559471624633696
    y: 0.06689576108909975
    z: 0.0
  angular: 
    x: 0.0
    y: 0.0
    z: 0.0
---
header: 
  seq: 237
  stamp: 
    secs: 1722859114
    nsecs: 393358945
  frame_id: ''
twist: 
  linear: 
    x: 0.5594704117072576
    y: 0.0665572743630162
    z: 0.0
  angular: 
    x: 0.0
    y: 0.0
    z: 0.0
---
header: 
  seq: 238
  stamp: 
    secs: 1722859114
    nsecs: 408250093
  frame_id: ''
twist: 
  linear: 
    x: 0.5594939703725978
    y: 0.06659675981938354
    z: 0.0
  angular: 
    x: 0.0
    y: 0.0
    z: 0.0
---
header: 
  seq: 239
  stamp: 
    secs: 1722859114
    nsecs: 426895380
  frame_id: ''
twist: 
  linear: 
    x: 0.5594759328361114
    y: 0.06644457528127015
    z: 0.0
  angular: 
    x: 0.0
    y: 0.0
    z: 0.0
---
header: 
  seq: 240
  stamp: 
    secs: 1722859114
    nsecs: 440659523
  frame_id: ''
twist: 
  linear: 
    x: 0.559547291011304
    y: 0.06674157731713877
    z: 0.0
  angular: 
    x: 0.0
    y: 0.0
    z: 0.0
---
header: 
  seq: 241
  stamp: 
    secs: 1722859114
    nsecs: 465736150
  frame_id: ''
twist: 
  linear: 
    x: 0.559485443730207
    y: 0.06636179593522243
    z: 0.0
  angular: 
    x: 0.0
    y: 0.0
    z: 0.0
---
header: 
  seq: 242
  stamp: 
    secs: 1722859114
    nsecs: 488761901
  frame_id: ''
twist: 
  linear: 
    x: 0.5595338114423946
    y: 0.06654349636784149
    z: 0.0
  angular: 
    x: 0.0
    y: 0.0
    z: 0.0
---
header: 
  seq: 243
  stamp: 
    secs: 1722859114
    nsecs: 498188734
  frame_id: ''
twist: 
  linear: 
    x: 0.5595263065538907
    y: 0.06646250475823015
    z: 0.0
  angular: 
    x: 0.0
    y: 0.0
    z: 0.0
---
header: 
  seq: 244
  stamp: 
    secs: 1722859114
    nsecs: 508596897
  frame_id: ''
twist: 
  linear: 
    x: 0.5595106876981765
    y: 0.06633041697032917
    z: 0.0
  angular: 
    x: 0.0
    y: 0.0
    z: 0.0
---
header: 
  seq: 245
  stamp: 
    secs: 1722859114
    nsecs: 522410154
  frame_id: ''
twist: 
  linear: 
    x: 0.5595407290134814
    y: 0.06642696722448423
    z: 0.0
  angular: 
    x: 0.0
    y: 0.0
    z: 0.0
---
header: 
  seq: 246
  stamp: 
    secs: 1722859114
    nsecs: 544972896
  frame_id: ''
twist: 
  linear: 
    x: 0.5594906879975446
    y: 0.06614858036936182
    z: 0.0
  angular: 
    x: 0.0
    y: 0.0
    z: 0.0
---
header: 
  seq: 247
  stamp: 
    secs: 1722859114
    nsecs: 576529979
  frame_id: ''
twist: 
  linear: 
    x: 0.5596451707931838
    y: 0.06592682800456552
    z: 0.0
  angular: 
    x: 0.0
    y: 0.0
    z: 0.0
---
header: 
  seq: 248
  stamp: 
    secs: 1722859114
    nsecs: 592291116
  frame_id: ''
twist: 
  linear: 
    x: 0.5596283723761747
    y: 0.06578838301271848
    z: 0.0
  angular: 
    x: 0.0
    y: 0.0
    z: 0.0
---
header: 
  seq: 249
  stamp: 
    secs: 1722859114
    nsecs: 609008073
  frame_id: ''
twist: 
  linear: 
    x: 0.5597047327778095
    y: 0.06586398583190489
    z: 0.0
  angular: 
    x: 0.0
    y: 0.0
    z: 0.0
---
header: 
  seq: 250
  stamp: 
    secs: 1722859114
    nsecs: 620447158
  frame_id: ''
twist: 
  linear: 
    x: 0.5596888610505075
    y: 0.06572196250545768
    z: 0.0
  angular: 
    x: 0.0
    y: 0.0
    z: 0.0
---
header: 
  seq: 251
  stamp: 
    secs: 1722859114
    nsecs: 650474309
  frame_id: ''
twist: 
  linear: 
    x: 0.5597430497553075
    y: 0.06589953862411878
    z: 0.0
  angular: 
    x: 0.0
    y: 0.0
    z: 0.0
---
header: 
  seq: 252
  stamp: 
    secs: 1722859114
    nsecs: 669106483
  frame_id: ''
twist: 
  linear: 
    x: 0.559706693914898
    y: 0.0657036691401032
    z: 0.0
  angular: 
    x: 0.0
    y: 0.0
    z: 0.0
---
header: 
  seq: 253
  stamp: 
    secs: 1722859114
    nsecs: 681314229
  frame_id: ''
twist: 
  linear: 
    x: 0.5596157094224294
    y: 0.06523884774812144
    z: 0.0
  angular: 
    x: 0.0
    y: 0.0
    z: 0.0
---
header: 
  seq: 254
  stamp: 
    secs: 1722859114
    nsecs: 694065332
  frame_id: ''
twist: 
  linear: 
    x: 0.5596321686627191
    y: 0.06528221172947349
    z: 0.0
  angular: 
    x: 0.0
    y: 0.0
    z: 0.0
---
header: 
  seq: 255
  stamp: 
    secs: 1722859114
    nsecs: 708884954
  frame_id: ''
twist: 
  linear: 
    x: 0.559668607855854
    y: 0.06539930835497414
    z: 0.0
  angular: 
    x: 0.0
    y: 0.0
    z: 0.0
---
header: 
  seq: 256
  stamp: 
    secs: 1722859114
    nsecs: 723641157
  frame_id: ''
twist: 
  linear: 
    x: 0.5595914434247375
    y: 0.06497645714756693
    z: 0.0
  angular: 
    x: 0.0
    y: 0.0
    z: 0.0
---
header: 
  seq: 257
  stamp: 
    secs: 1722859114
    nsecs: 744381666
  frame_id: ''
twist: 
  linear: 
    x: 0.5597705866194603
    y: 0.06570027185302132
    z: 0.0
  angular: 
    x: 0.0
    y: 0.0
    z: 0.0
---
header: 
  seq: 258
  stamp: 
    secs: 1722859114
    nsecs: 763352155
  frame_id: ''
twist: 
  linear: 
    x: 0.5596047772857209
    y: 0.06493658696374155
    z: 0.0
  angular: 
    x: 0.0
    y: 0.0
    z: 0.0
---
header: 
  seq: 259
  stamp: 
    secs: 1722859114
    nsecs: 782011985
  frame_id: ''
twist: 
  linear: 
    x: 0.5596675079210484
    y: 0.06518672238507323
    z: 0.0
  angular: 
    x: 0.0
    y: 0.0
    z: 0.0
---
header: 
  seq: 260
  stamp: 
    secs: 1722859114
    nsecs: 801238059
  frame_id: ''
twist: 
  linear: 
    x: 0.5595891123313894
    y: 0.06478494775409646
    z: 0.0
  angular: 
    x: 0.0
    y: 0.0
    z: 0.0
---
header: 
  seq: 261
  stamp: 
    secs: 1722859114
    nsecs: 843491315
  frame_id: ''
twist: 
  linear: 
    x: 0.5597919078454536
    y: 0.0643415452894203
    z: 0.0
  angular: 
    x: 0.0
    y: 0.0
    z: 0.0
---
header: 
  seq: 262
  stamp: 
    secs: 1722859114
    nsecs: 848416566
  frame_id: ''
twist: 
  linear: 
    x: 0.5598387944442892
    y: 0.06447773428862431
    z: 0.0
  angular: 
    x: 0.0
    y: 0.0
    z: 0.0
---
header: 
  seq: 263
  stamp: 
    secs: 1722859114
    nsecs: 857910871
  frame_id: ''
twist: 
  linear: 
    x: 0.5597872869355885
    y: 0.06421633020579842
    z: 0.0
  angular: 
    x: 0.0
    y: 0.0
    z: 0.0
---
header: 
  seq: 264
  stamp: 
    secs: 1722859114
    nsecs: 889955997
  frame_id: ''
twist: 
  linear: 
    x: 0.5598009699158045
    y: 0.06408359258391344
    z: 0.0
  angular: 
    x: 0.0
    y: 0.0
    z: 0.0
---
header: 
  seq: 265
  stamp: 
    secs: 1722859114
    nsecs: 909940242
  frame_id: ''
twist: 
  linear: 
    x: 0.5599121976621096
    y: 0.0642669153958827
    z: 0.0
  angular: 
    x: 0.0
    y: 0.0
    z: 0.0
---
header: 
  seq: 266
  stamp: 
    secs: 1722859114
    nsecs: 932131528
  frame_id: ''
twist: 
  linear: 
    x: 0.5598992404336504
    y: 0.06415345958276675
    z: 0.0
  angular: 
    x: 0.0
    y: 0.0
    z: 0.0
---
header: 
  seq: 267
  stamp: 
    secs: 1722859114
    nsecs: 953330516
  frame_id: ''
twist: 
  linear: 
    x: 0.5598842975933344
    y: 0.06404419481532513
    z: 0.0
  angular: 
    x: 0.0
    y: 0.0
    z: 0.0
---
header: 
  seq: 268
  stamp: 
    secs: 1722859114
    nsecs: 976054430
  frame_id: ''
twist: 
  linear: 
    x: 0.5599108796191932
    y: 0.06375750808954227
    z: 0.0
  angular: 
    x: 0.0
    y: 0.0
    z: 0.0
---
header: 
  seq: 269
  stamp: 
    secs: 1722859115
    nsecs:   1549482
  frame_id: ''
twist: 
  linear: 
    x: 0.5599658105840095
    y: 0.06390829824784788
    z: 0.0
  angular: 
    x: 0.0
    y: 0.0
    z: 0.0
---
header: 
  seq: 270
  stamp: 
    secs: 1722859115
    nsecs:  12734889
  frame_id: ''
twist: 
  linear: 
    x: 0.5599549577981919
    y: 0.06383631014956365
    z: 0.0
  angular: 
    x: 0.0
    y: 0.0
    z: 0.0
---
header: 
  seq: 271
  stamp: 
    secs: 1722859115
    nsecs:  37477970
  frame_id: ''
twist: 
  linear: 
    x: 0.5598977817861819
    y: 0.06347273355124762
    z: 0.0
  angular: 
    x: 0.0
    y: 0.0
    z: 0.0
---
header: 
  seq: 272
  stamp: 
    secs: 1722859115
    nsecs:  50289154
  frame_id: ''
twist: 
  linear: 
    x: 0.559950641343873
    y: 0.06362075486514798
    z: 0.0
  angular: 
    x: 0.0
    y: 0.0
    z: 0.0
---
header: 
  seq: 273
  stamp: 
    secs: 1722859115
    nsecs:  80392599
  frame_id: ''
twist: 
  linear: 
    x: 0.5600526954590912
    y: 0.06349273641641764
    z: 0.0
  angular: 
    x: 0.0
    y: 0.0
    z: 0.0
---
header: 
  seq: 274
  stamp: 
    secs: 1722859115
    nsecs:  96251964
  frame_id: ''
twist: 
  linear: 
    x: 0.5600030442009036
    y: 0.06327030227552041
    z: 0.0
  angular: 
    x: 0.0
    y: 0.0
    z: 0.0
---
header: 
  seq: 275
  stamp: 
    secs: 1722859115
    nsecs: 107139348
  frame_id: ''
twist: 
  linear: 
    x: 0.5600582351889084
    y: 0.06341685505258521
    z: 0.0
