header: 
  seq: 1
  stamp: 
    secs: 1722858323
    nsecs: 453061342
  frame_id: ''
twist: 
  linear: 
    x: 0.5555720179084048
    y: 0.08049655363194187
    z: 0.0
  angular: 
    x: 0.0
    y: 0.0
    z: 0.0
---
header: 
  seq: 2
  stamp: 
    secs: 1722858323
    nsecs: 469131946
  frame_id: ''
twist: 
  linear: 
    x: 0.5555527100831028
    y: 0.08045700571894157
    z: 0.0
  angular: 
    x: 0.0
    y: 0.0
    z: 0.0
---
header: 
  seq: 3
  stamp: 
    secs: 1722858323
    nsecs: 480100631
  frame_id: ''
twist: 
  linear: 
    x: 0.5555702569879474
    y: 0.08046419323146194
    z: 0.0
  angular: 
    x: 0.0
    y: 0.0
    z: 0.0
---
header: 
  seq: 4
  stamp: 
    secs: 1722858323
    nsecs: 491810321
  frame_id: ''
twist: 
  linear: 
    x: 0.5555774140933825
    y: 0.0804672357714242
    z: 0.0
  angular: 
    x: 0.0
    y: 0.0
    z: 0.0
---
header: 
  seq: 5
  stamp: 
    secs: 1722858323
    nsecs: 505076885
  frame_id: ''
twist: 
  linear: 
    x: 0.5556208321513608
    y: 0.0805283343137403
    z: 0.0
  angular: 
    x: 0.0
    y: 0.0
    z: 0.0
---
header: 
  seq: 6
  stamp: 
    secs: 1722858323
    nsecs: 512774944
  frame_id: ''
twist: 
  linear: 
    x: 0.5556343982294517
    y: 0.08053435335642996
    z: 0.0
  angular: 
    x: 0.0
    y: 0.0
    z: 0.0
---
header: 
  seq: 7
  stamp: 
    secs: 1722858323
    nsecs: 521388530
  frame_id: ''
twist: 
  linear: 
    x: 0.5557253914595075
    y: 0.08066477808900838
    z: 0.0
  angular: 
    x: 0.0
    y: 0.0
    z: 0.0
---
header: 
  seq: 8
  stamp: 
    secs: 1722858323
    nsecs: 537718534
  frame_id: ''
twist: 
  linear: 
    x: 0.5557265983755588
    y: 0.08065545496146403
    z: 0.0
  angular: 
    x: 0.0
    y: 0.0
    z: 0.0
---
header: 
  seq: 9
  stamp: 
    secs: 1722858323
    nsecs: 549740791
  frame_id: ''
twist: 
  linear: 
    x: 0.555654792882094
    y: 0.08054267125855767
    z: 0.0
  angular: 
    x: 0.0
    y: 0.0
    z: 0.0
---
header: 
  seq: 10
  stamp: 
    secs: 1722858323
    nsecs: 566010475
  frame_id: ''
twist: 
  linear: 
    x: 0.5557370929365073
    y: 0.0806592761541952
    z: 0.0
  angular: 
    x: 0.0
    y: 0.0
    z: 0.0
---
header: 
  seq: 11
  stamp: 
    secs: 1722858323
    nsecs: 578593254
  frame_id: ''
twist: 
  linear: 
    x: 0.5557743861873852
    y: 0.08070491112617757
    z: 0.0
  angular: 
    x: 0.0
    y: 0.0
    z: 0.0
---
header: 
  seq: 12
  stamp: 
    secs: 1722858323
    nsecs: 592900276
  frame_id: ''
twist: 
  linear: 
    x: 0.5557947893197337
    y: 0.08072544461860781
    z: 0.0
  angular: 
    x: 0.0
    y: 0.0
    z: 0.0
---
header: 
  seq: 13
  stamp: 
    secs: 1722858323
    nsecs: 606177568
  frame_id: ''
twist: 
  linear: 
    x: 0.5557615353441689
    y: 0.08065007090042119
    z: 0.0
  angular: 
    x: 0.0
    y: 0.0
    z: 0.0
---
header: 
  seq: 14
  stamp: 
    secs: 1722858323
    nsecs: 632611751
  frame_id: ''
twist: 
  linear: 
    x: 0.5558854540631416
    y: 0.08061628275205593
    z: 0.0
  angular: 
    x: 0.0
    y: 0.0
    z: 0.0
---
header: 
  seq: 15
  stamp: 
    secs: 1722858323
    nsecs: 648398876
  frame_id: ''
twist: 
  linear: 
    x: 0.555865314246077
    y: 0.08051208011049744
    z: 0.0
  angular: 
    x: 0.0
    y: 0.0
    z: 0.0
---
header: 
  seq: 16
  stamp: 
    secs: 1722858323
    nsecs: 660449028
  frame_id: ''
twist: 
  linear: 
    x: 0.5558984582222202
    y: 0.08055322539095865
    z: 0.0
  angular: 
    x: 0.0
    y: 0.0
    z: 0.0
---
header: 
  seq: 17
  stamp: 
    secs: 1722858323
    nsecs: 685031652
  frame_id: ''
twist: 
  linear: 
    x: 0.5559902749359897
    y: 0.08068301265866733
    z: 0.0
  angular: 
    x: 0.0
    y: 0.0
    z: 0.0
---
header: 
  seq: 18
  stamp: 
    secs: 1722858323
    nsecs: 703402042
  frame_id: ''
twist: 
  linear: 
    x: 0.5561536044392887
    y: 0.08093754256480327
    z: 0.0
  angular: 
    x: 0.0
    y: 0.0
    z: 0.0
---
header: 
  seq: 19
  stamp: 
    secs: 1722858323
    nsecs: 716062307
  frame_id: ''
twist: 
  linear: 
    x: 0.5559613998064606
    y: 0.0806257155909706
    z: 0.0
  angular: 
    x: 0.0
    y: 0.0
    z: 0.0
---
header: 
  seq: 20
  stamp: 
    secs: 1722858323
    nsecs: 736886978
  frame_id: ''
twist: 
  linear: 
    x: 0.5560398325217911
    y: 0.08054858182936374
    z: 0.0
  angular: 
    x: 0.0
    y: 0.0
    z: 0.0
---
header: 
  seq: 21
  stamp: 
    secs: 1722858323
    nsecs: 748129844
  frame_id: ''
twist: 
  linear: 
    x: 0.5561528008469895
    y: 0.08072458268395513
    z: 0.0
  angular: 
    x: 0.0
    y: 0.0
    z: 0.0
---
header: 
  seq: 22
  stamp: 
    secs: 1722858323
    nsecs: 767366170
  frame_id: ''
twist: 
  linear: 
    x: 0.5560317775471442
    y: 0.08051964287566026
    z: 0.0
  angular: 
    x: 0.0
    y: 0.0
    z: 0.0
---
header: 
  seq: 23
  stamp: 
    secs: 1722858323
    nsecs: 780427455
  frame_id: ''
twist: 
  linear: 
    x: 0.5562690854369113
    y: 0.08086727408163982
    z: 0.0
  angular: 
    x: 0.0
    y: 0.0
    z: 0.0
---
header: 
  seq: 24
  stamp: 
    secs: 1722858323
    nsecs: 789086580
  frame_id: ''
twist: 
  linear: 
    x: 0.5561253587323238
    y: 0.08062329392073987
    z: 0.0
  angular: 
    x: 0.0
    y: 0.0
    z: 0.0
---
header: 
  seq: 25
  stamp: 
    secs: 1722858323
    nsecs: 810891866
  frame_id: ''
twist: 
  linear: 
    x: 0.5561029745346013
    y: 0.08055643098681128
    z: 0.0
  angular: 
    x: 0.0
    y: 0.0
    z: 0.0
---
header: 
  seq: 26
  stamp: 
    secs: 1722858323
    nsecs: 834350347
  frame_id: ''
twist: 
  linear: 
    x: 0.5560935513793734
    y: 0.08050474960889825
    z: 0.0
  angular: 
    x: 0.0
    y: 0.0
    z: 0.0
---
header: 
  seq: 27
  stamp: 
    secs: 1722858323
    nsecs: 857349157
  frame_id: ''
twist: 
  linear: 
    x: 0.5562152344171203
    y: 0.08065562120587494
    z: 0.0
  angular: 
    x: 0.0
    y: 0.0
    z: 0.0
---
header: 
  seq: 28
  stamp: 
    secs: 1722858323
    nsecs: 868972539
  frame_id: ''
twist: 
  linear: 
    x: 0.5562677352391711
    y: 0.08075005895655984
    z: 0.0
  angular: 
    x: 0.0
    y: 0.0
    z: 0.0
---
header: 
  seq: 29
  stamp: 
    secs: 1722858323
    nsecs: 885615825
  frame_id: ''
twist: 
  linear: 
    x: 0.5562642818839566
    y: 0.08072755829583915
    z: 0.0
  angular: 
    x: 0.0
    y: 0.0
    z: 0.0
---
header: 
  seq: 30
  stamp: 
    secs: 1722858323
    nsecs: 899078130
  frame_id: ''
twist: 
  linear: 
    x: 0.5562694992865334
    y: 0.08076148455700778
    z: 0.0
  angular: 
    x: 0.0
    y: 0.0
    z: 0.0
---
header: 
  seq: 31
  stamp: 
    secs: 1722858323
    nsecs: 908811569
  frame_id: ''
twist: 
  linear: 
    x: 0.5562544065431192
    y: 0.08074756411731449
    z: 0.0
  angular: 
    x: 0.0
    y: 0.0
    z: 0.0
---
header: 
  seq: 32
  stamp: 
    secs: 1722858323
    nsecs: 925039768
  frame_id: ''
twist: 
  linear: 
    x: 0.5562697124398331
    y: 0.08077797581440581
    z: 0.0
  angular: 
    x: 0.0
    y: 0.0
    z: 0.0
---
header: 
  seq: 33
  stamp: 
    secs: 1722858323
    nsecs: 935137748
  frame_id: ''
twist: 
  linear: 
    x: 0.5562776952335526
    y: 0.08080925685655826
    z: 0.0
  angular: 
    x: 0.0
    y: 0.0
    z: 0.0
---
header: 
  seq: 34
  stamp: 
    secs: 1722858323
    nsecs: 943189859
  frame_id: ''
twist: 
  linear: 
    x: 0.5564132105433092
    y: 0.08104271301174926
    z: 0.0
  angular: 
    x: 0.0
    y: 0.0
    z: 0.0
---
header: 
  seq: 35
  stamp: 
    secs: 1722858323
    nsecs: 950288534
  frame_id: ''
twist: 
  linear: 
    x: 0.5562829326162355
    y: 0.08083794260378299
    z: 0.0
  angular: 
    x: 0.0
    y: 0.0
    z: 0.0
---
header: 
  seq: 36
  stamp: 
    secs: 1722858323
    nsecs: 958103656
  frame_id: ''
twist: 
  linear: 
    x: 0.5564601977201372
    y: 0.08115554904705549
    z: 0.0
  angular: 
    x: 0.0
    y: 0.0
    z: 0.0
---
header: 
  seq: 37
  stamp: 
    secs: 1722858323
    nsecs: 964813709
  frame_id: ''
twist: 
  linear: 
    x: 0.5563977983730656
    y: 0.08105722904255153
    z: 0.0
  angular: 
    x: 0.0
    y: 0.0
    z: 0.0
---
header: 
  seq: 38
  stamp: 
    secs: 1722858323
    nsecs: 982824087
  frame_id: ''
twist: 
  linear: 
    x: 0.5563951653124379
    y: 0.08094551442778547
    z: 0.0
  angular: 
    x: 0.0
    y: 0.0
    z: 0.0
---
header: 
  seq: 39
  stamp: 
    secs: 1722858323
    nsecs: 990240573
  frame_id: ''
twist: 
  linear: 
    x: 0.5563931918517407
    y: 0.08093015556999529
    z: 0.0
  angular: 
    x: 0.0
    y: 0.0
    z: 0.0
---
header: 
  seq: 40
  stamp: 
    secs: 1722858324
    nsecs:  13981103
  frame_id: ''
twist: 
  linear: 
    x: 0.5563628110695573
    y: 0.0808673155247762
    z: 0.0
  angular: 
    x: 0.0
    y: 0.0
    z: 0.0
---
header: 
  seq: 41
  stamp: 
    secs: 1722858324
    nsecs:  37126541
  frame_id: ''
twist: 
  linear: 
    x: 0.5564891861963837
    y: 0.08107596194911226
    z: 0.0
  angular: 
    x: 0.0
    y: 0.0
    z: 0.0
---
header: 
  seq: 42
  stamp: 
    secs: 1722858324
    nsecs:  49399137
  frame_id: ''
twist: 
  linear: 
    x: 0.5564551141198943
    y: 0.08100986482064503
    z: 0.0
  angular: 
    x: 0.0
    y: 0.0
    z: 0.0
---
header: 
  seq: 43
  stamp: 
    secs: 1722858324
    nsecs:  66863298
  frame_id: ''
twist: 
  linear: 
    x: 0.5565765163509998
    y: 0.08121496259017173
    z: 0.0
  angular: 
    x: 0.0
    y: 0.0
    z: 0.0
---
header: 
  seq: 44
  stamp: 
    secs: 1722858324
    nsecs:  85350036
  frame_id: ''
twist: 
  linear: 
    x: 0.5565693836775857
    y: 0.08118708871964286
    z: 0.0
  angular: 
    x: 0.0
    y: 0.0
    z: 0.0
---
header: 
  seq: 45
  stamp: 
    secs: 1722858324
    nsecs: 101939439
  frame_id: ''
twist: 
  linear: 
    x: 0.5565116935754856
    y: 0.08102917693657535
    z: 0.0
  angular: 
    x: 0.0
    y: 0.0
    z: 0.0
---
header: 
  seq: 46
  stamp: 
    secs: 1722858324
    nsecs: 114476919
  frame_id: ''
twist: 
  linear: 
    x: 0.5565427679770247
    y: 0.08103954013066551
    z: 0.0
  angular: 
    x: 0.0
    y: 0.0
    z: 0.0
---
header: 
  seq: 47
  stamp: 
    secs: 1722858324
    nsecs: 128026962
  frame_id: ''
twist: 
  linear: 
    x: 0.5565309446812842
    y: 0.08097004585133072
    z: 0.0
  angular: 
    x: 0.0
    y: 0.0
    z: 0.0
---
header: 
  seq: 48
  stamp: 
    secs: 1722858324
    nsecs: 141425609
  frame_id: ''
twist: 
  linear: 
    x: 0.5565963109257818
    y: 0.08097515104800107
    z: 0.0
  angular: 
    x: 0.0
    y: 0.0
    z: 0.0
---
header: 
  seq: 49
  stamp: 
    secs: 1722858324
    nsecs: 158632993
  frame_id: ''
twist: 
  linear: 
    x: 0.5566421397707566
    y: 0.0810245207145275
    z: 0.0
  angular: 
    x: 0.0
    y: 0.0
    z: 0.0
---
header: 
  seq: 50
  stamp: 
    secs: 1722858324
    nsecs: 290278196
  frame_id: ''
twist: 
  linear: 
    x: 0.5580530150486553
    y: 0.07939454248797899
    z: 0.0
  angular: 
    x: 0.0
    y: 0.0
    z: 0.0
---
header: 
  seq: 51
  stamp: 
    secs: 1722858324
    nsecs: 302378892
  frame_id: ''
twist: 
  linear: 
    x: 0.5580629889281102
    y: 0.07938213938508931
    z: 0.0
  angular: 
    x: 0.0
    y: 0.0
    z: 0.0
---
header: 
  seq: 52
  stamp: 
    secs: 1722858324
    nsecs: 316986799
  frame_id: ''
twist: 
  linear: 
    x: 0.5581117201914821
    y: 0.07935548951795092
    z: 0.0
  angular: 
    x: 0.0
    y: 0.0
    z: 0.0
---
header: 
  seq: 53
  stamp: 
    secs: 1722858324
    nsecs: 348605632
  frame_id: ''
twist: 
  linear: 
    x: 0.5581262524111623
    y: 0.07918792436967864
    z: 0.0
  angular: 
    x: 0.0
    y: 0.0
    z: 0.0
---
header: 
  seq: 54
  stamp: 
    secs: 1722858324
    nsecs: 372182369
  frame_id: ''
twist: 
  linear: 
    x: 0.5581523182275836
    y: 0.079242344848557
    z: 0.0
  angular: 
    x: 0.0
    y: 0.0
    z: 0.0
---
header: 
  seq: 55
  stamp: 
    secs: 1722858324
    nsecs: 407296419
  frame_id: ''
twist: 
  linear: 
    x: 0.5582224875981618
    y: 0.07911786598913817
    z: 0.0
  angular: 
    x: 0.0
    y: 0.0
    z: 0.0
---
header: 
  seq: 56
  stamp: 
    secs: 1722858324
    nsecs: 430294990
  frame_id: ''
twist: 
  linear: 
    x: 0.5582214730880191
    y: 0.07905789875253764
    z: 0.0
  angular: 
    x: 0.0
    y: 0.0
    z: 0.0
---
header: 
  seq: 57
  stamp: 
    secs: 1722858324
    nsecs: 443393945
  frame_id: ''
twist: 
  linear: 
    x: 0.5582487259819777
    y: 0.07911195624957426
    z: 0.0
  angular: 
    x: 0.0
    y: 0.0
    z: 0.0
---
header: 
  seq: 58
  stamp: 
    secs: 1722858324
    nsecs: 457026958
  frame_id: ''
twist: 
  linear: 
    x: 0.5582629293710227
    y: 0.0791248369729225
    z: 0.0
  angular: 
    x: 0.0
    y: 0.0
    z: 0.0
---
header: 
  seq: 59
  stamp: 
    secs: 1722858324
    nsecs: 476936817
  frame_id: ''
twist: 
  linear: 
    x: 0.5581968989388213
    y: 0.07880731449946156
    z: 0.0
  angular: 
    x: 0.0
    y: 0.0
    z: 0.0
---
header: 
  seq: 60
  stamp: 
    secs: 1722858324
    nsecs: 484697341
  frame_id: ''
twist: 
  linear: 
    x: 0.5582734204968607
    y: 0.07907250194184479
    z: 0.0
  angular: 
    x: 0.0
    y: 0.0
    z: 0.0
---
header: 
  seq: 61
  stamp: 
    secs: 1722858324
    nsecs: 500694036
  frame_id: ''
twist: 
  linear: 
    x: 0.5582696611033852
    y: 0.07900080149702275
    z: 0.0
  angular: 
    x: 0.0
    y: 0.0
    z: 0.0
---
header: 
  seq: 62
  stamp: 
    secs: 1722858324
    nsecs: 509428501
  frame_id: ''
twist: 
  linear: 
    x: 0.558273357269073
    y: 0.07897523654471947
    z: 0.0
  angular: 
    x: 0.0
    y: 0.0
    z: 0.0
---
header: 
  seq: 63
  stamp: 
    secs: 1722858324
    nsecs: 541116237
  frame_id: ''
twist: 
  linear: 
    x: 0.5583641405409105
    y: 0.07897029867922634
    z: 0.0
  angular: 
    x: 0.0
    y: 0.0
    z: 0.0
---
header: 
  seq: 64
  stamp: 
    secs: 1722858324
    nsecs: 557356595
  frame_id: ''
twist: 
  linear: 
    x: 0.5582874920220865
    y: 0.07859753304811694
    z: 0.0
  angular: 
    x: 0.0
    y: 0.0
    z: 0.0
---
header: 
  seq: 65
  stamp: 
    secs: 1722858324
    nsecs: 575946807
  frame_id: ''
twist: 
  linear: 
    x: 0.5584146294117923
    y: 0.0791137806418163
    z: 0.0
  angular: 
    x: 0.0
    y: 0.0
    z: 0.0
---
header: 
  seq: 66
  stamp: 
    secs: 1722858324
    nsecs: 591459751
  frame_id: ''
twist: 
  linear: 
    x: 0.5583550889280461
    y: 0.0787734280543222
    z: 0.0
  angular: 
    x: 0.0
    y: 0.0
    z: 0.0
---
header: 
  seq: 67
  stamp: 
    secs: 1722858324
    nsecs: 601783990
  frame_id: ''
twist: 
  linear: 
    x: 0.5583866937949211
    y: 0.07887193656628842
    z: 0.0
  angular: 
    x: 0.0
    y: 0.0
    z: 0.0
---
header: 
  seq: 68
  stamp: 
    secs: 1722858324
    nsecs: 621105909
  frame_id: ''
twist: 
  linear: 
    x: 0.5583786768426577
    y: 0.07877862067581888
    z: 0.0
  angular: 
    x: 0.0
    y: 0.0
    z: 0.0
---
header: 
  seq: 69
  stamp: 
    secs: 1722858324
    nsecs: 630266904
  frame_id: ''
twist: 
  linear: 
    x: 0.5583811174755322
    y: 0.07872766546121793
    z: 0.0
  angular: 
    x: 0.0
    y: 0.0
    z: 0.0
---
header: 
  seq: 70
  stamp: 
    secs: 1722858324
    nsecs: 640893459
  frame_id: ''
twist: 
  linear: 
    x: 0.5583685112074922
    y: 0.07860709357214346
    z: 0.0
  angular: 
    x: 0.0
    y: 0.0
    z: 0.0
---
header: 
  seq: 71
  stamp: 
    secs: 1722858324
    nsecs: 681149005
  frame_id: ''
twist: 
  linear: 
    x: 0.558511067588236
    y: 0.07827417998823641
    z: 0.0
  angular: 
    x: 0.0
    y: 0.0
    z: 0.0
---
header: 
  seq: 72
  stamp: 
    secs: 1722858324
    nsecs: 693794727
  frame_id: ''
twist: 
  linear: 
    x: 0.5585310270281134
    y: 0.07820043822286452
    z: 0.0
  angular: 
    x: 0.0
    y: 0.0
    z: 0.0
---
header: 
  seq: 73
  stamp: 
    secs: 1722858324
    nsecs: 708324909
  frame_id: ''
twist: 
  linear: 
    x: 0.5585401920027895
    y: 0.07805971897540488
    z: 0.0
  angular: 
    x: 0.0
    y: 0.0
    z: 0.0
---
header: 
  seq: 74
  stamp: 
    secs: 1722858324
    nsecs: 731592893
  frame_id: ''
twist: 
  linear: 
    x: 0.5585757791134591
    y: 0.07810301436108645
    z: 0.0
  angular: 
    x: 0.0
    y: 0.0
    z: 0.0
---
header: 
  seq: 75
  stamp: 
    secs: 1722858324
    nsecs: 742144823
  frame_id: ''
twist: 
  linear: 
    x: 0.5585633627011879
    y: 0.07798419905347909
    z: 0.0
  angular: 
    x: 0.0
    y: 0.0
    z: 0.0
---
header: 
  seq: 76
  stamp: 
    secs: 1722858324
    nsecs: 771287441
  frame_id: ''
twist: 
  linear: 
    x: 0.5586043332869349
    y: 0.07793342193101369
    z: 0.0
  angular: 
    x: 0.0
    y: 0.0
    z: 0.0
---
header: 
  seq: 77
  stamp: 
    secs: 1722858324
    nsecs: 786677360
  frame_id: ''
twist: 
  linear: 
    x: 0.5586151832556701
    y: 0.07794780869163577
    z: 0.0
  angular: 
    x: 0.0
    y: 0.0
    z: 0.0
---
header: 
  seq: 78
  stamp: 
    secs: 1722858324
    nsecs: 802876949
  frame_id: ''
twist: 
  linear: 
    x: 0.5586196811896655
    y: 0.0778999070291882
    z: 0.0
  angular: 
    x: 0.0
    y: 0.0
    z: 0.0
---
header: 
  seq: 79
  stamp: 
    secs: 1722858324
    nsecs: 821900367
  frame_id: ''
twist: 
  linear: 
    x: 0.5586464034860112
    y: 0.07779773902042636
    z: 0.0
  angular: 
    x: 0.0
    y: 0.0
    z: 0.0
---
header: 
  seq: 80
  stamp: 
    secs: 1722858324
    nsecs: 841883420
  frame_id: ''
twist: 
  linear: 
    x: 0.5586406109509778
    y: 0.07771978690019898
    z: 0.0
  angular: 
    x: 0.0
    y: 0.0
    z: 0.0
---
header: 
  seq: 81
  stamp: 
    secs: 1722858324
    nsecs: 867016553
  frame_id: ''
twist: 
  linear: 
    x: 0.5586513779367016
    y: 0.07773282715797893
    z: 0.0
  angular: 
    x: 0.0
    y: 0.0
    z: 0.0
---
header: 
  seq: 82
  stamp: 
    secs: 1722858324
    nsecs: 886138916
  frame_id: ''
twist: 
  linear: 
    x: 0.5586588553009701
    y: 0.07737623949367273
    z: 0.0
  angular: 
    x: 0.0
    y: 0.0
    z: 0.0
---
header: 
  seq: 83
  stamp: 
    secs: 1722858324
    nsecs: 925412178
  frame_id: ''
twist: 
  linear: 
    x: 0.5587040304622247
    y: 0.0773262861382782
    z: 0.0
  angular: 
    x: 0.0
    y: 0.0
    z: 0.0
---
header: 
  seq: 84
  stamp: 
    secs: 1722858324
    nsecs: 944009304
  frame_id: ''
twist: 
  linear: 
    x: 0.5587126298823206
    y: 0.07734487881972636
    z: 0.0
  angular: 
    x: 0.0
    y: 0.0
    z: 0.0
---
header: 
  seq: 85
  stamp: 
    secs: 1722858324
    nsecs: 963152408
  frame_id: ''
twist: 
  linear: 
    x: 0.5586991581473268
    y: 0.0772069136382452
    z: 0.0
  angular: 
    x: 0.0
    y: 0.0
    z: 0.0
---
header: 
  seq: 86
  stamp: 
    secs: 1722858324
    nsecs: 973788976
  frame_id: ''
twist: 
  linear: 
    x: 0.5587282631530097
    y: 0.07733923586920698
    z: 0.0
  angular: 
    x: 0.0
    y: 0.0
    z: 0.0
---
header: 
  seq: 87
  stamp: 
    secs: 1722858324
    nsecs: 989873886
  frame_id: ''
twist: 
  linear: 
    x: 0.5587317750200014
    y: 0.07731922395005976
    z: 0.0
  angular: 
    x: 0.0
    y: 0.0
    z: 0.0
---
header: 
  seq: 88
  stamp: 
    secs: 1722858325
    nsecs:   7328271
  frame_id: ''
twist: 
  linear: 
    x: 0.5587347438376753
    y: 0.0773161231351634
    z: 0.0
  angular: 
    x: 0.0
    y: 0.0
    z: 0.0
---
header: 
  seq: 89
  stamp: 
    secs: 1722858325
    nsecs:  35976648
  frame_id: ''
twist: 
  linear: 
    x: 0.5587550533820589
    y: 0.07707725687817041
    z: 0.0
  angular: 
    x: 0.0
    y: 0.0
    z: 0.0
---
header: 
  seq: 90
  stamp: 
    secs: 1722858325
    nsecs:  45957088
  frame_id: ''
twist: 
  linear: 
    x: 0.558748067587886
    y: 0.0769125783769454
    z: 0.0
  angular: 
    x: 0.0
    y: 0.0
    z: 0.0
---
header: 
  seq: 91
  stamp: 
    secs: 1722858325
    nsecs:  54686307
  frame_id: ''
twist: 
  linear: 
    x: 0.5587638027739206
    y: 0.07703234865402879
    z: 0.0
  angular: 
    x: 0.0
    y: 0.0
    z: 0.0
---
header: 
  seq: 92
  stamp: 
    secs: 1722858325
    nsecs:  72849512
  frame_id: ''
twist: 
  linear: 
    x: 0.5587796814504379
    y: 0.07713836604802814
    z: 0.0
  angular: 
    x: 0.0
    y: 0.0
    z: 0.0
---
header: 
  seq: 93
  stamp: 
    secs: 1722858325
    nsecs:  83013534
  frame_id: ''
twist: 
  linear: 
    x: 0.5587626587271467
    y: 0.07690305664914288
    z: 0.0
  angular: 
    x: 0.0
    y: 0.0
    z: 0.0
---
header: 
  seq: 94
  stamp: 
    secs: 1722858325
    nsecs:  96298694
  frame_id: ''
twist: 
  linear: 
    x: 0.5587769021728196
    y: 0.07702202094509496
    z: 0.0
  angular: 
    x: 0.0
    y: 0.0
    z: 0.0
---
header: 
  seq: 95
  stamp: 
    secs: 1722858325
    nsecs: 114114761
  frame_id: ''
twist: 
  linear: 
    x: 0.5587603794677847
    y: 0.07683769369489678
    z: 0.0
  angular: 
    x: 0.0
    y: 0.0
    z: 0.0
---
header: 
  seq: 96
  stamp: 
    secs: 1722858325
    nsecs: 136190652
  frame_id: ''
twist: 
  linear: 
    x: 0.5587728078007045
    y: 0.07693506761408112
    z: 0.0
  angular: 
    x: 0.0
    y: 0.0
    z: 0.0
---
header: 
  seq: 97
  stamp: 
    secs: 1722858325
    nsecs: 160041809
  frame_id: ''
twist: 
  linear: 
    x: 0.5587673266336936
    y: 0.07688898761397206
    z: 0.0
  angular: 
    x: 0.0
    y: 0.0
    z: 0.0
---
header: 
  seq: 98
  stamp: 
    secs: 1722858325
    nsecs: 178149223
  frame_id: ''
twist: 
  linear: 
    x: 0.5587538981718019
    y: 0.0767105359383102
    z: 0.0
  angular: 
    x: 0.0
    y: 0.0
    z: 0.0
---
header: 
  seq: 99
  stamp: 
    secs: 1722858325
    nsecs: 209686040
  frame_id: ''
twist: 
  linear: 
    x: 0.5587496591091479
    y: 0.07578542561719807
    z: 0.0
  angular: 
    x: 0.0
    y: 0.0
    z: 0.0
---
header: 
  seq: 100
  stamp: 
    secs: 1722858325
    nsecs: 223970413
  frame_id: ''
twist: 
  linear: 
    x: 0.5587962373468263
    y: 0.07510684777471009
    z: 0.0
  angular: 
    x: 0.0
    y: 0.0
    z: 0.0
---
header: 
  seq: 101
  stamp: 
    secs: 1722858325
    nsecs: 238928794
  frame_id: ''
twist: 
  linear: 
    x: 0.5587834855011014
    y: 0.07494597444956358
    z: 0.0
  angular: 
    x: 0.0
    y: 0.0
    z: 0.0
---
header: 
  seq: 102
  stamp: 
    secs: 1722858325
    nsecs: 251290082
  frame_id: ''
twist: 
  linear: 
    x: 0.5588055362831932
    y: 0.07521844942529399
    z: 0.0
  angular: 
    x: 0.0
    y: 0.0
    z: 0.0
---
header: 
  seq: 103
  stamp: 
    secs: 1722858325
    nsecs: 274575948
  frame_id: ''
twist: 
  linear: 
    x: 0.558799281757921
    y: 0.07509403503662007
    z: 0.0
  angular: 
    x: 0.0
    y: 0.0
    z: 0.0
---
header: 
  seq: 104
  stamp: 
    secs: 1722858325
    nsecs: 289215087
  frame_id: ''
twist: 
  linear: 
    x: 0.5588183995392955
    y: 0.07532779329931583
    z: 0.0
  angular: 
    x: 0.0
    y: 0.0
    z: 0.0
---
header: 
  seq: 105
  stamp: 
    secs: 1722858325
    nsecs: 309941530
  frame_id: ''
twist: 
  linear: 
    x: 0.5587843668176296
    y: 0.07490775834659429
    z: 0.0
  angular: 
    x: 0.0
    y: 0.0
    z: 0.0
---
header: 
  seq: 106
  stamp: 
    secs: 1722858325
    nsecs: 319221019
  frame_id: ''
twist: 
  linear: 
    x: 0.5588070825421623
    y: 0.07514221297012463
    z: 0.0
  angular: 
    x: 0.0
    y: 0.0
    z: 0.0
---
header: 
  seq: 107
  stamp: 
    secs: 1722858325
    nsecs: 336136102
  frame_id: ''
twist: 
  linear: 
    x: 0.5588213615622741
    y: 0.0753215695952286
    z: 0.0
  angular: 
    x: 0.0
    y: 0.0
    z: 0.0
---
header: 
  seq: 108
  stamp: 
    secs: 1722858325
    nsecs: 350091457
  frame_id: ''
twist: 
  linear: 
    x: 0.5588203667874537
    y: 0.07529177193167824
    z: 0.0
  angular: 
    x: 0.0
    y: 0.0
    z: 0.0
---
header: 
  seq: 109
  stamp: 
    secs: 1722858325
    nsecs: 360388278
  frame_id: ''
twist: 
  linear: 
    x: 0.5588181347163345
    y: 0.07524932620816079
    z: 0.0
  angular: 
    x: 0.0
    y: 0.0
    z: 0.0
---
header: 
  seq: 110
  stamp: 
    secs: 1722858325
    nsecs: 376399040
  frame_id: ''
twist: 
  linear: 
    x: 0.5588213703357291
    y: 0.07529671906712926
    z: 0.0
  angular: 
    x: 0.0
    y: 0.0
    z: 0.0
---
header: 
  seq: 111
  stamp: 
    secs: 1722858325
    nsecs: 393786668
  frame_id: ''
twist: 
  linear: 
    x: 0.5588699255274262
    y: 0.07573081759411081
    z: 0.0
  angular: 
    x: 0.0
    y: 0.0
    z: 0.0
---
header: 
  seq: 112
  stamp: 
    secs: 1722858325
    nsecs: 410170793
  frame_id: ''
twist: 
  linear: 
    x: 0.5588680185131732
    y: 0.07574093499904075
    z: 0.0
  angular: 
    x: 0.0
    y: 0.0
    z: 0.0
---
header: 
  seq: 113
  stamp: 
    secs: 1722858325
    nsecs: 443231821
  frame_id: ''
twist: 
  linear: 
    x: 0.5588801742754778
    y: 0.07561898027950312
    z: 0.0
  angular: 
    x: 0.0
    y: 0.0
    z: 0.0
---
header: 
  seq: 114
  stamp: 
    secs: 1722858325
    nsecs: 456929445
  frame_id: ''
twist: 
  linear: 
    x: 0.5588883724957058
    y: 0.07577350840470823
    z: 0.0
  angular: 
    x: 0.0
    y: 0.0
    z: 0.0
---
header: 
  seq: 115
  stamp: 
    secs: 1722858325
    nsecs: 467622518
  frame_id: ''
twist: 
  linear: 
    x: 0.5588808646663185
    y: 0.07552235559276779
    z: 0.0
  angular: 
    x: 0.0
    y: 0.0
    z: 0.0
---
header: 
  seq: 116
  stamp: 
    secs: 1722858325
    nsecs: 480335950
  frame_id: ''
twist: 
  linear: 
    x: 0.5588853232131087
    y: 0.07565319659621716
    z: 0.0
  angular: 
    x: 0.0
    y: 0.0
    z: 0.0
---
header: 
  seq: 117
  stamp: 
    secs: 1722858325
    nsecs: 488970518
  frame_id: ''
twist: 
  linear: 
    x: 0.5588756438850386
    y: 0.0754063137120978
    z: 0.0
  angular: 
    x: 0.0
    y: 0.0
    z: 0.0
---
header: 
  seq: 118
  stamp: 
    secs: 1722858325
    nsecs: 501293420
  frame_id: ''
twist: 
  linear: 
    x: 0.5588866423701677
    y: 0.07534083217155581
    z: 0.0
  angular: 
    x: 0.0
    y: 0.0
    z: 0.0
---
header: 
  seq: 119
  stamp: 
    secs: 1722858325
    nsecs: 513432979
  frame_id: ''
twist: 
  linear: 
    x: 0.5588951234355872
    y: 0.0754909951621921
    z: 0.0
  angular: 
    x: 0.0
    y: 0.0
    z: 0.0
---
header: 
  seq: 120
  stamp: 
    secs: 1722858325
    nsecs: 523467302
  frame_id: ''
twist: 
  linear: 
    x: 0.5588892552281213
    y: 0.07527346023471551
    z: 0.0
  angular: 
    x: 0.0
    y: 0.0
    z: 0.0
---
header: 
  seq: 121
  stamp: 
    secs: 1722858325
    nsecs: 537369012
  frame_id: ''
twist: 
  linear: 
    x: 0.5588981226177273
    y: 0.07543320203821531
    z: 0.0
  angular: 
    x: 0.0
    y: 0.0
    z: 0.0
---
header: 
  seq: 122
  stamp: 
    secs: 1722858325
    nsecs: 545145511
  frame_id: ''
twist: 
  linear: 
    x: 0.5588939024388366
    y: 0.07535691842039902
    z: 0.0
  angular: 
    x: 0.0
    y: 0.0
    z: 0.0
---
header: 
  seq: 123
  stamp: 
    secs: 1722858325
    nsecs: 561494827
  frame_id: ''
twist: 
  linear: 
    x: 0.558896893978268
    y: 0.07540583705214945
    z: 0.0
  angular: 
    x: 0.0
    y: 0.0
    z: 0.0
---
header: 
  seq: 124
  stamp: 
    secs: 1722858325
    nsecs: 586048364
  frame_id: ''
twist: 
  linear: 
    x: 0.558891347363096
    y: 0.07520721906774194
    z: 0.0
  angular: 
    x: 0.0
    y: 0.0
    z: 0.0
---
header: 
  seq: 125
  stamp: 
    secs: 1722858325
    nsecs: 606157302
  frame_id: ''
twist: 
  linear: 
    x: 0.5588961621328685
    y: 0.0753427045965853
    z: 0.0
  angular: 
    x: 0.0
    y: 0.0
    z: 0.0
---
header: 
  seq: 126
  stamp: 
    secs: 1722858325
    nsecs: 616058349
  frame_id: ''
twist: 
  linear: 
    x: 0.5588926106170646
    y: 0.07519115101967153
    z: 0.0
  angular: 
    x: 0.0
    y: 0.0
    z: 0.0
---
header: 
  seq: 127
  stamp: 
    secs: 1722858325
    nsecs: 637282371
  frame_id: ''
twist: 
  linear: 
    x: 0.55890464170122
    y: 0.07524441875899401
    z: 0.0
  angular: 
    x: 0.0
    y: 0.0
    z: 0.0
---
header: 
  seq: 128
  stamp: 
    secs: 1722858325
    nsecs: 651385307
  frame_id: ''
twist: 
  linear: 
    x: 0.5589035406287954
    y: 0.0751336414669507
    z: 0.0
  angular: 
    x: 0.0
    y: 0.0
    z: 0.0
---
header: 
  seq: 129
  stamp: 
    secs: 1722858325
    nsecs: 661446571
  frame_id: ''
twist: 
  linear: 
    x: 0.5589068742266199
    y: 0.07515285064969782
    z: 0.0
  angular: 
    x: 0.0
    y: 0.0
    z: 0.0
---
header: 
  seq: 130
  stamp: 
    secs: 1722858325
    nsecs: 681565523
  frame_id: ''
twist: 
  linear: 
    x: 0.5589096754336483
    y: 0.07508462101744923
    z: 0.0
  angular: 
    x: 0.0
    y: 0.0
    z: 0.0
---
header: 
  seq: 131
  stamp: 
    secs: 1722858325
    nsecs: 697284698
  frame_id: ''
twist: 
  linear: 
    x: 0.5589053712124882
    y: 0.07492523669559112
    z: 0.0
  angular: 
    x: 0.0
    y: 0.0
    z: 0.0
---
header: 
  seq: 132
  stamp: 
    secs: 1722858325
    nsecs: 706181526
  frame_id: ''
twist: 
  linear: 
    x: 0.5589208920132779
    y: 0.0752951841545442
    z: 0.0
  angular: 
    x: 0.0
    y: 0.0
    z: 0.0
---
header: 
  seq: 133
  stamp: 
    secs: 1722858325
    nsecs: 725007772
  frame_id: ''
twist: 
  linear: 
    x: 0.5589093033867973
    y: 0.07488027832393607
    z: 0.0
  angular: 
    x: 0.0
    y: 0.0
    z: 0.0
---
header: 
  seq: 134
  stamp: 
    secs: 1722858325
    nsecs: 756060838
  frame_id: ''
twist: 
  linear: 
    x: 0.5589241228119941
    y: 0.07423775560885076
    z: 0.0
  angular: 
    x: 0.0
    y: 0.0
    z: 0.0
---
header: 
  seq: 135
  stamp: 
    secs: 1722858325
    nsecs: 776845216
  frame_id: ''
twist: 
  linear: 
    x: 0.5589323941190966
    y: 0.07432050958740084
    z: 0.0
  angular: 
    x: 0.0
    y: 0.0
    z: 0.0
---
header: 
  seq: 136
  stamp: 
    secs: 1722858325
    nsecs: 800869464
  frame_id: ''
twist: 
  linear: 
    x: 0.5589395722686571
    y: 0.07449843790168201
    z: 0.0
  angular: 
    x: 0.0
    y: 0.0
    z: 0.0
---
header: 
  seq: 137
  stamp: 
    secs: 1722858325
    nsecs: 820789575
  frame_id: ''
twist: 
  linear: 
    x: 0.5589368235915245
    y: 0.07431955915155355
    z: 0.0
  angular: 
    x: 0.0
    y: 0.0
    z: 0.0
---
header: 
  seq: 138
  stamp: 
    secs: 1722858325
    nsecs: 839784860
  frame_id: ''
twist: 
  linear: 
    x: 0.5589373716918361
    y: 0.07429760781980208
    z: 0.0
  angular: 
    x: 0.0
    y: 0.0
    z: 0.0
---
header: 
  seq: 139
  stamp: 
    secs: 1722858325
    nsecs: 855314731
  frame_id: ''
twist: 
  linear: 
    x: 0.5589299288837439
    y: 0.07355461070528363
    z: 0.0
  angular: 
    x: 0.0
    y: 0.0
    z: 0.0
---
header: 
  seq: 140
  stamp: 
    secs: 1722858325
    nsecs: 869040966
  frame_id: ''
twist: 
  linear: 
    x: 0.558948192855258
    y: 0.07408162246634013
    z: 0.0
  angular: 
    x: 0.0
    y: 0.0
    z: 0.0
---
header: 
  seq: 141
  stamp: 
    secs: 1722858325
    nsecs: 886658191
  frame_id: ''
twist: 
  linear: 
    x: 0.5589488080444106
    y: 0.0740231911945439
    z: 0.0
  angular: 
    x: 0.0
    y: 0.0
    z: 0.0
---
header: 
  seq: 142
  stamp: 
    secs: 1722858325
    nsecs: 894150257
  frame_id: ''
twist: 
  linear: 
    x: 0.5589476088194066
    y: 0.07378955026871045
    z: 0.0
  angular: 
    x: 0.0
    y: 0.0
    z: 0.0
---
header: 
  seq: 143
  stamp: 
    secs: 1722858325
    nsecs: 910918474
  frame_id: ''
twist: 
  linear: 
    x: 0.5589562471635229
    y: 0.07377605528197327
    z: 0.0
  angular: 
    x: 0.0
    y: 0.0
    z: 0.0
---
header: 
  seq: 144
  stamp: 
    secs: 1722858325
    nsecs: 926148414
  frame_id: ''
twist: 
  linear: 
    x: 0.5589574587617797
    y: 0.07383212272520259
    z: 0.0
  angular: 
    x: 0.0
    y: 0.0
    z: 0.0
---
header: 
  seq: 145
  stamp: 
    secs: 1722858325
    nsecs: 953137397
  frame_id: ''
twist: 
  linear: 
    x: 0.5589587430749967
    y: 0.07374457313771418
    z: 0.0
  angular: 
    x: 0.0
    y: 0.0
    z: 0.0
---
header: 
  seq: 146
  stamp: 
    secs: 1722858325
    nsecs: 961269617
  frame_id: ''
twist: 
  linear: 
    x: 0.5589650060429764
    y: 0.07397094409721211
    z: 0.0
  angular: 
    x: 0.0
    y: 0.0
    z: 0.0
---
header: 
  seq: 147
  stamp: 
    secs: 1722858325
    nsecs: 982003927
  frame_id: ''
twist: 
  linear: 
    x: 0.5589616677058045
    y: 0.07370071031607225
    z: 0.0
  angular: 
    x: 0.0
    y: 0.0
    z: 0.0
---
header: 
  seq: 148
  stamp: 
    secs: 1722858325
    nsecs: 995611190
  frame_id: ''
twist: 
  linear: 
    x: 0.5589674942572423
    y: 0.07365738977160718
    z: 0.0
  angular: 
    x: 0.0
    y: 0.0
    z: 0.0
---
header: 
  seq: 149
  stamp: 
    secs: 1722858326
    nsecs:  35744667
  frame_id: ''
twist: 
  linear: 
    x: 0.5589630575720008
    y: 0.07319884536661236
    z: 0.0
  angular: 
    x: 0.0
    y: 0.0
    z: 0.0
---
header: 
  seq: 150
  stamp: 
    secs: 1722858326
    nsecs:  55270671
  frame_id: ''
twist: 
  linear: 
    x: 0.5589667457652023
    y: 0.07340261724481978
    z: 0.0
  angular: 
    x: 0.0
    y: 0.0
    z: 0.0
---
header: 
  seq: 151
  stamp: 
    secs: 1722858326
    nsecs:  76085090
  frame_id: ''
twist: 
  linear: 
    x: 0.5589612825673776
    y: 0.0731345031344863
    z: 0.0
  angular: 
    x: 0.0
    y: 0.0
    z: 0.0
---
header: 
  seq: 152
  stamp: 
    secs: 1722858326
    nsecs:  91994285
  frame_id: ''
twist: 
  linear: 
    x: 0.5589721272848753
    y: 0.07358116450530658
    z: 0.0
  angular: 
    x: 0.0
    y: 0.0
    z: 0.0
---
header: 
  seq: 153
  stamp: 
    secs: 1722858326
    nsecs: 110940456
  frame_id: ''
twist: 
  linear: 
    x: 0.5589593180795608
    y: 0.07307519286061105
    z: 0.0
  angular: 
    x: 0.0
    y: 0.0
    z: 0.0
---
header: 
  seq: 154
  stamp: 
    secs: 1722858326
    nsecs: 124150514
  frame_id: ''
twist: 
  linear: 
    x: 0.5589670622505347
    y: 0.07335759310699569
    z: 0.0
  angular: 
    x: 0.0
    y: 0.0
    z: 0.0
---
header: 
  seq: 155
  stamp: 
    secs: 1722858326
    nsecs: 137213230
  frame_id: ''
twist: 
  linear: 
    x: 0.5589626120734096
    y: 0.0731274059856859
    z: 0.0
  angular: 
    x: 0.0
    y: 0.0
    z: 0.0
---
header: 
  seq: 156
  stamp: 
    secs: 1722858326
    nsecs: 156750679
  frame_id: ''
twist: 
  linear: 
    x: 0.5589662238200617
    y: 0.07324225963340972
    z: 0.0
  angular: 
    x: 0.0
    y: 0.0
    z: 0.0
---
header: 
  seq: 157
  stamp: 
    secs: 1722858326
    nsecs: 169249296
  frame_id: ''
twist: 
  linear: 
    x: 0.5589656974346708
    y: 0.07324268748029124
    z: 0.0
  angular: 
    x: 0.0
    y: 0.0
    z: 0.0
---
header: 
  seq: 158
  stamp: 
    secs: 1722858326
    nsecs: 225983381
  frame_id: ''
twist: 
  linear: 
    x: 0.558988593443603
    y: 0.07274791905356578
    z: 0.0
  angular: 
    x: 0.0
    y: 0.0
    z: 0.0
---
header: 
  seq: 159
  stamp: 
    secs: 1722858326
    nsecs: 250902175
  frame_id: ''
twist: 
  linear: 
    x: 0.5589888066814533
    y: 0.07281870210592535
    z: 0.0
  angular: 
    x: 0.0
    y: 0.0
    z: 0.0
---
header: 
  seq: 160
  stamp: 
    secs: 1722858326
    nsecs: 262317419
  frame_id: ''
twist: 
  linear: 
    x: 0.5589916484544544
    y: 0.07246773569255231
    z: 0.0
  angular: 
    x: 0.0
    y: 0.0
    z: 0.0
---
header: 
  seq: 161
  stamp: 
    secs: 1722858326
    nsecs: 288952827
  frame_id: ''
twist: 
  linear: 
    x: 0.55899535689908
    y: 0.07252994298647561
    z: 0.0
  angular: 
    x: 0.0
    y: 0.0
    z: 0.0
---
header: 
  seq: 162
  stamp: 
    secs: 1722858326
    nsecs: 300671815
  frame_id: ''
twist: 
  linear: 
    x: 0.5589903850590793
    y: 0.07231654545411717
    z: 0.0
  angular: 
    x: 0.0
    y: 0.0
    z: 0.0
---
header: 
  seq: 163
  stamp: 
    secs: 1722858326
    nsecs: 309757709
  frame_id: ''
twist: 
  linear: 
    x: 0.5589913003709035
    y: 0.07244602938309402
    z: 0.0
  angular: 
    x: 0.0
    y: 0.0
    z: 0.0
---
header: 
  seq: 164
  stamp: 
    secs: 1722858326
    nsecs: 324730873
  frame_id: ''
twist: 
  linear: 
    x: 0.5589839900768088
    y: 0.07221846024627668
    z: 0.0
  angular: 
    x: 0.0
    y: 0.0
    z: 0.0
---
header: 
  seq: 165
  stamp: 
    secs: 1722858326
    nsecs: 342288494
  frame_id: ''
twist: 
  linear: 
    x: 0.5589900874037342
    y: 0.07243235740539754
    z: 0.0
  angular: 
    x: 0.0
    y: 0.0
    z: 0.0
---
header: 
  seq: 166
  stamp: 
    secs: 1722858326
    nsecs: 357105970
  frame_id: ''
twist: 
  linear: 
    x: 0.5589913162291903
    y: 0.07232867017920461
    z: 0.0
  angular: 
    x: 0.0
    y: 0.0
    z: 0.0
---
header: 
  seq: 167
  stamp: 
    secs: 1722858326
    nsecs: 374946117
  frame_id: ''
twist: 
  linear: 
    x: 0.5589893191532135
    y: 0.07223498648061513
    z: 0.0
  angular: 
    x: 0.0
    y: 0.0
    z: 0.0
---
header: 
  seq: 168
  stamp: 
    secs: 1722858326
    nsecs: 409113168
  frame_id: ''
twist: 
  linear: 
    x: 0.5590226778678102
    y: 0.07213441229784158
    z: 0.0
  angular: 
    x: 0.0
    y: 0.0
    z: 0.0
---
header: 
  seq: 169
  stamp: 
    secs: 1722858326
    nsecs: 425746440
  frame_id: ''
twist: 
  linear: 
    x: 0.5590216663434147
    y: 0.07209071253567534
    z: 0.0
  angular: 
    x: 0.0
    y: 0.0
    z: 0.0
---
header: 
  seq: 170
  stamp: 
    secs: 1722858326
    nsecs: 437936544
  frame_id: ''
twist: 
  linear: 
    x: 0.5590175327542429
    y: 0.07191881988599108
    z: 0.0
  angular: 
    x: 0.0
    y: 0.0
    z: 0.0
---
header: 
  seq: 171
  stamp: 
    secs: 1722858326
    nsecs: 462190866
  frame_id: ''
twist: 
  linear: 
    x: 0.5590287280822516
    y: 0.0721078894371942
    z: 0.0
  angular: 
    x: 0.0
    y: 0.0
    z: 0.0
---
header: 
  seq: 172
  stamp: 
    secs: 1722858326
    nsecs: 476458787
  frame_id: ''
twist: 
  linear: 
    x: 0.5590207493320525
    y: 0.07192562211172092
    z: 0.0
  angular: 
    x: 0.0
    y: 0.0
    z: 0.0
---
header: 
  seq: 173
  stamp: 
    secs: 1722858326
    nsecs: 489980220
  frame_id: ''
twist: 
  linear: 
    x: 0.559026270498615
    y: 0.07199110300682185
    z: 0.0
  angular: 
    x: 0.0
    y: 0.0
    z: 0.0
---
header: 
  seq: 174
  stamp: 
    secs: 1722858326
    nsecs: 511723756
  frame_id: ''
twist: 
  linear: 
    x: 0.5590288322264751
    y: 0.07197801871024086
    z: 0.0
  angular: 
    x: 0.0
    y: 0.0
    z: 0.0
---
header: 
  seq: 175
  stamp: 
    secs: 1722858326
    nsecs: 527630090
  frame_id: ''
twist: 
  linear: 
    x: 0.5590314472068916
    y: 0.07198406628754034
    z: 0.0
  angular: 
    x: 0.0
    y: 0.0
    z: 0.0
---
header: 
  seq: 176
  stamp: 
    secs: 1722858326
    nsecs: 550297260
  frame_id: ''
twist: 
  linear: 
    x: 0.5590334741466766
    y: 0.07196953235083164
    z: 0.0
  angular: 
    x: 0.0
    y: 0.0
    z: 0.0
---
header: 
  seq: 177
  stamp: 
    secs: 1722858326
    nsecs: 570791482
  frame_id: ''
twist: 
  linear: 
    x: 0.559021793987051
    y: 0.07169412161014646
    z: 0.0
  angular: 
    x: 0.0
    y: 0.0
    z: 0.0
---
header: 
  seq: 178
  stamp: 
    secs: 1722858326
    nsecs: 584357738
  frame_id: ''
twist: 
  linear: 
    x: 0.559030629529179
    y: 0.07190305395668561
    z: 0.0
  angular: 
    x: 0.0
    y: 0.0
    z: 0.0
---
header: 
  seq: 179
  stamp: 
    secs: 1722858326
    nsecs: 598019838
  frame_id: ''
twist: 
  linear: 
    x: 0.5590070082715348
    y: 0.07116445066154087
    z: 0.0
  angular: 
    x: 0.0
    y: 0.0
    z: 0.0
---
header: 
  seq: 180
  stamp: 
    secs: 1722858326
    nsecs: 603175401
  frame_id: ''
twist: 
  linear: 
    x: 0.5590112428851094
    y: 0.07131941497964105
    z: 0.0
  angular: 
    x: 0.0
    y: 0.0
    z: 0.0
---
header: 
  seq: 181
  stamp: 
    secs: 1722858326
    nsecs: 619822025
  frame_id: ''
twist: 
  linear: 
    x: 0.5590186470683363
    y: 0.07144067945205376
    z: 0.0
  angular: 
    x: 0.0
    y: 0.0
    z: 0.0
---
header: 
  seq: 182
  stamp: 
    secs: 1722858326
    nsecs: 641283035
  frame_id: ''
twist: 
  linear: 
    x: 0.5590169123548313
    y: 0.07142653617224905
    z: 0.0
  angular: 
    x: 0.0
    y: 0.0
    z: 0.0
---
header: 
  seq: 183
  stamp: 
    secs: 1722858326
    nsecs: 659056425
  frame_id: ''
twist: 
  linear: 
    x: 0.5590159881304089
    y: 0.07075862625041751
    z: 0.0
  angular: 
    x: 0.0
    y: 0.0
    z: 0.0
---
header: 
  seq: 184
  stamp: 
    secs: 1722858326
    nsecs: 679122924
  frame_id: ''
twist: 
  linear: 
    x: 0.5590166201272616
    y: 0.07076690606656644
    z: 0.0
  angular: 
    x: 0.0
    y: 0.0
    z: 0.0
---
header: 
  seq: 185
  stamp: 
    secs: 1722858326
    nsecs: 706859111
  frame_id: ''
twist: 
  linear: 
    x: 0.5590212035336777
    y: 0.07088748020219901
    z: 0.0
  angular: 
    x: 0.0
    y: 0.0
    z: 0.0
---
header: 
  seq: 186
  stamp: 
    secs: 1722858326
    nsecs: 714141368
  frame_id: ''
twist: 
  linear: 
    x: 0.5590165062342071
    y: 0.07074140553477215
    z: 0.0
  angular: 
    x: 0.0
    y: 0.0
    z: 0.0
---
header: 
  seq: 187
  stamp: 
    secs: 1722858326
    nsecs: 726991176
  frame_id: ''
twist: 
  linear: 
    x: 0.559023908555847
    y: 0.07090346998896904
    z: 0.0
  angular: 
    x: 0.0
    y: 0.0
    z: 0.0
---
header: 
  seq: 188
  stamp: 
    secs: 1722858326
    nsecs: 745198965
  frame_id: ''
twist: 
  linear: 
    x: 0.5590315289752475
    y: 0.071003771679047
    z: 0.0
  angular: 
    x: 0.0
    y: 0.0
    z: 0.0
---
header: 
  seq: 189
  stamp: 
    secs: 1722858326
    nsecs: 762171745
  frame_id: ''
twist: 
  linear: 
    x: 0.559020314175798
    y: 0.07074620099698314
    z: 0.0
  angular: 
    x: 0.0
    y: 0.0
    z: 0.0
---
header: 
  seq: 190
  stamp: 
    secs: 1722858326
    nsecs: 776541948
  frame_id: ''
twist: 
  linear: 
    x: 0.5590276164450539
    y: 0.07089318722957404
    z: 0.0
  angular: 
    x: 0.0
    y: 0.0
    z: 0.0
---
header: 
  seq: 191
  stamp: 
    secs: 1722858326
    nsecs: 792171955
  frame_id: ''
twist: 
  linear: 
    x: 0.5590273856587505
    y: 0.070955879203425
    z: 0.0
  angular: 
    x: 0.0
    y: 0.0
    z: 0.0
---
header: 
  seq: 192
  stamp: 
    secs: 1722858326
    nsecs: 806176185
  frame_id: ''
twist: 
  linear: 
    x: 0.5590188110084208
    y: 0.07077019300853937
    z: 0.0
  angular: 
    x: 0.0
    y: 0.0
    z: 0.0
---
header: 
  seq: 193
  stamp: 
    secs: 1722858326
    nsecs: 820203065
  frame_id: ''
twist: 
  linear: 
    x: 0.5590269312783154
    y: 0.07092289937787084
    z: 0.0
  angular: 
    x: 0.0
    y: 0.0
    z: 0.0
---
header: 
  seq: 194
  stamp: 
    secs: 1722858326
    nsecs: 836450576
  frame_id: ''
twist: 
  linear: 
    x: 0.5590217379987141
    y: 0.07075444972718731
    z: 0.0
  angular: 
    x: 0.0
    y: 0.0
    z: 0.0
---
header: 
  seq: 195
  stamp: 
    secs: 1722858326
    nsecs: 845272779
  frame_id: ''
twist: 
  linear: 
    x: 0.5590325783622925
    y: 0.07097858457572805
    z: 0.0
  angular: 
    x: 0.0
    y: 0.0
    z: 0.0
---
header: 
  seq: 196
  stamp: 
    secs: 1722858326
    nsecs: 863090038
  frame_id: ''
twist: 
  linear: 
    x: 0.5590290376685347
    y: 0.07084008654109844
    z: 0.0
  angular: 
    x: 0.0
    y: 0.0
    z: 0.0
---
header: 
  seq: 197
  stamp: 
    secs: 1722858326
    nsecs: 876928567
  frame_id: ''
twist: 
  linear: 
    x: 0.5590357336597803
    y: 0.07100884445988925
    z: 0.0
  angular: 
    x: 0.0
    y: 0.0
    z: 0.0
---
header: 
  seq: 198
  stamp: 
    secs: 1722858326
    nsecs: 888304471
  frame_id: ''
twist: 
  linear: 
    x: 0.5590307121692225
    y: 0.07087189748034732
    z: 0.0
  angular: 
    x: 0.0
    y: 0.0
    z: 0.0
---
header: 
  seq: 199
  stamp: 
    secs: 1722858326
    nsecs: 903204679
  frame_id: ''
twist: 
  linear: 
    x: 0.5590386065833286
    y: 0.0710301231240861
    z: 0.0
  angular: 
    x: 0.0
    y: 0.0
    z: 0.0
---
header: 
  seq: 200
  stamp: 
    secs: 1722858326
    nsecs: 918669462
  frame_id: ''
twist: 
  linear: 
    x: 0.5590363203008766
    y: 0.07095419245457721
    z: 0.0
  angular: 
    x: 0.0
    y: 0.0
    z: 0.0
---
header: 
  seq: 201
  stamp: 
    secs: 1722858327
    nsecs:   8847951
  frame_id: ''
twist: 
  linear: 
    x: 0.5591118620057408
    y: 0.06933276007013217
    z: 0.0
  angular: 
    x: 0.0
    y: 0.0
    z: 0.0
---
header: 
  seq: 202
  stamp: 
    secs: 1722858327
    nsecs:  27943611
  frame_id: ''
twist: 
  linear: 
    x: 0.5591407950503469
    y: 0.0694973710537807
    z: 0.0
  angular: 
    x: 0.0
    y: 0.0
    z: 0.0
---
header: 
  seq: 203
  stamp: 
    secs: 1722858327
    nsecs:  50460100
  frame_id: ''
twist: 
  linear: 
    x: 0.5591182376325925
    y: 0.06919525696602175
    z: 0.0
  angular: 
    x: 0.0
    y: 0.0
    z: 0.0
---
header: 
  seq: 204
  stamp: 
    secs: 1722858327
    nsecs:  60065507
  frame_id: ''
twist: 
  linear: 
    x: 0.5591537267597236
    y: 0.06953563147978728
    z: 0.0
  angular: 
    x: 0.0
    y: 0.0
    z: 0.0
---
header: 
  seq: 205
  stamp: 
    secs: 1722858327
    nsecs:  71055173
  frame_id: ''
twist: 
  linear: 
    x: 0.5591259568623655
    y: 0.06920509765583015
    z: 0.0
  angular: 
    x: 0.0
    y: 0.0
    z: 0.0
---
header: 
  seq: 206
  stamp: 
    secs: 1722858327
    nsecs:  86911201
  frame_id: ''
twist: 
  linear: 
    x: 0.5591480076084183
    y: 0.06937648694799113
    z: 0.0
  angular: 
    x: 0.0
    y: 0.0
    z: 0.0
---
header: 
  seq: 207
  stamp: 
    secs: 1722858327
    nsecs: 103197097
  frame_id: ''
twist: 
  linear: 
    x: 0.5591227546795167
    y: 0.06906988271347124
    z: 0.0
  angular: 
    x: 0.0
    y: 0.0
    z: 0.0
---
header: 
  seq: 208
  stamp: 
    secs: 1722858327
    nsecs: 113183021
  frame_id: ''
twist: 
  linear: 
    x: 0.5591518624354224
    y: 0.06932323511450442
    z: 0.0
  angular: 
    x: 0.0
    y: 0.0
    z: 0.0
---
header: 
  seq: 209
  stamp: 
    secs: 1722858327
    nsecs: 126136064
  frame_id: ''
twist: 
  linear: 
    x: 0.5591333319590175
    y: 0.0690810445003231
    z: 0.0
  angular: 
    x: 0.0
    y: 0.0
    z: 0.0
---
header: 
  seq: 210
  stamp: 
    secs: 1722858327
    nsecs: 147630691
  frame_id: ''
twist: 
  linear: 
    x: 0.5591631314598263
    y: 0.06876370278598465
    z: 0.0
  angular: 
    x: 0.0
    y: 0.0
    z: 0.0
---
header: 
  seq: 211
  stamp: 
    secs: 1722858327
    nsecs: 180021524
  frame_id: ''
twist: 
  linear: 
    x: 0.5591790625954797
    y: 0.06885360204631488
    z: 0.0
  angular: 
    x: 0.0
    y: 0.0
    z: 0.0
---
header: 
  seq: 212
  stamp: 
    secs: 1722858327
    nsecs: 196377038
  frame_id: ''
twist: 
  linear: 
    x: 0.559192763878185
    y: 0.06889387416645097
    z: 0.0
  angular: 
    x: 0.0
    y: 0.0
    z: 0.0
---
header: 
  seq: 213
  stamp: 
    secs: 1722858327
    nsecs: 208127498
  frame_id: ''
twist: 
  linear: 
    x: 0.5592202744669876
    y: 0.0690716704675007
    z: 0.0
  angular: 
    x: 0.0
    y: 0.0
    z: 0.0
---
header: 
  seq: 214
  stamp: 
    secs: 1722858327
    nsecs: 212224483
  frame_id: ''
twist: 
  linear: 
    x: 0.5591950835837329
    y: 0.0687939918054486
    z: 0.0
  angular: 
    x: 0.0
    y: 0.0
    z: 0.0
---
header: 
  seq: 215
  stamp: 
    secs: 1722858327
    nsecs: 235364675
  frame_id: ''
twist: 
  linear: 
    x: 0.5591829700256304
    y: 0.06862671340276662
    z: 0.0
  angular: 
    x: 0.0
    y: 0.0
    z: 0.0
---
header: 
  seq: 216
  stamp: 
    secs: 1722858327
    nsecs: 243748903
  frame_id: ''
twist: 
  linear: 
    x: 0.5592019973278123
    y: 0.06873808553891884
    z: 0.0
  angular: 
    x: 0.0
    y: 0.0
    z: 0.0
---
header: 
  seq: 217
  stamp: 
    secs: 1722858327
    nsecs: 259027242
  frame_id: ''
twist: 
  linear: 
    x: 0.5592075926004331
    y: 0.06872919219552177
    z: 0.0
  angular: 
    x: 0.0
    y: 0.0
    z: 0.0
---
header: 
  seq: 218
  stamp: 
    secs: 1722858327
    nsecs: 288098812
  frame_id: ''
twist: 
  linear: 
    x: 0.5592184105471167
    y: 0.06820696335786161
    z: 0.0
  angular: 
    x: 0.0
    y: 0.0
    z: 0.0
---
header: 
  seq: 219
  stamp: 
    secs: 1722858327
    nsecs: 310481071
  frame_id: ''
twist: 
  linear: 
    x: 0.5592422314828066
    y: 0.06819838897912864
    z: 0.0
  angular: 
    x: 0.0
    y: 0.0
    z: 0.0
---
header: 
  seq: 220
  stamp: 
    secs: 1722858327
    nsecs: 320960044
  frame_id: ''
twist: 
  linear: 
    x: 0.5592264871898754
    y: 0.06801788605641694
    z: 0.0
  angular: 
    x: 0.0
    y: 0.0
    z: 0.0
---
header: 
  seq: 221
  stamp: 
    secs: 1722858327
    nsecs: 342738628
  frame_id: ''
twist: 
  linear: 
    x: 0.5592397101713074
    y: 0.06806028998608782
    z: 0.0
  angular: 
    x: 0.0
    y: 0.0
    z: 0.0
---
header: 
  seq: 222
  stamp: 
    secs: 1722858327
    nsecs: 353955030
  frame_id: ''
twist: 
  linear: 
    x: 0.5591992578943044
    y: 0.06769862808389937
    z: 0.0
  angular: 
    x: 0.0
    y: 0.0
    z: 0.0
---
header: 
  seq: 223
  stamp: 
    secs: 1722858327
    nsecs: 370962381
  frame_id: ''
twist: 
  linear: 
    x: 0.5592817764453931
    y: 0.06831410917763409
    z: 0.0
  angular: 
    x: 0.0
    y: 0.0
    z: 0.0
---
header: 
  seq: 224
  stamp: 
    secs: 1722858327
    nsecs: 385151147
  frame_id: ''
twist: 
  linear: 
    x: 0.5592058779447789
    y: 0.0676679271241988
    z: 0.0
  angular: 
    x: 0.0
    y: 0.0
    z: 0.0
---
header: 
  seq: 225
  stamp: 
    secs: 1722858327
    nsecs: 394784450
  frame_id: ''
twist: 
  linear: 
    x: 0.5592366299357718
    y: 0.06789169946457448
    z: 0.0
  angular: 
    x: 0.0
    y: 0.0
    z: 0.0
---
header: 
  seq: 226
  stamp: 
    secs: 1722858327
    nsecs: 404975652
  frame_id: ''
twist: 
  linear: 
    x: 0.5592668182462293
    y: 0.06807667578240569
    z: 0.0
  angular: 
    x: 0.0
    y: 0.0
    z: 0.0
---
header: 
  seq: 227
  stamp: 
    secs: 1722858327
    nsecs: 420072555
  frame_id: ''
twist: 
  linear: 
    x: 0.5592370910198672
    y: 0.06778947123398477
    z: 0.0
  angular: 
    x: 0.0
    y: 0.0
    z: 0.0
---
header: 
  seq: 228
  stamp: 
    secs: 1722858327
    nsecs: 445380926
  frame_id: ''
twist: 
  linear: 
    x: 0.5592918372146171
    y: 0.06747073202676357
    z: 0.0
  angular: 
    x: 0.0
    y: 0.0
    z: 0.0
---
header: 
  seq: 229
  stamp: 
    secs: 1722858327
    nsecs: 460124015
  frame_id: ''
twist: 
  linear: 
    x: 0.559324800968671
    y: 0.06762474094590042
    z: 0.0
  angular: 
    x: 0.0
    y: 0.0
    z: 0.0
---
header: 
  seq: 230
  stamp: 
    secs: 1722858327
    nsecs: 485734224
  frame_id: ''
twist: 
  linear: 
    x: 0.5593213032236791
    y: 0.06743334546861211
    z: 0.0
  angular: 
    x: 0.0
    y: 0.0
    z: 0.0
---
header: 
  seq: 231
  stamp: 
    secs: 1722858327
    nsecs: 506685733
  frame_id: ''
twist: 
  linear: 
    x: 0.5593438770391417
    y: 0.06752874131480432
    z: 0.0
  angular: 
    x: 0.0
    y: 0.0
    z: 0.0
---
header: 
  seq: 232
  stamp: 
    secs: 1722858327
    nsecs: 525315284
  frame_id: ''
twist: 
  linear: 
    x: 0.5593254576824283
    y: 0.06735187168497728
    z: 0.0
  angular: 
    x: 0.0
    y: 0.0
    z: 0.0
---
header: 
  seq: 233
  stamp: 
    secs: 1722858327
    nsecs: 545816421
  frame_id: ''
twist: 
  linear: 
    x: 0.5593352343844127
    y: 0.06735884176492977
    z: 0.0
  angular: 
    x: 0.0
    y: 0.0
    z: 0.0
---
header: 
  seq: 234
  stamp: 
    secs: 1722858327
    nsecs: 563201189
  frame_id: ''
twist: 
  linear: 
    x: 0.5593308174030386
    y: 0.0672700629415587
    z: 0.0
  angular: 
    x: 0.0
    y: 0.0
    z: 0.0
---
header: 
  seq: 235
  stamp: 
    secs: 1722858327
    nsecs: 591690778
  frame_id: ''
twist: 
  linear: 
    x: 0.5593867290242195
    y: 0.06757257595831873
    z: 0.0
  angular: 
    x: 0.0
    y: 0.0
    z: 0.0
---
header: 
  seq: 236
  stamp: 
    secs: 1722858327
    nsecs: 608694791
  frame_id: ''
twist: 
  linear: 
    x: 0.5593463355539288
    y: 0.0672722675390913
    z: 0.0
  angular: 
    x: 0.0
    y: 0.0
    z: 0.0
---
header: 
  seq: 237
  stamp: 
    secs: 1722858327
    nsecs: 614706516
  frame_id: ''
twist: 
  linear: 
    x: 0.5593461287595902
    y: 0.06722285905635547
    z: 0.0
  angular: 
    x: 0.0
    y: 0.0
    z: 0.0
---
header: 
  seq: 238
  stamp: 
    secs: 1722858327
    nsecs: 629334449
  frame_id: ''
twist: 
  linear: 
    x: 0.5593661716135687
    y: 0.06731290728943339
    z: 0.0
  angular: 
    x: 0.0
    y: 0.0
    z: 0.0
---
header: 
  seq: 239
  stamp: 
    secs: 1722858327
    nsecs: 639985322
  frame_id: ''
twist: 
  linear: 
    x: 0.5593428235317542
    y: 0.0671321501388101
    z: 0.0
  angular: 
    x: 0.0
    y: 0.0
    z: 0.0
---
header: 
  seq: 240
  stamp: 
    secs: 1722858327
    nsecs: 654646158
  frame_id: ''
twist: 
  linear: 
    x: 0.5593212825037891
    y: 0.06692583730201956
    z: 0.0
  angular: 
    x: 0.0
    y: 0.0
    z: 0.0
---
header: 
  seq: 241
  stamp: 
    secs: 1722858327
    nsecs: 675245285
  frame_id: ''
twist: 
  linear: 
    x: 0.559358932409287
    y: 0.06714026377669578
    z: 0.0
  angular: 
    x: 0.0
    y: 0.0
    z: 0.0
---
header: 
  seq: 242
  stamp: 
    secs: 1722858327
    nsecs: 691092491
  frame_id: ''
twist: 
  linear: 
    x: 0.5593623566493803
    y: 0.066429135613644
    z: 0.0
  angular: 
    x: 0.0
    y: 0.0
    z: 0.0
---
header: 
  seq: 243
  stamp: 
    secs: 1722858327
    nsecs: 707066059
  frame_id: ''
twist: 
  linear: 
    x: 0.5593525710052699
    y: 0.06636269797890401
    z: 0.0
  angular: 
    x: 0.0
    y: 0.0
    z: 0.0
---
header: 
  seq: 244
  stamp: 
    secs: 1722858327
    nsecs: 727084875
  frame_id: ''
twist: 
  linear: 
    x: 0.5593936004015316
    y: 0.06662519303244457
    z: 0.0
  angular: 
    x: 0.0
    y: 0.0
    z: 0.0
---
header: 
  seq: 245
  stamp: 
    secs: 1722858327
    nsecs: 742112398
  frame_id: ''
twist: 
  linear: 
    x: 0.5593339466597722
    y: 0.06625954978410421
    z: 0.0
  angular: 
    x: 0.0
    y: 0.0
    z: 0.0
---
header: 
  seq: 246
  stamp: 
    secs: 1722858327
    nsecs: 757123231
  frame_id: ''
twist: 
  linear: 
    x: 0.5594089807694672
    y: 0.06673108747276522
    z: 0.0
  angular: 
    x: 0.0
    y: 0.0
    z: 0.0
---
header: 
  seq: 247
  stamp: 
    secs: 1722858327
    nsecs: 773981332
  frame_id: ''
twist: 
  linear: 
    x: 0.5593374765445188
    y: 0.06625562878790581
    z: 0.0
  angular: 
    x: 0.0
    y: 0.0
    z: 0.0
---
header: 
  seq: 248
  stamp: 
    secs: 1722858327
    nsecs: 793480873
  frame_id: ''
twist: 
  linear: 
    x: 0.5593671415548588
    y: 0.06648064428197448
    z: 0.0
  angular: 
    x: 0.0
    y: 0.0
    z: 0.0
---
header: 
  seq: 249
  stamp: 
    secs: 1722858327
    nsecs: 811728477
  frame_id: ''
twist: 
  linear: 
    x: 0.5593534861860012
    y: 0.06641374675595173
    z: 0.0
  angular: 
    x: 0.0
    y: 0.0
    z: 0.0
---
header: 
  seq: 250
  stamp: 
    secs: 1722858327
    nsecs: 831094741
  frame_id: ''
twist: 
  linear: 
    x: 0.5593822111238653
    y: 0.0662463724411394
    z: 0.0
  angular: 
    x: 0.0
    y: 0.0
    z: 0.0
---
header: 
  seq: 251
  stamp: 
    secs: 1722858327
    nsecs: 861916780
  frame_id: ''
twist: 
  linear: 
    x: 0.5594002793335873
    y: 0.06634475654403804
    z: 0.0
  angular: 
    x: 0.0
    y: 0.0
    z: 0.0
---
header: 
  seq: 252
  stamp: 
    secs: 1722858327
    nsecs: 874488592
  frame_id: ''
twist: 
  linear: 
    x: 0.559370494210796
    y: 0.06618076411608514
    z: 0.0
  angular: 
    x: 0.0
    y: 0.0
    z: 0.0
---
header: 
  seq: 253
  stamp: 
    secs: 1722858327
    nsecs: 899046182
  frame_id: ''
twist: 
  linear: 
    x: 0.5594004399127569
    y: 0.06506066863906823
    z: 0.0
  angular: 
    x: 0.0
    y: 0.0
    z: 0.0
---
header: 
  seq: 254
  stamp: 
    secs: 1722858327
    nsecs: 913172483
  frame_id: ''
twist: 
  linear: 
    x: 0.5594189909919793
    y: 0.06517633622651962
    z: 0.0
  angular: 
    x: 0.0
    y: 0.0
    z: 0.0
---
header: 
  seq: 255
  stamp: 
    secs: 1722858327
    nsecs: 927830219
  frame_id: ''
twist: 
  linear: 
    x: 0.5594039936449163
    y: 0.06500139463571829
    z: 0.0
  angular: 
    x: 0.0
    y: 0.0
    z: 0.0
---
header: 
  seq: 256
  stamp: 
    secs: 1722858327
    nsecs: 943591833
  frame_id: ''
twist: 
  linear: 
    x: 0.5594129690386539
    y: 0.06503539114371201
    z: 0.0
  angular: 
    x: 0.0
    y: 0.0
    z: 0.0
---
header: 
  seq: 257
  stamp: 
    secs: 1722858327
    nsecs: 958982706
  frame_id: ''
twist: 
  linear: 
    x: 0.5593982695895008
    y: 0.06495076793550363
    z: 0.0
  angular: 
    x: 0.0
    y: 0.0
    z: 0.0
---
header: 
  seq: 258
  stamp: 
    secs: 1722858327
    nsecs: 974219322
  frame_id: ''
twist: 
  linear: 
    x: 0.5594265378062189
    y: 0.06510195494690627
    z: 0.0
  angular: 
    x: 0.0
    y: 0.0
    z: 0.0
---
header: 
  seq: 259
  stamp: 
    secs: 1722858327
    nsecs: 996960878
  frame_id: ''
twist: 
  linear: 
    x: 0.5594085125159419
    y: 0.06479316951535974
    z: 0.0
  angular: 
    x: 0.0
    y: 0.0
    z: 0.0
---
header: 
  seq: 260
  stamp: 
    secs: 1722858328
    nsecs:  10876655
  frame_id: ''
twist: 
  linear: 
    x: 0.5594558569552701
    y: 0.06505914883321592
    z: 0.0
  angular: 
    x: 0.0
    y: 0.0
    z: 0.0
---
header: 
  seq: 261
  stamp: 
    secs: 1722858328
    nsecs:  39558410
  frame_id: ''
twist: 
  linear: 
    x: 0.5594445265511598
    y: 0.0649973852425706
    z: 0.0
  angular: 
    x: 0.0
    y: 0.0
    z: 0.0
---
header: 
  seq: 262
  stamp: 
    secs: 1722858328
    nsecs:  54012775
  frame_id: ''
twist: 
  linear: 
    x: 0.5594716019419438
    y: 0.06512885816207062
    z: 0.0
  angular: 
    x: 0.0
    y: 0.0
    z: 0.0
---
header: 
  seq: 263
  stamp: 
    secs: 1722858328
    nsecs:  73835611
  frame_id: ''
twist: 
  linear: 
    x: 0.5594308001617698
    y: 0.06489647521856753
    z: 0.0
  angular: 
    x: 0.0
    y: 0.0
    z: 0.0
---
header: 
  seq: 264
  stamp: 
    secs: 1722858328
    nsecs:  94067573
  frame_id: ''
twist: 
  linear: 
    x: 0.5594612276188885
    y: 0.06505787852104399
    z: 0.0
  angular: 
    x: 0.0
    y: 0.0
    z: 0.0
---
header: 
  seq: 265
  stamp: 
    secs: 1722858328
    nsecs: 111793041
  frame_id: ''
twist: 
  linear: 
    x: 0.559429293605559
    y: 0.06486879069077625
    z: 0.0
  angular: 
    x: 0.0
    y: 0.0
    z: 0.0
---
header: 
  seq: 266
  stamp: 
    secs: 1722858328
    nsecs: 123062372
  frame_id: ''
twist: 
  linear: 
    x: 0.5594652012715894
    y: 0.06506671487880458
    z: 0.0
  angular: 
    x: 0.0
    y: 0.0
    z: 0.0
---
header: 
  seq: 267
  stamp: 
    secs: 1722858328
    nsecs: 134093761
  frame_id: ''
twist: 
  linear: 
    x: 0.5594659585884509
    y: 0.06506890131036171
    z: 0.0
  angular: 
    x: 0.0
    y: 0.0
    z: 0.0
---
header: 
  seq: 268
  stamp: 
    secs: 1722858328
    nsecs: 151234388
  frame_id: ''
twist: 
  linear: 
    x: 0.559460104897294
    y: 0.06501980969228464
    z: 0.0
  angular: 
    x: 0.0
    y: 0.0
    z: 0.0
---
header: 
  seq: 269
  stamp: 
    secs: 1722858328
    nsecs: 162204504
  frame_id: ''
twist: 
  linear: 
    x: 0.5594799965608124
    y: 0.06512416985594069
    z: 0.0
  angular: 
    x: 0.0
    y: 0.0
    z: 0.0
---
header: 
  seq: 270
  stamp: 
    secs: 1722858328
    nsecs: 182833433
  frame_id: ''
twist: 
  linear: 
    x: 0.5594331433744142
    y: 0.06485688749894525
    z: 0.0
  angular: 
    x: 0.0
    y: 0.0
    z: 0.0
---
header: 
  seq: 271
  stamp: 
    secs: 1722858328
    nsecs: 203438520
  frame_id: ''
twist: 
  linear: 
    x: 0.5594601059148544
    y: 0.06500668436994575
    z: 0.0
  angular: 
    x: 0.0
    y: 0.0
    z: 0.0
---
header: 
  seq: 272
  stamp: 
    secs: 1722858328
    nsecs: 217874765
  frame_id: ''
twist: 
  linear: 
    x: 0.5594860402572421
    y: 0.06514478495590309
    z: 0.0
  angular: 
    x: 0.0
    y: 0.0
    z: 0.0
---
header: 
  seq: 273
  stamp: 
    secs: 1722858328
    nsecs: 227588653
  frame_id: ''
twist: 
  linear: 
    x: 0.5594434303622872
    y: 0.06488683449087407
    z: 0.0
  angular: 
    x: 0.0
    y: 0.0
    z: 0.0
---
header: 
  seq: 274
  stamp: 
    secs: 1722858328
    nsecs: 235236883
  frame_id: ''
twist: 
  linear: 
    x: 0.559520177816044
    y: 0.06528885931072123
    z: 0.0
  angular: 
    x: 0.0
    y: 0.0
    z: 0.0
---
header: 
  seq: 275
  stamp: 
    secs: 1722858328
    nsecs: 257611513
  frame_id: ''
twist: 
  linear: 
    x: 0.5595048675051892
    y: 0.0652108905649462
    z: 0.0
