header: 
  seq: 1830048
  stamp: 
    secs: 1722859254
    nsecs: 583065450
  frame_id: ''
magnetic_x: -9979.927734375
magnetic_y: 5188.51171875
magnetic_z: 16055.9609375
---
header: 
  seq: 1830049
  stamp: 
    secs: 1722859254
    nsecs: 589065450
  frame_id: ''
magnetic_x: -9976.7919921875
magnetic_y: 5190.080078125
magnetic_z: 16059.7529296875
---
header: 
  seq: 1830050
  stamp: 
    secs: 1722859254
    nsecs: 595065450
  frame_id: ''
magnetic_x: -9967.3837890625
magnetic_y: 5193.60791015625
magnetic_z: 16081.873046875
---
header: 
  seq: 1830051
  stamp: 
    secs: 1722859254
    nsecs: 601065450
  frame_id: ''
magnetic_x: -9966.9921875
magnetic_y: 5194.78369140625
magnetic_z: 16068.6005859375
---
header: 
  seq: 1830052
  stamp: 
    secs: 1722859254
    nsecs: 607065450
  frame_id: ''
magnetic_x: -9974.83203125
magnetic_y: 5192.0400390625
magnetic_z: 16066.072265625
---
header: 
  seq: 1830053
  stamp: 
    secs: 1722859254
    nsecs: 613065450
  frame_id: ''
magnetic_x: -9973.263671875
magnetic_y: 5197.52783203125
magnetic_z: 16066.705078125
---
header: 
  seq: 1830054
  stamp: 
    secs: 1722859254
    nsecs: 619065450
  frame_id: ''
magnetic_x: -9966.599609375
magnetic_y: 5190.080078125
magnetic_z: 16053.4326171875
---
header: 
  seq: 1830055
  stamp: 
    secs: 1722859254
    nsecs: 626065450
  frame_id: ''
magnetic_x: -9965.8154296875
magnetic_y: 5195.9599609375
magnetic_z: 16055.3291015625
---
header: 
  seq: 1830056
  stamp: 
    secs: 1722859254
    nsecs: 632065450
  frame_id: ''
magnetic_x: -9972.087890625
magnetic_y: 5190.4716796875
magnetic_z: 16047.7451171875
---
header: 
  seq: 1830057
  stamp: 
    secs: 1722859254
    nsecs: 638065450
  frame_id: ''
magnetic_x: -9983.84765625
magnetic_y: 5188.51171875
magnetic_z: 16061.0166015625
---
header: 
  seq: 1830058
  stamp: 
    secs: 1722859254
    nsecs: 644065450
  frame_id: ''
magnetic_x: -9971.6953125
magnetic_y: 5195.56787109375
magnetic_z: 16048.376953125
---
header: 
  seq: 1830059
  stamp: 
    secs: 1722859254
    nsecs: 650065450
  frame_id: ''
magnetic_x: -9973.263671875
magnetic_y: 5186.15966796875
magnetic_z: 16063.544921875
---
header: 
  seq: 1830060
  stamp: 
    secs: 1722859254
    nsecs: 656065450
  frame_id: ''
magnetic_x: -9961.50390625
magnetic_y: 5195.17578125
magnetic_z: 16060.384765625
---
header: 
  seq: 1830061
  stamp: 
    secs: 1722859254
    nsecs: 662065450
  frame_id: ''
magnetic_x: -9975.2236328125
magnetic_y: 5188.51171875
magnetic_z: 16064.80859375
---
header: 
  seq: 1830062
  stamp: 
    secs: 1722859254
    nsecs: 669065450
  frame_id: ''
magnetic_x: -9978.359375
magnetic_y: 5203.40771484375
magnetic_z: 16052.80078125
---
header: 
  seq: 1830063
  stamp: 
    secs: 1722859254
    nsecs: 675065450
  frame_id: ''
magnetic_x: -9973.6552734375
magnetic_y: 5183.02392578125
magnetic_z: 16059.7529296875
---
header: 
  seq: 1830064
  stamp: 
    secs: 1722859254
    nsecs: 681065450
  frame_id: ''
magnetic_x: -9979.927734375
magnetic_y: 5186.94384765625
magnetic_z: 16050.2724609375
---
header: 
  seq: 1830065
  stamp: 
    secs: 1722859254
    nsecs: 687065450
  frame_id: ''
magnetic_x: -9974.439453125
magnetic_y: 5183.416015625
magnetic_z: 16062.9130859375
---
header: 
  seq: 1830066
  stamp: 
    secs: 1722859254
    nsecs: 693065450
  frame_id: ''
magnetic_x: -9980.7119140625
magnetic_y: 5191.64794921875
magnetic_z: 16071.12890625
---
header: 
  seq: 1830067
  stamp: 
    secs: 1722859254
    nsecs: 699065450
  frame_id: ''
magnetic_x: -9970.1279296875
magnetic_y: 5187.3359375
magnetic_z: 16067.3369140625
---
header: 
  seq: 1830068
  stamp: 
    secs: 1722859254
    nsecs: 705065450
  frame_id: ''
magnetic_x: -9956.408203125
magnetic_y: 5189.2958984375
magnetic_z: 16061.6484375
---
header: 
  seq: 1830069
  stamp: 
    secs: 1722859254
    nsecs: 712065450
  frame_id: ''
magnetic_x: -9972.087890625
magnetic_y: 5187.72802734375
magnetic_z: 16078.712890625
---
header: 
  seq: 1830070
  stamp: 
    secs: 1722859254
    nsecs: 717065450
  frame_id: ''
magnetic_x: -9970.1279296875
magnetic_y: 5191.255859375
magnetic_z: 16062.2802734375
---
header: 
  seq: 1830071
  stamp: 
    secs: 1722859254
    nsecs: 723065450
  frame_id: ''
magnetic_x: -9973.6552734375
magnetic_y: 5185.3759765625
magnetic_z: 16064.1767578125
---
header: 
  seq: 1830072
  stamp: 
    secs: 1722859254
    nsecs: 729065450
  frame_id: ''
magnetic_x: -9970.51953125
magnetic_y: 5184.98388671875
magnetic_z: 16064.1767578125
---
header: 
  seq: 1830073
  stamp: 
    secs: 1722859254
    nsecs: 735065450
  frame_id: ''
magnetic_x: -9972.8720703125
magnetic_y: 5192.0400390625
magnetic_z: 16078.0810546875
---
header: 
  seq: 1830074
  stamp: 
    secs: 1722859254
    nsecs: 741065450
  frame_id: ''
magnetic_x: -9960.328125
magnetic_y: 5199.095703125
magnetic_z: 16069.8642578125
---
header: 
  seq: 1830075
  stamp: 
    secs: 1722859254
    nsecs: 747065450
  frame_id: ''
magnetic_x: -9970.1279296875
magnetic_y: 5185.3759765625
magnetic_z: 16068.6005859375
---
header: 
  seq: 1830076
  stamp: 
    secs: 1722859254
    nsecs: 754065450
  frame_id: ''
magnetic_x: -9979.927734375
magnetic_y: 5185.76806640625
magnetic_z: 16062.9130859375
---
header: 
  seq: 1830077
  stamp: 
    secs: 1722859254
    nsecs: 760065450
  frame_id: ''
magnetic_x: -9971.3037109375
magnetic_y: 5175.9677734375
magnetic_z: 16067.96875
---
header: 
  seq: 1830078
  stamp: 
    secs: 1722859254
    nsecs: 766065450
  frame_id: ''
magnetic_x: -9975.6162109375
magnetic_y: 5189.2958984375
magnetic_z: 16057.8564453125
---
header: 
  seq: 1830079
  stamp: 
    secs: 1722859254
    nsecs: 772065450
  frame_id: ''
magnetic_x: -9971.6953125
magnetic_y: 5184.98388671875
magnetic_z: 16054.064453125
---
header: 
  seq: 1830080
  stamp: 
    secs: 1722859254
    nsecs: 778065450
  frame_id: ''
magnetic_x: -9970.51953125
magnetic_y: 5198.7041015625
magnetic_z: 16054.6962890625
---
header: 
  seq: 1830081
  stamp: 
    secs: 1722859254
    nsecs: 784065450
  frame_id: ''
magnetic_x: -9967.775390625
magnetic_y: 5192.0400390625
magnetic_z: 16063.544921875
---
header: 
  seq: 1830082
  stamp: 
    secs: 1722859254
    nsecs: 790065450
  frame_id: ''
magnetic_x: -9971.6953125
magnetic_y: 5193.2158203125
magnetic_z: 16066.072265625
---
header: 
  seq: 1830083
  stamp: 
    secs: 1722859254
    nsecs: 797065450
  frame_id: ''
magnetic_x: -9972.087890625
magnetic_y: 5190.080078125
magnetic_z: 16059.7529296875
---
header: 
  seq: 1830084
  stamp: 
    secs: 1722859254
    nsecs: 803065450
  frame_id: ''
magnetic_x: -9965.423828125
magnetic_y: 5186.94384765625
magnetic_z: 16084.400390625
---
header: 
  seq: 1830085
  stamp: 
    secs: 1722859254
    nsecs: 809065450
  frame_id: ''
magnetic_x: -9976.0078125
magnetic_y: 5195.56787109375
magnetic_z: 16074.2890625
---
header: 
  seq: 1830086
  stamp: 
    secs: 1722859254
    nsecs: 815065450
  frame_id: ''
magnetic_x: -9972.4794921875
magnetic_y: 5188.51171875
magnetic_z: 16057.8564453125
---
header: 
  seq: 1830087
  stamp: 
    secs: 1722859254
    nsecs: 821065450
  frame_id: ''
magnetic_x: -9986.2001953125
magnetic_y: 5197.1357421875
magnetic_z: 16078.0810546875
---
header: 
  seq: 1830088
  stamp: 
    secs: 1722859254
    nsecs: 827065450
  frame_id: ''
magnetic_x: -9980.3193359375
magnetic_y: 5189.68798828125
magnetic_z: 16057.8564453125
---
header: 
  seq: 1830089
  stamp: 
    secs: 1722859254
    nsecs: 833065450
  frame_id: ''
magnetic_x: -9965.423828125
magnetic_y: 5191.255859375
magnetic_z: 16068.6005859375
---
header: 
  seq: 1830090
  stamp: 
    secs: 1722859254
    nsecs: 840065450
  frame_id: ''
magnetic_x: -9982.671875
magnetic_y: 5190.080078125
magnetic_z: 16045.216796875
---
header: 
  seq: 1830091
  stamp: 
    secs: 1722859254
    nsecs: 846065450
  frame_id: ''
magnetic_x: -9973.6552734375
magnetic_y: 5189.68798828125
magnetic_z: 16056.5927734375
---
header: 
  seq: 1830092
  stamp: 
    secs: 1722859254
    nsecs: 852065450
  frame_id: ''
magnetic_x: -9977.9677734375
magnetic_y: 5187.72802734375
magnetic_z: 16066.705078125
---
header: 
  seq: 1830093
  stamp: 
    secs: 1722859254
    nsecs: 858065450
  frame_id: ''
magnetic_x: -9969.7353515625
magnetic_y: 5192.431640625
magnetic_z: 16070.4970703125
---
header: 
  seq: 1830094
  stamp: 
    secs: 1722859254
    nsecs: 864065450
  frame_id: ''
magnetic_x: -9965.8154296875
magnetic_y: 5177.14404296875
magnetic_z: 16059.7529296875
---
header: 
  seq: 1830095
  stamp: 
    secs: 1722859254
    nsecs: 870065450
  frame_id: ''
magnetic_x: -9975.2236328125
magnetic_y: 5193.2158203125
magnetic_z: 16077.44921875
---
header: 
  seq: 1830096
  stamp: 
    secs: 1722859254
    nsecs: 876065450
  frame_id: ''
magnetic_x: -9979.927734375
magnetic_y: 5194.78369140625
magnetic_z: 16071.12890625
---
header: 
  seq: 1830097
  stamp: 
    secs: 1722859254
    nsecs: 883065450
  frame_id: ''
magnetic_x: -9981.8876953125
magnetic_y: 5191.255859375
magnetic_z: 16057.224609375
---
header: 
  seq: 1830098
  stamp: 
    secs: 1722859254
    nsecs: 889065450
  frame_id: ''
magnetic_x: -9973.6552734375
magnetic_y: 5197.919921875
magnetic_z: 16073.0244140625
---
header: 
  seq: 1830099
  stamp: 
    secs: 1722859254
    nsecs: 895065450
  frame_id: ''
magnetic_x: -9974.439453125
magnetic_y: 5192.0400390625
magnetic_z: 16067.96875
---
header: 
  seq: 1830100
  stamp: 
    secs: 1722859254
    nsecs: 901065450
  frame_id: ''
magnetic_x: -9974.439453125
magnetic_y: 5193.60791015625
magnetic_z: 16058.48828125
---
header: 
  seq: 1830101
  stamp: 
    secs: 1722859254
    nsecs: 907065450
  frame_id: ''
magnetic_x: -9975.2236328125
magnetic_y: 5177.53564453125
magnetic_z: 16054.064453125
---
header: 
  seq: 1830102
  stamp: 
    secs: 1722859254
    nsecs: 913065450
  frame_id: ''
magnetic_x: -9977.576171875
magnetic_y: 5184.591796875
magnetic_z: 16060.384765625
---
header: 
  seq: 1830103
  stamp: 
    secs: 1722859254
    nsecs: 919065450
  frame_id: ''
magnetic_x: -9974.439453125
magnetic_y: 5187.3359375
magnetic_z: 16055.3291015625
---
header: 
  seq: 1830104
  stamp: 
    secs: 1722859254
    nsecs: 926065450
  frame_id: ''
magnetic_x: -9977.576171875
magnetic_y: 5192.431640625
magnetic_z: 16062.9130859375
---
header: 
  seq: 1830105
  stamp: 
    secs: 1722859254
    nsecs: 932065450
  frame_id: ''
magnetic_x: -9975.2236328125
magnetic_y: 5187.72802734375
magnetic_z: 16053.4326171875
---
header: 
  seq: 1830106
  stamp: 
    secs: 1722859254
    nsecs: 938065450
  frame_id: ''
magnetic_x: -9968.5595703125
magnetic_y: 5197.1357421875
magnetic_z: 16079.9765625
---
header: 
  seq: 1830107
  stamp: 
    secs: 1722859254
    nsecs: 944065450
  frame_id: ''
magnetic_x: -9978.751953125
magnetic_y: 5191.255859375
magnetic_z: 16060.384765625
---
header: 
  seq: 1830108
  stamp: 
    secs: 1722859254
    nsecs: 950065450
  frame_id: ''
magnetic_x: -9980.7119140625
magnetic_y: 5190.080078125
magnetic_z: 16066.072265625
---
header: 
  seq: 1830109
  stamp: 
    secs: 1722859254
    nsecs: 956065450
  frame_id: ''
magnetic_x: -9977.9677734375
magnetic_y: 5179.8876953125
magnetic_z: 16060.384765625
---
header: 
  seq: 1830110
  stamp: 
    secs: 1722859254
    nsecs: 962065450
  frame_id: ''
magnetic_x: -9966.9921875
magnetic_y: 5184.591796875
magnetic_z: 16064.1767578125
---
header: 
  seq: 1830111
  stamp: 
    secs: 1722859254
    nsecs: 969065450
  frame_id: ''
magnetic_x: -9971.3037109375
magnetic_y: 5200.27197265625
magnetic_z: 16055.3291015625
---
header: 
  seq: 1830112
  stamp: 
    secs: 1722859254
    nsecs: 975065450
  frame_id: ''
magnetic_x: -9976.7919921875
magnetic_y: 5194.78369140625
magnetic_z: 16066.705078125
---
header: 
  seq: 1830113
  stamp: 
    secs: 1722859254
    nsecs: 980065450
  frame_id: ''
magnetic_x: -9968.9521484375
magnetic_y: 5187.72802734375
magnetic_z: 16057.224609375
---
header: 
  seq: 1830114
  stamp: 
    secs: 1722859254
    nsecs: 986065450
  frame_id: ''
magnetic_x: -9972.4794921875
magnetic_y: 5196.35205078125
magnetic_z: 16076.81640625
---
header: 
  seq: 1830115
  stamp: 
    secs: 1722859254
    nsecs: 992065450
  frame_id: ''
magnetic_x: -9979.1435546875
magnetic_y: 5186.5517578125
magnetic_z: 16061.0166015625
---
header: 
  seq: 1830116
  stamp: 
    secs: 1722859254
    nsecs: 998065450
  frame_id: ''
magnetic_x: -9975.6162109375
magnetic_y: 5192.0400390625
magnetic_z: 16078.712890625
---
header: 
  seq: 1830117
  stamp: 
    secs: 1722859255
    nsecs:   4065450
  frame_id: ''
magnetic_x: -9972.4794921875
magnetic_y: 5187.3359375
magnetic_z: 16066.072265625
---
header: 
  seq: 1830118
  stamp: 
    secs: 1722859255
    nsecs:  11065450
  frame_id: ''
magnetic_x: -9971.6953125
magnetic_y: 5186.15966796875
magnetic_z: 16059.7529296875
---
header: 
  seq: 1830119
  stamp: 
    secs: 1722859255
    nsecs:  17065450
  frame_id: ''
magnetic_x: -9972.8720703125
magnetic_y: 5177.927734375
magnetic_z: 16069.8642578125
---
header: 
  seq: 1830120
  stamp: 
    secs: 1722859255
    nsecs:  23065450
  frame_id: ''
magnetic_x: -9967.3837890625
magnetic_y: 5187.72802734375
magnetic_z: 16059.7529296875
---
header: 
  seq: 1830121
  stamp: 
    secs: 1722859255
    nsecs:  29065450
  frame_id: ''
magnetic_x: -9975.2236328125
magnetic_y: 5192.82373046875
magnetic_z: 16071.12890625
---
header: 
  seq: 1830122
  stamp: 
    secs: 1722859255
    nsecs:  35065450
  frame_id: ''
magnetic_x: -9976.0078125
magnetic_y: 5195.17578125
magnetic_z: 16073.6572265625
---
header: 
  seq: 1830123
  stamp: 
    secs: 1722859255
    nsecs:  41065450
  frame_id: ''
magnetic_x: -9977.576171875
magnetic_y: 5195.56787109375
magnetic_z: 16076.1845703125
---
header: 
  seq: 1830124
  stamp: 
    secs: 1722859255
    nsecs:  47065450
  frame_id: ''
magnetic_x: -9975.2236328125
magnetic_y: 5186.5517578125
magnetic_z: 16074.2890625
---
header: 
  seq: 1830125
  stamp: 
    secs: 1722859255
    nsecs:  54065450
  frame_id: ''
magnetic_x: -9963.0712890625
magnetic_y: 5186.5517578125
magnetic_z: 16065.4404296875
---
header: 
  seq: 1830126
  stamp: 
    secs: 1722859255
    nsecs:  60065450
  frame_id: ''
magnetic_x: -9966.599609375
magnetic_y: 5200.6640625
magnetic_z: 16047.7451171875
---
header: 
  seq: 1830127
  stamp: 
    secs: 1722859255
    nsecs:  66065450
  frame_id: ''
magnetic_x: -9960.7197265625
magnetic_y: 5183.416015625
magnetic_z: 16055.3291015625
---
header: 
  seq: 1830128
  stamp: 
    secs: 1722859255
    nsecs:  72065450
  frame_id: ''
magnetic_x: -9973.263671875
magnetic_y: 5186.94384765625
magnetic_z: 16059.7529296875
---
header: 
  seq: 1830129
  stamp: 
    secs: 1722859255
    nsecs:  78065450
  frame_id: ''
magnetic_x: -9981.49609375
magnetic_y: 5190.86376953125
magnetic_z: 16055.3291015625
---
header: 
  seq: 1830130
  stamp: 
    secs: 1722859255
    nsecs:  84065450
  frame_id: ''
magnetic_x: -9970.912109375
magnetic_y: 5187.3359375
magnetic_z: 16044.5849609375
---
header: 
  seq: 1830131
  stamp: 
    secs: 1722859255
    nsecs:  90065450
  frame_id: ''
magnetic_x: -9973.263671875
magnetic_y: 5188.51171875
magnetic_z: 16077.44921875
---
header: 
  seq: 1830132
  stamp: 
    secs: 1722859255
    nsecs:  97065450
  frame_id: ''
magnetic_x: -9968.16796875
magnetic_y: 5183.416015625
magnetic_z: 16057.224609375
---
header: 
  seq: 1830133
  stamp: 
    secs: 1722859255
    nsecs: 103065450
  frame_id: ''
magnetic_x: -9980.3193359375
magnetic_y: 5193.2158203125
magnetic_z: 16067.3369140625
---
header: 
  seq: 1830134
  stamp: 
    secs: 1722859255
    nsecs: 109065450
  frame_id: ''
magnetic_x: -9978.359375
magnetic_y: 5187.72802734375
magnetic_z: 16052.80078125
---
header: 
  seq: 1830135
  stamp: 
    secs: 1722859255
    nsecs: 115065450
  frame_id: ''
magnetic_x: -9977.576171875
magnetic_y: 5194.78369140625
magnetic_z: 16058.48828125
---
header: 
  seq: 1830136
  stamp: 
    secs: 1722859255
    nsecs: 121065450
  frame_id: ''
magnetic_x: -9972.8720703125
magnetic_y: 5187.3359375
magnetic_z: 16066.705078125
---
header: 
  seq: 1830137
  stamp: 
    secs: 1722859255
    nsecs: 127065450
  frame_id: ''
magnetic_x: -9972.4794921875
magnetic_y: 5184.98388671875
magnetic_z: 16074.9208984375
---
header: 
  seq: 1830138
  stamp: 
    secs: 1722859255
    nsecs: 133065450
  frame_id: ''
magnetic_x: -9977.576171875
magnetic_y: 5194.0
magnetic_z: 16049.640625
---
header: 
  seq: 1830139
  stamp: 
    secs: 1722859255
    nsecs: 140065450
  frame_id: ''
magnetic_x: -9979.5361328125
magnetic_y: 5195.9599609375
magnetic_z: 16066.072265625
---
header: 
  seq: 1830140
  stamp: 
    secs: 1722859255
    nsecs: 146065450
  frame_id: ''
magnetic_x: -9956.015625
magnetic_y: 5185.3759765625
magnetic_z: 16061.0166015625
---
header: 
  seq: 1830141
  stamp: 
    secs: 1722859255
    nsecs: 152065450
  frame_id: ''
magnetic_x: -9970.912109375
magnetic_y: 5192.0400390625
magnetic_z: 16055.9609375
---
header: 
  seq: 1830142
  stamp: 
    secs: 1722859255
    nsecs: 158065450
  frame_id: ''
magnetic_x: -9970.912109375
magnetic_y: 5188.90380859375
magnetic_z: 16079.3447265625
---
header: 
  seq: 1830143
  stamp: 
    secs: 1722859255
    nsecs: 164065450
  frame_id: ''
magnetic_x: -9964.6396484375
magnetic_y: 5190.86376953125
magnetic_z: 16061.0166015625
---
header: 
  seq: 1830144
  stamp: 
    secs: 1722859255
    nsecs: 170065450
  frame_id: ''
magnetic_x: -9972.087890625
magnetic_y: 5186.94384765625
magnetic_z: 16071.7607421875
---
header: 
  seq: 1830145
  stamp: 
    secs: 1722859255
    nsecs: 176065450
  frame_id: ''
magnetic_x: -9977.576171875
magnetic_y: 5189.2958984375
magnetic_z: 16067.3369140625
---
header: 
  seq: 1830146
  stamp: 
    secs: 1722859255
    nsecs: 183065450
  frame_id: ''
magnetic_x: -9971.3037109375
magnetic_y: 5198.31201171875
magnetic_z: 16061.6484375
---
header: 
  seq: 1830147
  stamp: 
    secs: 1722859255
    nsecs: 189065450
  frame_id: ''
magnetic_x: -9971.6953125
magnetic_y: 5179.8876953125
magnetic_z: 16057.224609375
---
header: 
  seq: 1830148
  stamp: 
    secs: 1722859255
    nsecs: 195065450
  frame_id: ''
magnetic_x: -9968.5595703125
magnetic_y: 5182.6318359375
magnetic_z: 16044.5849609375
---
header: 
  seq: 1830149
  stamp: 
    secs: 1722859255
    nsecs: 201065450
  frame_id: ''
magnetic_x: -9971.3037109375
magnetic_y: 5184.591796875
magnetic_z: 16055.3291015625
---
header: 
  seq: 1830150
  stamp: 
    secs: 1722859255
    nsecs: 207065450
  frame_id: ''
magnetic_x: -9973.263671875
magnetic_y: 5193.60791015625
magnetic_z: 16057.8564453125
---
header: 
  seq: 1830151
  stamp: 
    secs: 1722859255
    nsecs: 213065450
  frame_id: ''
magnetic_x: -9970.1279296875
magnetic_y: 5192.431640625
magnetic_z: 16052.80078125
---
header: 
  seq: 1830152
  stamp: 
    secs: 1722859255
    nsecs: 219065450
  frame_id: ''
magnetic_x: -9980.7119140625
magnetic_y: 5188.11962890625
magnetic_z: 16061.0166015625
---
header: 
  seq: 1830153
  stamp: 
    secs: 1722859255
    nsecs: 226065450
  frame_id: ''
magnetic_x: -9962.6796875
magnetic_y: 5190.080078125
magnetic_z: 16066.072265625
---
header: 
  seq: 1830154
  stamp: 
    secs: 1722859255
    nsecs: 232065450
  frame_id: ''
magnetic_x: -9969.7353515625
magnetic_y: 5192.82373046875
magnetic_z: 16050.904296875
---
header: 
  seq: 1830155
  stamp: 
    secs: 1722859255
    nsecs: 237065450
  frame_id: ''
magnetic_x: -9979.5361328125
magnetic_y: 5190.86376953125
magnetic_z: 16067.96875
---
header: 
  seq: 1830156
  stamp: 
    secs: 1722859255
    nsecs: 243065450
  frame_id: ''
magnetic_x: -9968.16796875
magnetic_y: 5186.94384765625
magnetic_z: 16071.12890625
---
header: 
  seq: 1830157
  stamp: 
    secs: 1722859255
    nsecs: 249065450
  frame_id: ''
magnetic_x: -9966.599609375
magnetic_y: 5194.39208984375
magnetic_z: 16069.8642578125
---
header: 
  seq: 1830158
  stamp: 
    secs: 1722859255
    nsecs: 255065450
  frame_id: ''
magnetic_x: -9972.8720703125
magnetic_y: 5190.080078125
magnetic_z: 16062.2802734375
---
header: 
  seq: 1830159
  stamp: 
    secs: 1722859255
    nsecs: 261065450
  frame_id: ''
magnetic_x: -9975.6162109375
magnetic_y: 5190.4716796875
magnetic_z: 16059.12109375
---
header: 
  seq: 1830160
  stamp: 
    secs: 1722859255
    nsecs: 268065450
  frame_id: ''
magnetic_x: -9965.8154296875
magnetic_y: 5187.72802734375
magnetic_z: 16054.6962890625
---
header: 
  seq: 1830161
  stamp: 
    secs: 1722859255
    nsecs: 274065450
  frame_id: ''
magnetic_x: -9971.6953125
magnetic_y: 5197.1357421875
magnetic_z: 16055.9609375
---
header: 
  seq: 1830162
  stamp: 
    secs: 1722859255
    nsecs: 280065450
  frame_id: ''
magnetic_x: -9971.6953125
magnetic_y: 5188.90380859375
magnetic_z: 16054.064453125
---
header: 
  seq: 1830163
  stamp: 
    secs: 1722859255
    nsecs: 286065450
  frame_id: ''
magnetic_x: -9970.1279296875
magnetic_y: 5189.68798828125
magnetic_z: 16081.2412109375
---
header: 
  seq: 1830164
  stamp: 
    secs: 1722859255
    nsecs: 292065450
  frame_id: ''
magnetic_x: -9970.1279296875
magnetic_y: 5189.68798828125
magnetic_z: 16067.96875
---
header: 
  seq: 1830165
  stamp: 
    secs: 1722859255
    nsecs: 298065450
  frame_id: ''
magnetic_x: -9978.751953125
magnetic_y: 5187.3359375
magnetic_z: 16061.6484375
---
header: 
  seq: 1830166
  stamp: 
    secs: 1722859255
    nsecs: 304065450
  frame_id: ''
magnetic_x: -9963.0712890625
magnetic_y: 5184.591796875
magnetic_z: 16055.3291015625
---
header: 
  seq: 1830167
  stamp: 
    secs: 1722859255
    nsecs: 311065450
  frame_id: ''
magnetic_x: -9977.576171875
magnetic_y: 5195.9599609375
magnetic_z: 16067.96875
---
header: 
  seq: 1830168
  stamp: 
    secs: 1722859255
    nsecs: 317065450
  frame_id: ''
magnetic_x: -9978.359375
magnetic_y: 5181.84765625
magnetic_z: 16060.384765625
---
header: 
  seq: 1830169
  stamp: 
    secs: 1722859255
    nsecs: 323065450
  frame_id: ''
magnetic_x: -9982.279296875
magnetic_y: 5194.0
magnetic_z: 16067.96875
---
header: 
  seq: 1830170
  stamp: 
    secs: 1722859255
    nsecs: 329065450
  frame_id: ''
magnetic_x: -9979.927734375
magnetic_y: 5189.68798828125
magnetic_z: 16062.2802734375
---
header: 
  seq: 1830171
  stamp: 
    secs: 1722859255
    nsecs: 335065450
  frame_id: ''
magnetic_x: -9974.439453125
magnetic_y: 5188.51171875
magnetic_z: 16064.80859375
---
header: 
  seq: 1830172
  stamp: 
    secs: 1722859255
    nsecs: 341065450
  frame_id: ''
magnetic_x: -9985.416015625
magnetic_y: 5197.52783203125
magnetic_z: 16061.6484375
---
header: 
  seq: 1830173
  stamp: 
    secs: 1722859255
    nsecs: 347065450
  frame_id: ''
magnetic_x: -9977.9677734375
magnetic_y: 5191.64794921875
magnetic_z: 16064.1767578125
---
header: 
  seq: 1830174
  stamp: 
    secs: 1722859255
    nsecs: 354065450
  frame_id: ''
magnetic_x: -9972.8720703125
magnetic_y: 5188.90380859375
magnetic_z: 16058.48828125
---
header: 
  seq: 1830175
  stamp: 
    secs: 1722859255
    nsecs: 360065450
  frame_id: ''
magnetic_x: -9972.4794921875
magnetic_y: 5190.4716796875
magnetic_z: 16058.48828125
---
header: 
  seq: 1830176
  stamp: 
    secs: 1722859255
    nsecs: 366065450
  frame_id: ''
magnetic_x: -9970.1279296875
magnetic_y: 5195.56787109375
magnetic_z: 16053.4326171875
---
header: 
  seq: 1830177
  stamp: 
    secs: 1722859255
    nsecs: 372065450
  frame_id: ''
magnetic_x: -9972.8720703125
magnetic_y: 5191.255859375
magnetic_z: 16078.0810546875
---
header: 
  seq: 1830178
  stamp: 
    secs: 1722859255
    nsecs: 378065450
  frame_id: ''
magnetic_x: -9985.8076171875
magnetic_y: 5186.15966796875
magnetic_z: 16055.3291015625
---
header: 
  seq: 1830179
  stamp: 
    secs: 1722859255
    nsecs: 384065450
  frame_id: ''
magnetic_x: -9970.1279296875
magnetic_y: 5186.15966796875
magnetic_z: 16055.9609375
---
header: 
  seq: 1830180
  stamp: 
    secs: 1722859255
    nsecs: 390065450
  frame_id: ''
magnetic_x: -9972.087890625
magnetic_y: 5188.90380859375
magnetic_z: 16064.80859375
---
header: 
  seq: 1830181
  stamp: 
    secs: 1722859255
    nsecs: 397065450
  frame_id: ''
magnetic_x: -9984.6318359375
magnetic_y: 5197.919921875
magnetic_z: 16069.232421875
---
header: 
  seq: 1830182
  stamp: 
    secs: 1722859255
    nsecs: 403065450
  frame_id: ''
magnetic_x: -9973.263671875
magnetic_y: 5184.591796875
magnetic_z: 16047.7451171875
---
header: 
  seq: 1830183
  stamp: 
    secs: 1722859255
    nsecs: 409065450
  frame_id: ''
magnetic_x: -9976.7919921875
magnetic_y: 5187.72802734375
magnetic_z: 16047.1123046875
---
header: 
  seq: 1830184
  stamp: 
    secs: 1722859255
    nsecs: 415065450
  frame_id: ''
magnetic_x: -9978.751953125
magnetic_y: 5194.78369140625
magnetic_z: 16079.3447265625
---
header: 
  seq: 1830185
  stamp: 
    secs: 1722859255
    nsecs: 421065450
  frame_id: ''
magnetic_x: -9961.50390625
magnetic_y: 5187.3359375
magnetic_z: 16076.1845703125
---
header: 
  seq: 1830186
  stamp: 
    secs: 1722859255
    nsecs: 427065450
  frame_id: ''
magnetic_x: -9983.4560546875
magnetic_y: 5195.56787109375
magnetic_z: 16074.2890625
---
header: 
  seq: 1830187
  stamp: 
    secs: 1722859255
    nsecs: 433065450
  frame_id: ''
magnetic_x: -9981.8876953125
magnetic_y: 5189.68798828125
magnetic_z: 16072.392578125
---
header: 
  seq: 1830188
  stamp: 
    secs: 1722859255
    nsecs: 440065450
  frame_id: ''
magnetic_x: -9979.1435546875
magnetic_y: 5192.82373046875
magnetic_z: 16069.232421875
---
header: 
  seq: 1830189
  stamp: 
    secs: 1722859255
    nsecs: 446065450
  frame_id: ''
magnetic_x: -9972.8720703125
magnetic_y: 5188.90380859375
magnetic_z: 16080.6083984375
---
header: 
  seq: 1830190
  stamp: 
    secs: 1722859255
    nsecs: 452065450
  frame_id: ''
magnetic_x: -9980.3193359375
magnetic_y: 5187.3359375
magnetic_z: 16076.1845703125
---
header: 
  seq: 1830191
  stamp: 
    secs: 1722859255
    nsecs: 458065450
  frame_id: ''
magnetic_x: -9983.4560546875
magnetic_y: 5189.2958984375
magnetic_z: 16067.3369140625
---
header: 
  seq: 1830192
  stamp: 
    secs: 1722859255
    nsecs: 464065450
  frame_id: ''
magnetic_x: -9980.7119140625
magnetic_y: 5189.2958984375
magnetic_z: 16061.6484375
---
header: 
  seq: 1830193
  stamp: 
    secs: 1722859255
    nsecs: 470065450
  frame_id: ''
magnetic_x: -9973.263671875
magnetic_y: 5192.431640625
magnetic_z: 16059.12109375
---
header: 
  seq: 1830194
  stamp: 
    secs: 1722859255
    nsecs: 476065450
  frame_id: ''
magnetic_x: -9974.83203125
magnetic_y: 5192.431640625
magnetic_z: 16062.2802734375
---
header: 
  seq: 1830195
  stamp: 
    secs: 1722859255
    nsecs: 483065450
  frame_id: ''
magnetic_x: -9970.912109375
magnetic_y: 5184.98388671875
magnetic_z: 16063.544921875
---
header: 
  seq: 1830196
  stamp: 
    secs: 1722859255
    nsecs: 489065450
  frame_id: ''
magnetic_x: -9979.1435546875
magnetic_y: 5180.671875
magnetic_z: 16078.712890625
---
header: 
  seq: 1830197
  stamp: 
    secs: 1722859255
    nsecs: 495065450
  frame_id: ''
magnetic_x: -9974.439453125
magnetic_y: 5184.98388671875
magnetic_z: 16055.9609375
---
header: 
  seq: 1830198
  stamp: 
    secs: 1722859255
    nsecs: 500065450
  frame_id: ''
magnetic_x: -9972.4794921875
magnetic_y: 5190.080078125
magnetic_z: 16050.904296875
---
header: 
  seq: 1830199
  stamp: 
    secs: 1722859255
    nsecs: 506065450
  frame_id: ''
magnetic_x: -9965.8154296875
magnetic_y: 5185.76806640625
magnetic_z: 16079.3447265625
---
header: 
  seq: 1830200
  stamp: 
    secs: 1722859255
    nsecs: 512065450
  frame_id: ''
magnetic_x: -9979.5361328125
magnetic_y: 5187.3359375
magnetic_z: 16069.8642578125
---
header: 
  seq: 1830201
  stamp: 
    secs: 1722859255
    nsecs: 518065450
  frame_id: ''
magnetic_x: -9974.439453125
magnetic_y: 5188.51171875
magnetic_z: 16062.9130859375
---
header: 
  seq: 1830202
  stamp: 
    secs: 1722859255
    nsecs: 525065450
  frame_id: ''
magnetic_x: -9973.263671875
magnetic_y: 5184.19970703125
magnetic_z: 16069.232421875
---
header: 
  seq: 1830203
  stamp: 
    secs: 1722859255
    nsecs: 531065450
  frame_id: ''
magnetic_x: -9970.912109375
magnetic_y: 5181.4560546875
magnetic_z: 16062.2802734375
---
header: 
  seq: 1830204
  stamp: 
    secs: 1722859255
    nsecs: 537065450
  frame_id: ''
magnetic_x: -9972.8720703125
magnetic_y: 5182.23974609375
magnetic_z: 16072.392578125
---
header: 
  seq: 1830205
  stamp: 
    secs: 1722859255
    nsecs: 543065450
  frame_id: ''
magnetic_x: -9965.0322265625
magnetic_y: 5188.11962890625
magnetic_z: 16067.96875
---
header: 
  seq: 1830206
  stamp: 
    secs: 1722859255
    nsecs: 549065450
  frame_id: ''
magnetic_x: -9969.7353515625
magnetic_y: 5189.68798828125
magnetic_z: 16079.9765625
---
header: 
  seq: 1830207
  stamp: 
    secs: 1722859255
    nsecs: 555065450
  frame_id: ''
magnetic_x: -9980.3193359375
magnetic_y: 5193.2158203125
magnetic_z: 16067.3369140625
---
header: 
  seq: 1830208
  stamp: 
    secs: 1722859255
    nsecs: 561065450
  frame_id: ''
magnetic_x: -9974.439453125
magnetic_y: 5187.72802734375
magnetic_z: 16075.552734375
---
header: 
  seq: 1830209
  stamp: 
    secs: 1722859255
    nsecs: 568065450
  frame_id: ''
magnetic_x: -9964.248046875
magnetic_y: 5190.4716796875
magnetic_z: 16054.064453125
---
header: 
  seq: 1830210
  stamp: 
    secs: 1722859255
    nsecs: 574065450
  frame_id: ''
magnetic_x: -9977.576171875
magnetic_y: 5190.080078125
magnetic_z: 16049.640625
---
header: 
  seq: 1830211
  stamp: 
    secs: 1722859255
    nsecs: 580065450
  frame_id: ''
magnetic_x: -9978.751953125
magnetic_y: 5179.49609375
magnetic_z: 16071.7607421875
---
header: 
  seq: 1830212
  stamp: 
    secs: 1722859255
    nsecs: 586065450
  frame_id: ''
magnetic_x: -9974.439453125
magnetic_y: 5192.0400390625
magnetic_z: 16061.0166015625
---
header: 
  seq: 1830213
  stamp: 
    secs: 1722859255
    nsecs: 592065450
  frame_id: ''
magnetic_x: -9974.0478515625
magnetic_y: 5187.72802734375
magnetic_z: 16064.1767578125
---
header: 
  seq: 1830214
  stamp: 
    secs: 1722859255
    nsecs: 598065450
  frame_id: ''
magnetic_x: -9963.85546875
magnetic_y: 5189.2958984375
magnetic_z: 16061.6484375
---
header: 
  seq: 1830215
  stamp: 
    secs: 1722859255
    nsecs: 604065450
  frame_id: ''
magnetic_x: -9969.34375
magnetic_y: 5185.3759765625
magnetic_z: 16058.48828125
---
header: 
  seq: 1830216
  stamp: 
    secs: 1722859255
    nsecs: 611065450
  frame_id: ''
magnetic_x: -9976.7919921875
magnetic_y: 5188.90380859375
magnetic_z: 16060.384765625
---
header: 
  seq: 1830217
  stamp: 
    secs: 1722859255
    nsecs: 617065450
  frame_id: ''
magnetic_x: -9972.087890625
magnetic_y: 5190.86376953125
magnetic_z: 16073.0244140625
---
header: 
  seq: 1830218
  stamp: 
    secs: 1722859255
    nsecs: 623065450
  frame_id: ''
magnetic_x: -9972.087890625
magnetic_y: 5185.3759765625
magnetic_z: 16061.6484375
---
header: 
  seq: 1830219
  stamp: 
    secs: 1722859255
    nsecs: 629065450
  frame_id: ''
magnetic_x: -9974.439453125
magnetic_y: 5197.52783203125
magnetic_z: 16072.392578125
---
header: 
  seq: 1830220
  stamp: 
    secs: 1722859255
    nsecs: 635065450
  frame_id: ''
magnetic_x: -9970.51953125
magnetic_y: 5194.78369140625
magnetic_z: 16062.2802734375
---
header: 
  seq: 1830221
  stamp: 
    secs: 1722859255
    nsecs: 641065450
  frame_id: ''
magnetic_x: -9972.087890625
magnetic_y: 5192.0400390625
magnetic_z: 16069.8642578125
---
header: 
  seq: 1830222
  stamp: 
    secs: 1722859255
    nsecs: 647065450
  frame_id: ''
magnetic_x: -9975.2236328125
magnetic_y: 5185.3759765625
magnetic_z: 16042.056640625
---
header: 
  seq: 1830223
  stamp: 
    secs: 1722859255
    nsecs: 654065450
  frame_id: ''
magnetic_x: -9972.8720703125
magnetic_y: 5192.0400390625
magnetic_z: 16079.9765625
---
header: 
  seq: 1830224
  stamp: 
    secs: 1722859255
    nsecs: 660065450
  frame_id: ''
magnetic_x: -9972.8720703125
magnetic_y: 5191.64794921875
magnetic_z: 16073.6572265625
---
header: 
  seq: 1830225
  stamp: 
    secs: 1722859255
    nsecs: 666065450
  frame_id: ''
magnetic_x: -9977.18359375
magnetic_y: 5195.56787109375
magnetic_z: 16067.3369140625
---
header: 
  seq: 1830226
  stamp: 
    secs: 1722859255
    nsecs: 672065450
  frame_id: ''
magnetic_x: -9974.439453125
magnetic_y: 5191.64794921875
magnetic_z: 16066.072265625
---
header: 
  seq: 1830227
  stamp: 
    secs: 1722859255
    nsecs: 678065450
  frame_id: ''
magnetic_x: -9972.4794921875
magnetic_y: 5191.64794921875
magnetic_z: 16069.8642578125
---
header: 
  seq: 1830228
  stamp: 
    secs: 1722859255
    nsecs: 684065450
  frame_id: ''
magnetic_x: -9963.85546875
magnetic_y: 5187.72802734375
magnetic_z: 16086.296875
---
header: 
  seq: 1830229
  stamp: 
    secs: 1722859255
    nsecs: 690065450
  frame_id: ''
magnetic_x: -9970.1279296875
magnetic_y: 5191.64794921875
magnetic_z: 16069.232421875
---
header: 
  seq: 1830230
  stamp: 
    secs: 1722859255
    nsecs: 697065450
  frame_id: ''
magnetic_x: -9974.83203125
magnetic_y: 5192.431640625
magnetic_z: 16073.6572265625
---
header: 
  seq: 1830231
  stamp: 
    secs: 1722859255
    nsecs: 703065450
  frame_id: ''
magnetic_x: -9975.6162109375
magnetic_y: 5183.02392578125
magnetic_z: 16064.80859375
---
header: 
  seq: 1830232
  stamp: 
    secs: 1722859255
    nsecs: 709065450
  frame_id: ''
magnetic_x: -9970.51953125
magnetic_y: 5195.56787109375
magnetic_z: 16064.1767578125
---
header: 
  seq: 1830233
  stamp: 
    secs: 1722859255
    nsecs: 715065450
  frame_id: ''
magnetic_x: -9966.2080078125
magnetic_y: 5197.919921875
magnetic_z: 16061.6484375
---
header: 
  seq: 1830234
  stamp: 
    secs: 1722859255
    nsecs: 721065450
  frame_id: ''
magnetic_x: -9978.751953125
magnetic_y: 5202.23193359375
magnetic_z: 16078.0810546875
---
header: 
  seq: 1830235
  stamp: 
    secs: 1722859255
    nsecs: 727065450
  frame_id: ''
magnetic_x: -9950.1357421875
magnetic_y: 5204.97607421875
magnetic_z: 16066.072265625
---
header: 
  seq: 1830236
  stamp: 
    secs: 1722859255
    nsecs: 734065450
  frame_id: ''
magnetic_x: -9952.8798828125
magnetic_y: 5222.2236328125
magnetic_z: 16051.537109375
---
header: 
  seq: 1830237
  stamp: 
    secs: 1722859255
    nsecs: 740065450
  frame_id: ''
magnetic_x: -9957.9755859375
magnetic_y: 5230.4560546875
magnetic_z: 16066.705078125
---
header: 
  seq: 1830238
  stamp: 
    secs: 1722859255
    nsecs: 746065450
  frame_id: ''
magnetic_x: -9965.8154296875
magnetic_y: 5224.18408203125
magnetic_z: 16057.8564453125
---
header: 
  seq: 1830239
  stamp: 
    secs: 1722859255
    nsecs: 754065450
  frame_id: ''
magnetic_x: -9976.7919921875
magnetic_y: 5183.80810546875
magnetic_z: 16064.80859375
---
header: 
  seq: 1830240
  stamp: 
    secs: 1722859255
    nsecs: 760065450
  frame_id: ''
magnetic_x: -9988.943359375
magnetic_y: 5159.50390625
magnetic_z: 16057.224609375
---
header: 
  seq: 1830241
  stamp: 
    secs: 1722859255
    nsecs: 766065450
  frame_id: ''
magnetic_x: -9992.86328125
magnetic_y: 5151.27197265625
magnetic_z: 16062.2802734375
---
header: 
  seq: 1830242
  stamp: 
    secs: 1722859255
    nsecs: 772065450
  frame_id: ''
magnetic_x: -10002.271484375
magnetic_y: 5158.7197265625
magnetic_z: 16033.8408203125
---
header: 
  seq: 1830243
  stamp: 
    secs: 1722859255
    nsecs: 779065450
  frame_id: ''
magnetic_x: -9984.6318359375
magnetic_y: 5174.39990234375
magnetic_z: 15992.7607421875
---
header: 
  seq: 1830244
  stamp: 
    secs: 1722859255
    nsecs: 788153179
  frame_id: ''
magnetic_x: -9972.8720703125
magnetic_y: 5206.93603515625
magnetic_z: 16000.9765625
---
header: 
  seq: 1830245
  stamp: 
    secs: 1722859255
    nsecs: 794153179
  frame_id: ''
magnetic_x: -9962.2880859375
magnetic_y: 5233.591796875
magnetic_z: 16015.5126953125
---
header: 
  seq: 1830246
  stamp: 
    secs: 1722859255
    nsecs: 800153179
  frame_id: ''
magnetic_x: -9969.7353515625
magnetic_y: 5210.4638671875
magnetic_z: 16034.47265625
---
header: 
  seq: 1830247
  stamp: 
    secs: 1722859255
    nsecs: 806153179
  frame_id: ''
magnetic_x: -9971.3037109375
magnetic_y: 5190.080078125
magnetic_z: 16066.072265625
---
header: 
  seq: 1830248
  stamp: 
    secs: 1722859255
    nsecs: 812153179
  frame_id: ''
magnetic_x: -9981.103515625
magnetic_y: 5175.9677734375
magnetic_z: 16074.9208984375
---
header: 
  seq: 1830249
  stamp: 
    secs: 1722859255
    nsecs: 818153179
  frame_id: ''
magnetic_x: -9981.49609375
magnetic_y: 5161.85595703125
magnetic_z: 16053.4326171875
---
header: 
  seq: 1830250
  stamp: 
    secs: 1722859255
    nsecs: 825153179
  frame_id: ''
magnetic_x: -9995.607421875
magnetic_y: 5157.15185546875
magnetic_z: 16061.0166015625
---
header: 
  seq: 1830251
  stamp: 
    secs: 1722859255
    nsecs: 831153179
  frame_id: ''
magnetic_x: -9996.7841796875
magnetic_y: 5170.47998046875
magnetic_z: 16009.8251953125
---
header: 
  seq: 1830252
  stamp: 
    secs: 1722859255
    nsecs: 837153179
  frame_id: ''
magnetic_x: -9992.4716796875
magnetic_y: 5161.85595703125
magnetic_z: 15992.12890625
---
header: 
  seq: 1830253
  stamp: 
    secs: 1722859255
    nsecs: 843153179
  frame_id: ''
magnetic_x: -9986.2001953125
magnetic_y: 5192.431640625
magnetic_z: 16000.3447265625
---
header: 
  seq: 1830254
  stamp: 
    secs: 1722859255
    nsecs: 849153179
  frame_id: ''
magnetic_x: -9986.2001953125
magnetic_y: 5178.7119140625
magnetic_z: 16015.5126953125
---
header: 
  seq: 1830255
  stamp: 
    secs: 1722859255
    nsecs: 855153179
  frame_id: ''
magnetic_x: -9969.34375
magnetic_y: 5190.86376953125
magnetic_z: 16021.8330078125
---
header: 
  seq: 1830256
  stamp: 
    secs: 1722859255
    nsecs: 861153179
  frame_id: ''
magnetic_x: -9973.263671875
magnetic_y: 5178.7119140625
magnetic_z: 16059.7529296875
---
header: 
  seq: 1830257
  stamp: 
    secs: 1722859255
    nsecs: 868153179
  frame_id: ''
magnetic_x: -9975.6162109375
magnetic_y: 5184.19970703125
magnetic_z: 16095.7763671875
---
header: 
  seq: 1830258
  stamp: 
    secs: 1722859255
    nsecs: 874153179
  frame_id: ''
magnetic_x: -9972.4794921875
magnetic_y: 5183.80810546875
magnetic_z: 16093.2490234375
---
header: 
  seq: 1830259
  stamp: 
    secs: 1722859255
    nsecs: 880153179
  frame_id: ''
magnetic_x: -9977.9677734375
magnetic_y: 5174.39990234375
magnetic_z: 16067.96875
---
header: 
  seq: 1830260
  stamp: 
    secs: 1722859255
    nsecs: 886153179
  frame_id: ''
magnetic_x: -9989.7275390625
magnetic_y: 5164.60009765625
magnetic_z: 16024.3603515625
---
header: 
  seq: 1830261
  stamp: 
    secs: 1722859255
    nsecs: 892153179
  frame_id: ''
magnetic_x: -9988.5517578125
magnetic_y: 5173.61572265625
magnetic_z: 16002.873046875
---
header: 
  seq: 1830262
  stamp: 
    secs: 1722859255
    nsecs: 898153179
  frame_id: ''
magnetic_x: -9976.7919921875
magnetic_y: 5175.57568359375
magnetic_z: 15997.1845703125
---
header: 
  seq: 1830263
  stamp: 
    secs: 1722859255
    nsecs: 904153179
  frame_id: ''
magnetic_x: -9981.49609375
magnetic_y: 5195.56787109375
magnetic_z: 15998.44921875
---
header: 
  seq: 1830264
  stamp: 
    secs: 1722859255
    nsecs: 911153179
  frame_id: ''
magnetic_x: -9972.4794921875
magnetic_y: 5210.85595703125
magnetic_z: 16026.888671875
---
header: 
  seq: 1830265
  stamp: 
    secs: 1722859255
    nsecs: 917153179
  frame_id: ''
magnetic_x: -9976.0078125
magnetic_y: 5205.759765625
magnetic_z: 16062.9130859375
---
header: 
  seq: 1830266
  stamp: 
    secs: 1722859255
    nsecs: 923153179
  frame_id: ''
magnetic_x: -10170.439453125
magnetic_y: 5196.74365234375
magnetic_z: 16068.6005859375
---
header: 
  seq: 1830267
  stamp: 
    secs: 1722859255
    nsecs: 929153179
  frame_id: ''
magnetic_x: -10148.8798828125
magnetic_y: 5210.07177734375
magnetic_z: 16041.4248046875
---
header: 
  seq: 1830268
  stamp: 
    secs: 1722859255
    nsecs: 935153179
  frame_id: ''
magnetic_x: -10168.4794921875
magnetic_y: 5201.44775390625
magnetic_z: 15982.6484375
---
header: 
  seq: 1830269
  stamp: 
    secs: 1722859255
    nsecs: 940153179
  frame_id: ''
magnetic_x: -10188.4716796875
magnetic_y: 5163.03173828125
magnetic_z: 15946.625
---
header: 
  seq: 1830270
  stamp: 
    secs: 1722859255
    nsecs: 946153179
  frame_id: ''
magnetic_x: -10149.6640625
magnetic_y: 5279.84765625
magnetic_z: 15891.640625
---
header: 
  seq: 1830271
  stamp: 
    secs: 1722859255
    nsecs: 953153179
  frame_id: ''
magnetic_x: -10072.439453125
magnetic_y: 5359.81591796875
magnetic_z: 15928.296875
---
header: 
  seq: 1830272
  stamp: 
    secs: 1722859255
    nsecs: 959153179
  frame_id: ''
magnetic_x: -10047.3515625
magnetic_y: 5330.416015625
magnetic_z: 16090.720703125
---
header: 
  seq: 1830273
  stamp: 
    secs: 1722859255
    nsecs: 965153179
  frame_id: ''
magnetic_x: -10010.111328125
magnetic_y: 5304.5439453125
magnetic_z: 16100.8330078125
---
header: 
  seq: 1830274
  stamp: 
    secs: 1722859255
    nsecs: 971153179
  frame_id: ''
magnetic_x: -10066.16796875
magnetic_y: 5093.255859375
magnetic_z: 15884.6884765625
---
header: 
  seq: 1830275
  stamp: 
    secs: 1722859255
    nsecs: 977153179
  frame_id: ''
magnetic_x: -10136.7275390625
magnetic_y: 4882.751953125
magnetic_z: 15850.560546875
---
header: 
  seq: 1830276
  stamp: 
    secs: 1722859255
    nsecs: 983153179
  frame_id: ''
magnetic_x: -10106.1513671875
magnetic_y: 4876.087890625
magnetic_z: 15753.8642578125
---
header: 
  seq: 1830277
  stamp: 
    secs: 1722859255
    nsecs: 989153179
  frame_id: ''
magnetic_x: -10026.18359375
magnetic_y: 5023.47998046875
magnetic_z: 15655.2724609375
---
header: 
  seq: 1830278
  stamp: 
    secs: 1722859255
    nsecs: 996153179
  frame_id: ''
magnetic_x: -9911.7197265625
magnetic_y: 5204.583984375
magnetic_z: 15962.4248046875
---
header: 
  seq: 1830279
  stamp: 
    secs: 1722859256
    nsecs:   2153179
  frame_id: ''
magnetic_x: -9800.7841796875
magnetic_y: 5385.2958984375
magnetic_z: 16203.216796875
---
header: 
  seq: 1830280
  stamp: 
    secs: 1722859256
    nsecs:   8153179
  frame_id: ''
magnetic_x: -9785.8876953125
magnetic_y: 5438.2158203125
magnetic_z: 16212.064453125
---
header: 
  seq: 1830281
  stamp: 
    secs: 1722859256
    nsecs:  14153179
  frame_id: ''
magnetic_x: -9815.6796875
magnetic_y: 5311.2080078125
magnetic_z: 16288.537109375
---
header: 
  seq: 1830282
  stamp: 
    secs: 1722859256
    nsecs:  20153179
  frame_id: ''
magnetic_x: -9919.16796875
magnetic_y: 5136.3759765625
magnetic_z: 16205.7451171875
---
header: 
  seq: 1830283
  stamp: 
    secs: 1722859256
    nsecs:  26153179
  frame_id: ''
magnetic_x: -9992.4716796875
magnetic_y: 5048.56787109375
magnetic_z: 15846.13671875
---
header: 
  seq: 1830284
  stamp: 
    secs: 1722859256
    nsecs:  32153179
  frame_id: ''
magnetic_x: -10000.3115234375
magnetic_y: 5047.39208984375
magnetic_z: 15813.904296875
---
header: 
  seq: 1830285
  stamp: 
    secs: 1722859256
    nsecs:  39153179
  frame_id: ''
magnetic_x: -10025.0078125
magnetic_y: 5035.23974609375
magnetic_z: 15905.544921875
---
header: 
  seq: 1830286
  stamp: 
    secs: 1722859256
    nsecs:  45153179
  frame_id: ''
magnetic_x: -9986.2001953125
magnetic_y: 5139.11962890625
magnetic_z: 15957.369140625
---
header: 
  seq: 1830287
  stamp: 
    secs: 1722859256
    nsecs:  51153179
  frame_id: ''
magnetic_x: -9986.591796875
magnetic_y: 5172.83203125
magnetic_z: 16169.0888671875
---
header: 
  seq: 1830288
  stamp: 
    secs: 1722859256
    nsecs:  57153179
  frame_id: ''
magnetic_x: -9968.5595703125
magnetic_y: 5151.6640625
magnetic_z: 16207.0087890625
---
header: 
  seq: 1830289
  stamp: 
    secs: 1722859256
    nsecs:  63153179
  frame_id: ''
magnetic_x: -9910.1513671875
magnetic_y: 5272.7919921875
magnetic_z: 16114.736328125
---
header: 
  seq: 1830290
  stamp: 
    secs: 1722859256
    nsecs:  69153179
  frame_id: ''
magnetic_x: -9873.6953125
magnetic_y: 5357.07177734375
magnetic_z: 16057.8564453125
---
header: 
  seq: 1830291
  stamp: 
    secs: 1722859256
    nsecs:  75153179
  frame_id: ''
magnetic_x: -9874.8720703125
magnetic_y: 5335.11962890625
magnetic_z: 16102.728515625
---
header: 
  seq: 1830292
  stamp: 
    secs: 1722859256
    nsecs:  82153179
  frame_id: ''
magnetic_x: -9897.2158203125
magnetic_y: 5306.50390625
magnetic_z: 16117.896484375
---
header: 
  seq: 1830293
  stamp: 
    secs: 1722859256
    nsecs:  88153179
  frame_id: ''
magnetic_x: -9978.359375
magnetic_y: 5187.72802734375
magnetic_z: 16132.4326171875
---
header: 
  seq: 1830294
  stamp: 
    secs: 1722859256
    nsecs:  94153179
  frame_id: ''
magnetic_x: -10064.9921875
magnetic_y: 4992.90380859375
magnetic_z: 16123.5849609375
---
header: 
  seq: 1830295
  stamp: 
    secs: 1722859256
    nsecs: 100153179
  frame_id: ''
magnetic_x: -10076.359375
magnetic_y: 4987.416015625
magnetic_z: 16028.78515625
---
header: 
  seq: 1830296
  stamp: 
    secs: 1722859256
    nsecs: 106153179
  frame_id: ''
magnetic_x: -10071.6552734375
magnetic_y: 5068.95166015625
magnetic_z: 15843.6083984375
---
header: 
  seq: 1830297
  stamp: 
    secs: 1722859256
    nsecs: 112153179
  frame_id: ''
magnetic_x: -10009.328125
magnetic_y: 5171.263671875
magnetic_z: 15846.7685546875
---
header: 
  seq: 1830298
  stamp: 
    secs: 1722859256
    nsecs: 118153179
  frame_id: ''
magnetic_x: -9917.599609375
magnetic_y: 5315.1279296875
magnetic_z: 15968.1123046875
---
header: 
  seq: 1830299
  stamp: 
    secs: 1722859256
    nsecs: 125153179
  frame_id: ''
magnetic_x: -9900.3515625
magnetic_y: 5359.03173828125
magnetic_z: 16072.392578125
---
header: 
  seq: 1830300
  stamp: 
    secs: 1722859256
    nsecs: 131153179
  frame_id: ''
magnetic_x: -9891.3359375
magnetic_y: 5300.23193359375
magnetic_z: 16287.904296875
---
header: 
  seq: 1830301
  stamp: 
    secs: 1722859256
    nsecs: 137153179
  frame_id: ''
magnetic_x: -9902.3115234375
magnetic_y: 5235.94384765625
magnetic_z: 16419.361328125
---
header: 
  seq: 1830302
  stamp: 
    secs: 1722859256
    nsecs: 143153179
  frame_id: ''
magnetic_x: -9952.8798828125
magnetic_y: 5197.1357421875
magnetic_z: 16239.2412109375
---
header: 
  seq: 1830303
  stamp: 
    secs: 1722859256
    nsecs: 149153179
  frame_id: ''
magnetic_x: -9994.0400390625
magnetic_y: 5150.48779296875
magnetic_z: 16078.0810546875
---
header: 
  seq: 1830304
  stamp: 
    secs: 1722859256
    nsecs: 155153179
  frame_id: ''
magnetic_x: -10008.5439453125
magnetic_y: 5129.7119140625
magnetic_z: 15897.9609375
---
header: 
  seq: 1830305
  stamp: 
    secs: 1722859256
    nsecs: 161153179
  frame_id: ''
magnetic_x: -10055.9755859375
magnetic_y: 5116.3837890625
magnetic_z: 15712.78515625
---
header: 
  seq: 1830306
  stamp: 
    secs: 1722859256
    nsecs: 168153179
  frame_id: ''
magnetic_x: -10041.4716796875
magnetic_y: 5133.23974609375
magnetic_z: 15788.625
---
header: 
  seq: 1830307
  stamp: 
    secs: 1722859256
    nsecs: 174153179
  frame_id: ''
magnetic_x: -10005.015625
magnetic_y: 5127.751953125
magnetic_z: 16018.041015625
---
header: 
  seq: 1830308
  stamp: 
    secs: 1722859256
    nsecs: 180153179
  frame_id: ''
magnetic_x: -9963.85546875
magnetic_y: 5196.74365234375
magnetic_z: 16138.12109375
---
header: 
  seq: 1830309
  stamp: 
    secs: 1722859256
    nsecs: 186153179
  frame_id: ''
magnetic_x: -9901.52734375
magnetic_y: 5282.19970703125
magnetic_z: 16255.041015625
---
header: 
  seq: 1830310
  stamp: 
    secs: 1722859256
    nsecs: 192153179
  frame_id: ''
magnetic_x: -9887.0234375
magnetic_y: 5297.48779296875
magnetic_z: 16294.8564453125
---
header: 
  seq: 1830311
  stamp: 
    secs: 1722859256
    nsecs: 197153179
  frame_id: ''
magnetic_x: -9900.3515625
magnetic_y: 5269.65576171875
magnetic_z: 16184.2568359375
---
header: 
  seq: 1830312
  stamp: 
    secs: 1722859256
    nsecs: 203153179
  frame_id: ''
magnetic_x: -9920.34375
magnetic_y: 5239.4716796875
magnetic_z: 16081.873046875
---
header: 
  seq: 1830313
  stamp: 
    secs: 1722859256
    nsecs: 210153179
  frame_id: ''
magnetic_x: -10003.447265625
magnetic_y: 5124.61572265625
magnetic_z: 16021.201171875
---
header: 
  seq: 1830314
  stamp: 
    secs: 1722859256
    nsecs: 216153179
  frame_id: ''
magnetic_x: -10035.9833984375
magnetic_y: 5086.19970703125
magnetic_z: 15933.984375
---
header: 
  seq: 1830315
  stamp: 
    secs: 1722859256
    nsecs: 222153179
  frame_id: ''
magnetic_x: -10036.3759765625
magnetic_y: 5128.927734375
magnetic_z: 15896.6962890625
---
header: 
  seq: 1830316
  stamp: 
    secs: 1722859256
    nsecs: 228153179
  frame_id: ''
magnetic_x: -10031.279296875
magnetic_y: 5136.76806640625
magnetic_z: 15863.201171875
---
header: 
  seq: 1830317
  stamp: 
    secs: 1722859256
    nsecs: 234153179
  frame_id: ''
magnetic_x: -9997.9599609375
magnetic_y: 5181.84765625
magnetic_z: 15954.208984375
---
header: 
  seq: 1830318
  stamp: 
    secs: 1722859256
    nsecs: 240153179
  frame_id: ''
magnetic_x: -9951.3115234375
magnetic_y: 5232.80810546875
magnetic_z: 16043.953125
---
header: 
  seq: 1830319
  stamp: 
    secs: 1722859256
    nsecs: 246153179
  frame_id: ''
magnetic_x: -9938.3759765625
magnetic_y: 5221.43994140625
magnetic_z: 16145.705078125
---
header: 
  seq: 1830320
  stamp: 
    secs: 1722859256
    nsecs: 253153179
  frame_id: ''
magnetic_x: -9913.6796875
magnetic_y: 5225.751953125
magnetic_z: 16289.80078125
---
header: 
  seq: 1830321
  stamp: 
    secs: 1722859256
    nsecs: 259153179
  frame_id: ''
magnetic_x: -9911.7197265625
magnetic_y: 5243.39208984375
magnetic_z: 16286.640625
---
header: 
  seq: 1830322
  stamp: 
    secs: 1722859256
    nsecs: 265153179
  frame_id: ''
magnetic_x: -9931.3193359375
magnetic_y: 5242.2158203125
magnetic_z: 16149.4970703125
---
header: 
  seq: 1830323
  stamp: 
    secs: 1722859256
    nsecs: 271153179
  frame_id: ''
magnetic_x: -9957.19140625
magnetic_y: 5237.11962890625
magnetic_z: 16062.9130859375
---
header: 
  seq: 1830324
  stamp: 
    secs: 1722859256
    nsecs: 277153179
  frame_id: ''
magnetic_x: -10026.18359375
magnetic_y: 5168.91162109375
magnetic_z: 15882.79296875
---
header: 
  seq: 1830325
  stamp: 
    secs: 1722859256
    nsecs: 283153179
  frame_id: ''
magnetic_x: -10041.4716796875
magnetic_y: 5117.56005859375
magnetic_z: 15795.5771484375
---
header: 
  seq: 1830326
  stamp: 
    secs: 1722859256
    nsecs: 289153179
  frame_id: ''
magnetic_x: -10050.095703125
magnetic_y: 5091.2958984375
magnetic_z: 15870.78515625
---
header: 
  seq: 1830327
  stamp: 
    secs: 1722859256
    nsecs: 296153179
  frame_id: ''
magnetic_x: -10035.9833984375
magnetic_y: 5098.74365234375
magnetic_z: 15983.9130859375
---
header: 
  seq: 1830328
  stamp: 
    secs: 1722859256
    nsecs: 302153179
  frame_id: ''
magnetic_x: -9972.4794921875
magnetic_y: 5195.17578125
magnetic_z: 16097.6728515625
---
header: 
  seq: 1830329
  stamp: 
    secs: 1722859256
    nsecs: 308153179
  frame_id: ''
magnetic_x: -9912.111328125
magnetic_y: 5266.52001953125
magnetic_z: 16265.15234375
---
header: 
  seq: 1830330
  stamp: 
    secs: 1722859256
    nsecs: 314153179
  frame_id: ''
magnetic_x: -9903.095703125
magnetic_y: 5292.39208984375
magnetic_z: 16278.4248046875
---
header: 
  seq: 1830331
  stamp: 
    secs: 1722859256
    nsecs: 320153179
  frame_id: ''
magnetic_x: -9900.744140625
magnetic_y: 5292.39208984375
magnetic_z: 16207.640625
---
header: 
  seq: 1830332
  stamp: 
    secs: 1722859256
    nsecs: 326153179
  frame_id: ''
magnetic_x: -9946.607421875
magnetic_y: 5220.65576171875
magnetic_z: 16092.6171875
---
header: 
  seq: 1830333
  stamp: 
    secs: 1722859256
    nsecs: 332153179
  frame_id: ''
magnetic_x: -9997.9599609375
magnetic_y: 5148.52783203125
magnetic_z: 15961.1611328125
---
header: 
  seq: 1830334
  stamp: 
    secs: 1722859256
    nsecs: 339153179
  frame_id: ''
magnetic_x: -10028.927734375
magnetic_y: 5151.6640625
magnetic_z: 15868.2568359375
---
header: 
  seq: 1830335
  stamp: 
    secs: 1722859256
    nsecs: 345153179
  frame_id: ''
magnetic_x: -10038.3359375
magnetic_y: 5141.86376953125
magnetic_z: 15872.6806640625
---
header: 
  seq: 1830336
  stamp: 
    secs: 1722859256
    nsecs: 351153179
  frame_id: ''
magnetic_x: -10023.439453125
magnetic_y: 5130.10400390625
magnetic_z: 15936.5126953125
---
header: 
  seq: 1830337
  stamp: 
    secs: 1722859256
    nsecs: 357153179
  frame_id: ''
magnetic_x: -10000.7041015625
magnetic_y: 5152.83984375
magnetic_z: 16036.369140625
---
header: 
  seq: 1830338
  stamp: 
    secs: 1722859256
    nsecs: 363153179
  frame_id: ''
magnetic_x: -9980.7119140625
magnetic_y: 5174.7919921875
magnetic_z: 16083.13671875
---
header: 
  seq: 1830339
  stamp: 
    secs: 1722859256
    nsecs: 369153179
  frame_id: ''
magnetic_x: -9952.8798828125
magnetic_y: 5182.23974609375
magnetic_z: 16186.15234375
---
header: 
  seq: 1830340
  stamp: 
    secs: 1722859256
    nsecs: 375153179
  frame_id: ''
magnetic_x: -9921.1279296875
magnetic_y: 5247.7041015625
magnetic_z: 16225.3369140625
---
header: 
  seq: 1830341
  stamp: 
    secs: 1722859256
    nsecs: 382153179
  frame_id: ''
magnetic_x: -9911.7197265625
magnetic_y: 5273.9677734375
magnetic_z: 16147.6005859375
---
header: 
  seq: 1830342
  stamp: 
    secs: 1722859256
    nsecs: 388153179
  frame_id: ''
magnetic_x: -9927.3994140625
magnetic_y: 5270.43994140625
magnetic_z: 16116.0009765625
---
header: 
  seq: 1830343
  stamp: 
    secs: 1722859256
    nsecs: 394153179
  frame_id: ''
magnetic_x: -9962.2880859375
magnetic_y: 5236.72802734375
magnetic_z: 16057.8564453125
---
header: 
  seq: 1830344
  stamp: 
    secs: 1722859256
    nsecs: 400153179
  frame_id: ''
magnetic_x: -10014.423828125
magnetic_y: 5166.16796875
magnetic_z: 15911.8642578125
---
header: 
  seq: 1830345
  stamp: 
    secs: 1722859256
    nsecs: 406153179
  frame_id: ''
magnetic_x: -10028.927734375
magnetic_y: 5109.32763671875
magnetic_z: 15881.5283203125
---
header: 
  seq: 1830346
  stamp: 
    secs: 1722859256
    nsecs: 412153179
  frame_id: ''
magnetic_x: -10042.255859375
magnetic_y: 5077.57568359375
magnetic_z: 15901.12109375
---
header: 
  seq: 1830347
  stamp: 
    secs: 1722859256
    nsecs: 418153179
  frame_id: ''
magnetic_x: -10016.3837890625
magnetic_y: 5114.81591796875
magnetic_z: 15964.953125
---
header: 
  seq: 1830348
  stamp: 
    secs: 1722859256
    nsecs: 425153179
  frame_id: ''
magnetic_x: -9977.576171875
magnetic_y: 5179.10400390625
magnetic_z: 16112.8408203125
---
header: 
  seq: 1830349
  stamp: 
    secs: 1722859256
    nsecs: 431153179
  frame_id: ''
magnetic_x: -9940.3359375
magnetic_y: 5227.31982421875
magnetic_z: 16240.5048828125
---
header: 
  seq: 1830350
  stamp: 
    secs: 1722859256
    nsecs: 437153179
  frame_id: ''
magnetic_x: -9902.3115234375
magnetic_y: 5266.52001953125
magnetic_z: 16231.6572265625
---
header: 
  seq: 1830351
  stamp: 
    secs: 1722859256
    nsecs: 443153179
  frame_id: ''
magnetic_x: -9892.51171875
magnetic_y: 5303.759765625
magnetic_z: 16201.953125
---
header: 
  seq: 1830352
  stamp: 
    secs: 1722859256
    nsecs: 449153179
  frame_id: ''
magnetic_x: -9939.16015625
magnetic_y: 5246.919921875
magnetic_z: 16090.720703125
---
header: 
  seq: 1830353
  stamp: 
    secs: 1722859256
    nsecs: 455153179
  frame_id: ''
magnetic_x: -9978.359375
magnetic_y: 5209.6796875
magnetic_z: 15970.640625
---
header: 
  seq: 1830354
  stamp: 
    secs: 1722859256
    nsecs: 460153179
  frame_id: ''
magnetic_x: -9999.52734375
magnetic_y: 5165.77587890625
magnetic_z: 15899.224609375
---
header: 
  seq: 1830355
  stamp: 
    secs: 1722859256
    nsecs: 467153179
  frame_id: ''
magnetic_x: -10039.9033203125
magnetic_y: 5087.3759765625
magnetic_z: 15897.9609375
---
header: 
  seq: 1830356
  stamp: 
    secs: 1722859256
    nsecs: 473153179
  frame_id: ''
magnetic_x: -10054.408203125
magnetic_y: 5071.3037109375
magnetic_z: 15997.81640625
---
header: 
  seq: 1830357
  stamp: 
    secs: 1722859256
    nsecs: 479153179
  frame_id: ''
magnetic_x: -10012.4638671875
magnetic_y: 5119.52001953125
magnetic_z: 16063.544921875
---
header: 
  seq: 1830358
  stamp: 
    secs: 1722859256
    nsecs: 485153179
  frame_id: ''
magnetic_x: -9983.84765625
magnetic_y: 5159.50390625
magnetic_z: 16107.78515625
---
header: 
  seq: 1830359
  stamp: 
    secs: 1722859256
    nsecs: 491153179
  frame_id: ''
magnetic_x: -9920.7353515625
magnetic_y: 5251.6240234375
magnetic_z: 16135.5927734375
---
header: 
  seq: 1830360
  stamp: 
    secs: 1722859256
    nsecs: 497153179
  frame_id: ''
magnetic_x: -9888.2001953125
magnetic_y: 5315.91162109375
magnetic_z: 16136.8564453125
---
header: 
  seq: 1830361
  stamp: 
    secs: 1722859256
    nsecs: 503153179
  frame_id: ''
magnetic_x: -9906.6240234375
magnetic_y: 5313.16796875
magnetic_z: 16098.3046875
---
header: 
  seq: 1830362
  stamp: 
    secs: 1722859256
    nsecs: 510153179
  frame_id: ''
magnetic_x: -9925.83203125
magnetic_y: 5258.6796875
magnetic_z: 16117.2646484375
---
header: 
  seq: 1830363
  stamp: 
    secs: 1722859256
    nsecs: 516153179
  frame_id: ''
magnetic_x: -9971.6953125
magnetic_y: 5184.591796875
magnetic_z: 16066.072265625
---
header: 
  seq: 1830364
  stamp: 
    secs: 1722859256
    nsecs: 522153179
  frame_id: ''
magnetic_x: -10024.6162109375
magnetic_y: 5103.83984375
magnetic_z: 15982.0166015625
---
header: 
  seq: 1830365
  stamp: 
    secs: 1722859256
    nsecs: 528153179
  frame_id: ''
magnetic_x: -10051.271484375
magnetic_y: 5077.9677734375
magnetic_z: 15979.48828125
---
header: 
  seq: 1830366
  stamp: 
    secs: 1722859256
    nsecs: 534153179
  frame_id: ''
magnetic_x: -10038.3359375
magnetic_y: 5081.8876953125
magnetic_z: 15951.6806640625
---
header: 
  seq: 1830367
  stamp: 
    secs: 1722859256
    nsecs: 540153179
  frame_id: ''
magnetic_x: -10007.759765625
magnetic_y: 5152.0556640625
magnetic_z: 15920.0810546875
---
header: 
  seq: 1830368
  stamp: 
    secs: 1722859256
    nsecs: 546153179
  frame_id: ''
magnetic_x: -9957.19140625
magnetic_y: 5219.8720703125
magnetic_z: 16059.12109375
---
header: 
  seq: 1830369
  stamp: 
    secs: 1722859256
    nsecs: 553153179
  frame_id: ''
magnetic_x: -9923.4794921875
magnetic_y: 5262.60009765625
magnetic_z: 16121.056640625
---
header: 
  seq: 1830370
  stamp: 
    secs: 1722859256
    nsecs: 559153179
  frame_id: ''
magnetic_x: -9912.111328125
magnetic_y: 5289.64794921875
magnetic_z: 16157.712890625
---
header: 
  seq: 1830371
  stamp: 
    secs: 1722859256
    nsecs: 565153179
  frame_id: ''
magnetic_x: -9914.4638671875
magnetic_y: 5277.8876953125
magnetic_z: 16209.537109375
---
header: 
  seq: 1830372
  stamp: 
    secs: 1722859256
    nsecs: 571153179
  frame_id: ''
magnetic_x: -9953.271484375
magnetic_y: 5213.60009765625
magnetic_z: 16134.3291015625
---
header: 
  seq: 1830373
  stamp: 
    secs: 1722859256
    nsecs: 577153179
  frame_id: ''
magnetic_x: -9979.927734375
magnetic_y: 5179.49609375
magnetic_z: 16024.3603515625
---
header: 
  seq: 1830374
  stamp: 
    secs: 1722859256
    nsecs: 583153179
  frame_id: ''
magnetic_x: -10023.0478515625
magnetic_y: 5122.263671875
magnetic_z: 15984.544921875
---
header: 
  seq: 1830375
  stamp: 
    secs: 1722859256
    nsecs: 589153179
  frame_id: ''
magnetic_x: -10053.2314453125
magnetic_y: 5075.61572265625
magnetic_z: 15933.3525390625
---
header: 
  seq: 1830376
  stamp: 
    secs: 1722859256
    nsecs: 596153179
  frame_id: ''
magnetic_x: -10028.5361328125
magnetic_y: 5116.3837890625
magnetic_z: 15927.033203125
---
header: 
  seq: 1830377
  stamp: 
    secs: 1722859256
    nsecs: 602153179
  frame_id: ''
magnetic_x: -10007.759765625
magnetic_y: 5158.32763671875
magnetic_z: 15951.6806640625
---
header: 
  seq: 1830378
  stamp: 
    secs: 1722859256
    nsecs: 608153179
  frame_id: ''
magnetic_x: -9968.16796875
magnetic_y: 5204.97607421875
magnetic_z: 16068.6005859375
---
header: 
  seq: 1830379
  stamp: 
    secs: 1722859256
    nsecs: 614153179
  frame_id: ''
magnetic_x: -9916.0322265625
magnetic_y: 5293.56787109375
magnetic_z: 16141.9130859375
---
header: 
  seq: 1830380
  stamp: 
    secs: 1722859256
    nsecs: 620153179
  frame_id: ''
magnetic_x: -9905.0556640625
magnetic_y: 5295.919921875
magnetic_z: 16146.3369140625
---
header: 
  seq: 1830381
  stamp: 
    secs: 1722859256
    nsecs: 626153179
  frame_id: ''
magnetic_x: -9919.9521484375
magnetic_y: 5245.35205078125
magnetic_z: 16150.7607421875
---
header: 
  seq: 1830382
  stamp: 
    secs: 1722859256
    nsecs: 633153179
  frame_id: ''
magnetic_x: -9943.080078125
