header: 
  seq: 1
  stamp: 
    secs: 1722859271
    nsecs: 585113525
  frame_id: ''
twist: 
  linear: 
    x: 0.5556040698974203
    y: 0.08114526758922637
    z: 0.0
  angular: 
    x: 0.0
    y: 0.0
    z: 0.0
---
header: 
  seq: 2
  stamp: 
    secs: 1722859271
    nsecs: 599709749
  frame_id: ''
twist: 
  linear: 
    x: 0.5555820989109874
    y: 0.08106845288081621
    z: 0.0
  angular: 
    x: 0.0
    y: 0.0
    z: 0.0
---
header: 
  seq: 3
  stamp: 
    secs: 1722859271
    nsecs: 611850738
  frame_id: ''
twist: 
  linear: 
    x: 0.5556657572838817
    y: 0.08102291627642277
    z: 0.0
  angular: 
    x: 0.0
    y: 0.0
    z: 0.0
---
header: 
  seq: 4
  stamp: 
    secs: 1722859271
    nsecs: 622140169
  frame_id: ''
twist: 
  linear: 
    x: 0.5556250849353874
    y: 0.08091919160626586
    z: 0.0
  angular: 
    x: 0.0
    y: 0.0
    z: 0.0
---
header: 
  seq: 5
  stamp: 
    secs: 1722859271
    nsecs: 634874343
  frame_id: ''
twist: 
  linear: 
    x: 0.5557642203924937
    y: 0.08106762172394562
    z: 0.0
  angular: 
    x: 0.0
    y: 0.0
    z: 0.0
---
header: 
  seq: 6
  stamp: 
    secs: 1722859271
    nsecs: 643678665
  frame_id: ''
twist: 
  linear: 
    x: 0.5557690961999917
    y: 0.08102297853502577
    z: 0.0
  angular: 
    x: 0.0
    y: 0.0
    z: 0.0
---
header: 
  seq: 7
  stamp: 
    secs: 1722859271
    nsecs: 656747817
  frame_id: ''
twist: 
  linear: 
    x: 0.5557806039752304
    y: 0.08099520142479472
    z: 0.0
  angular: 
    x: 0.0
    y: 0.0
    z: 0.0
---
header: 
  seq: 8
  stamp: 
    secs: 1722859271
    nsecs: 671401500
  frame_id: ''
twist: 
  linear: 
    x: 0.555872892561702
    y: 0.08107818977026833
    z: 0.0
  angular: 
    x: 0.0
    y: 0.0
    z: 0.0
---
header: 
  seq: 9
  stamp: 
    secs: 1722859271
    nsecs: 690990686
  frame_id: ''
twist: 
  linear: 
    x: 0.5558246975261177
    y: 0.08096100812728238
    z: 0.0
  angular: 
    x: 0.0
    y: 0.0
    z: 0.0
---
header: 
  seq: 10
  stamp: 
    secs: 1722859271
    nsecs: 716118812
  frame_id: ''
twist: 
  linear: 
    x: 0.5557738802352113
    y: 0.08084378086624566
    z: 0.0
  angular: 
    x: 0.0
    y: 0.0
    z: 0.0
---
header: 
  seq: 11
  stamp: 
    secs: 1722859271
    nsecs: 750265121
  frame_id: ''
twist: 
  linear: 
    x: 0.5561308956482555
    y: 0.08068447876370351
    z: 0.0
  angular: 
    x: 0.0
    y: 0.0
    z: 0.0
---
header: 
  seq: 12
  stamp: 
    secs: 1722859271
    nsecs: 773033380
  frame_id: ''
twist: 
  linear: 
    x: 0.5561531833418711
    y: 0.0806783163904711
    z: 0.0
  angular: 
    x: 0.0
    y: 0.0
    z: 0.0
---
header: 
  seq: 13
  stamp: 
    secs: 1722859271
    nsecs: 778727769
  frame_id: ''
twist: 
  linear: 
    x: 0.5562642913329963
    y: 0.08080504360114835
    z: 0.0
  angular: 
    x: 0.0
    y: 0.0
    z: 0.0
---
header: 
  seq: 14
  stamp: 
    secs: 1722859271
    nsecs: 794948577
  frame_id: ''
twist: 
  linear: 
    x: 0.5561722679863444
    y: 0.08055201860397836
    z: 0.0
  angular: 
    x: 0.0
    y: 0.0
    z: 0.0
---
header: 
  seq: 15
  stamp: 
    secs: 1722859271
    nsecs: 820453882
  frame_id: ''
twist: 
  linear: 
    x: 0.5564335871449545
    y: 0.08058765118932779
    z: 0.0
  angular: 
    x: 0.0
    y: 0.0
    z: 0.0
---
header: 
  seq: 16
  stamp: 
    secs: 1722859271
    nsecs: 839020252
  frame_id: ''
twist: 
  linear: 
    x: 0.5563835261749499
    y: 0.08045296465514958
    z: 0.0
  angular: 
    x: 0.0
    y: 0.0
    z: 0.0
---
header: 
  seq: 17
  stamp: 
    secs: 1722859271
    nsecs: 851957798
  frame_id: ''
twist: 
  linear: 
    x: 0.5565807257770209
    y: 0.08074407287407478
    z: 0.0
  angular: 
    x: 0.0
    y: 0.0
    z: 0.0
---
header: 
  seq: 18
  stamp: 
    secs: 1722859271
    nsecs: 862807989
  frame_id: ''
twist: 
  linear: 
    x: 0.5563867236715208
    y: 0.0803592892772593
    z: 0.0
  angular: 
    x: 0.0
    y: 0.0
    z: 0.0
---
header: 
  seq: 19
  stamp: 
    secs: 1722859271
    nsecs: 881020784
  frame_id: ''
twist: 
  linear: 
    x: 0.5565294109122685
    y: 0.0805569140413866
    z: 0.0
  angular: 
    x: 0.0
    y: 0.0
    z: 0.0
---
header: 
  seq: 20
  stamp: 
    secs: 1722859271
    nsecs: 899866580
  frame_id: ''
twist: 
  linear: 
    x: 0.5565742004507406
    y: 0.08059170361582522
    z: 0.0
  angular: 
    x: 0.0
    y: 0.0
    z: 0.0
---
header: 
  seq: 21
  stamp: 
    secs: 1722859271
    nsecs: 909824371
  frame_id: ''
twist: 
  linear: 
    x: 0.5565577248144026
    y: 0.08052743816252392
    z: 0.0
  angular: 
    x: 0.0
    y: 0.0
    z: 0.0
---
header: 
  seq: 22
  stamp: 
    secs: 1722859271
    nsecs: 924876451
  frame_id: ''
twist: 
  linear: 
    x: 0.5565089773171985
    y: 0.08037017374422703
    z: 0.0
  angular: 
    x: 0.0
    y: 0.0
    z: 0.0
---
header: 
  seq: 23
  stamp: 
    secs: 1722859271
    nsecs: 932049989
  frame_id: ''
twist: 
  linear: 
    x: 0.5566195816170124
    y: 0.08051482887009949
    z: 0.0
  angular: 
    x: 0.0
    y: 0.0
    z: 0.0
---
header: 
  seq: 24
  stamp: 
    secs: 1722859271
    nsecs: 953706264
  frame_id: ''
twist: 
  linear: 
    x: 0.5565830852900657
    y: 0.08039883044382695
    z: 0.0
  angular: 
    x: 0.0
    y: 0.0
    z: 0.0
---
header: 
  seq: 25
  stamp: 
    secs: 1722859271
    nsecs: 968861341
  frame_id: ''
twist: 
  linear: 
    x: 0.5565932450675558
    y: 0.08036429023051951
    z: 0.0
  angular: 
    x: 0.0
    y: 0.0
    z: 0.0
---
header: 
  seq: 26
  stamp: 
    secs: 1722859271
    nsecs: 983603954
  frame_id: ''
twist: 
  linear: 
    x: 0.5566603897968208
    y: 0.08043520163542384
    z: 0.0
  angular: 
    x: 0.0
    y: 0.0
    z: 0.0
---
header: 
  seq: 27
  stamp: 
    secs: 1722859272
    nsecs:  31464338
  frame_id: ''
twist: 
  linear: 
    x: 0.5570614488878011
    y: 0.08012692409253798
    z: 0.0
  angular: 
    x: 0.0
    y: 0.0
    z: 0.0
---
header: 
  seq: 28
  stamp: 
    secs: 1722859272
    nsecs:  44245958
  frame_id: ''
twist: 
  linear: 
    x: 0.5570581170322546
    y: 0.08007643096828705
    z: 0.0
  angular: 
    x: 0.0
    y: 0.0
    z: 0.0
---
header: 
  seq: 29
  stamp: 
    secs: 1722859272
    nsecs:  62058925
  frame_id: ''
twist: 
  linear: 
    x: 0.5570940613727047
    y: 0.08010192604935133
    z: 0.0
  angular: 
    x: 0.0
    y: 0.0
    z: 0.0
---
header: 
  seq: 30
  stamp: 
    secs: 1722859272
    nsecs:  78534364
  frame_id: ''
twist: 
  linear: 
    x: 0.5570721121964328
    y: 0.08001261649528435
    z: 0.0
  angular: 
    x: 0.0
    y: 0.0
    z: 0.0
---
header: 
  seq: 31
  stamp: 
    secs: 1722859272
    nsecs:  87185382
  frame_id: ''
twist: 
  linear: 
    x: 0.5571301097010868
    y: 0.08007986468343124
    z: 0.0
  angular: 
    x: 0.0
    y: 0.0
    z: 0.0
---
header: 
  seq: 32
  stamp: 
    secs: 1722859272
    nsecs:  99049806
  frame_id: ''
twist: 
  linear: 
    x: 0.5571109620999858
    y: 0.07994322209252226
    z: 0.0
  angular: 
    x: 0.0
    y: 0.0
    z: 0.0
---
header: 
  seq: 33
  stamp: 
    secs: 1722859272
    nsecs: 113541364
  frame_id: ''
twist: 
  linear: 
    x: 0.557315453125301
    y: 0.07992788053080989
    z: 0.0
  angular: 
    x: 0.0
    y: 0.0
    z: 0.0
---
header: 
  seq: 34
  stamp: 
    secs: 1722859272
    nsecs: 123197793
  frame_id: ''
twist: 
  linear: 
    x: 0.5572844826048878
    y: 0.07980303265271292
    z: 0.0
  angular: 
    x: 0.0
    y: 0.0
    z: 0.0
---
header: 
  seq: 35
  stamp: 
    secs: 1722859272
    nsecs: 135989189
  frame_id: ''
twist: 
  linear: 
    x: 0.5572898690920031
    y: 0.0797583678933644
    z: 0.0
  angular: 
    x: 0.0
    y: 0.0
    z: 0.0
---
header: 
  seq: 36
  stamp: 
    secs: 1722859272
    nsecs: 148985862
  frame_id: ''
twist: 
  linear: 
    x: 0.5573636429700369
    y: 0.07989185870457853
    z: 0.0
  angular: 
    x: 0.0
    y: 0.0
    z: 0.0
---
header: 
  seq: 37
  stamp: 
    secs: 1722859272
    nsecs: 168925523
  frame_id: ''
twist: 
  linear: 
    x: 0.5572572892547993
    y: 0.07959432475926347
    z: 0.0
  angular: 
    x: 0.0
    y: 0.0
    z: 0.0
---
header: 
  seq: 38
  stamp: 
    secs: 1722859272
    nsecs: 181983947
  frame_id: ''
twist: 
  linear: 
    x: 0.5574686707955692
    y: 0.08002973960056868
    z: 0.0
  angular: 
    x: 0.0
    y: 0.0
    z: 0.0
---
header: 
  seq: 39
  stamp: 
    secs: 1722859272
    nsecs: 192435026
  frame_id: ''
twist: 
  linear: 
    x: 0.5574277985521863
    y: 0.07988380588537228
    z: 0.0
  angular: 
    x: 0.0
    y: 0.0
    z: 0.0
---
header: 
  seq: 40
  stamp: 
    secs: 1722859272
    nsecs: 209672451
  frame_id: ''
twist: 
  linear: 
    x: 0.5575079105885653
    y: 0.08002790203723628
    z: 0.0
  angular: 
    x: 0.0
    y: 0.0
    z: 0.0
---
header: 
  seq: 41
  stamp: 
    secs: 1722859272
    nsecs: 234391450
  frame_id: ''
twist: 
  linear: 
    x: 0.5574777885764571
    y: 0.07991458682703727
    z: 0.0
  angular: 
    x: 0.0
    y: 0.0
    z: 0.0
---
header: 
  seq: 42
  stamp: 
    secs: 1722859272
    nsecs: 256243705
  frame_id: ''
twist: 
  linear: 
    x: 0.5575350417790814
    y: 0.07981470396872466
    z: 0.0
  angular: 
    x: 0.0
    y: 0.0
    z: 0.0
---
header: 
  seq: 43
  stamp: 
    secs: 1722859272
    nsecs: 270581722
  frame_id: ''
twist: 
  linear: 
    x: 0.5575573873035136
    y: 0.07982210863391119
    z: 0.0
  angular: 
    x: 0.0
    y: 0.0
    z: 0.0
---
header: 
  seq: 44
  stamp: 
    secs: 1722859272
    nsecs: 284987926
  frame_id: ''
twist: 
  linear: 
    x: 0.5575582872278565
    y: 0.0797687651745255
    z: 0.0
  angular: 
    x: 0.0
    y: 0.0
    z: 0.0
---
header: 
  seq: 45
  stamp: 
    secs: 1722859272
    nsecs: 302849531
  frame_id: ''
twist: 
  linear: 
    x: 0.5576261428995912
    y: 0.07989474149535132
    z: 0.0
  angular: 
    x: 0.0
    y: 0.0
    z: 0.0
---
header: 
  seq: 46
  stamp: 
    secs: 1722859272
    nsecs: 313901424
  frame_id: ''
twist: 
  linear: 
    x: 0.557578579109426
    y: 0.07972306781266433
    z: 0.0
  angular: 
    x: 0.0
    y: 0.0
    z: 0.0
---
header: 
  seq: 47
  stamp: 
    secs: 1722859272
    nsecs: 352177858
  frame_id: ''
twist: 
  linear: 
    x: 0.5578720522625241
    y: 0.07946907161040122
    z: 0.0
  angular: 
    x: 0.0
    y: 0.0
    z: 0.0
---
header: 
  seq: 48
  stamp: 
    secs: 1722859272
    nsecs: 366834402
  frame_id: ''
twist: 
  linear: 
    x: 0.5578614389661891
    y: 0.07937874116296809
    z: 0.0
  angular: 
    x: 0.0
    y: 0.0
    z: 0.0
---
header: 
  seq: 49
  stamp: 
    secs: 1722859272
    nsecs: 388424634
  frame_id: ''
twist: 
  linear: 
    x: 0.5578814217583417
    y: 0.0792238550225365
    z: 0.0
  angular: 
    x: 0.0
    y: 0.0
    z: 0.0
---
header: 
  seq: 50
  stamp: 
    secs: 1722859272
    nsecs: 403486967
  frame_id: ''
twist: 
  linear: 
    x: 0.5579269886956678
    y: 0.07931748145300578
    z: 0.0
  angular: 
    x: 0.0
    y: 0.0
    z: 0.0
---
header: 
  seq: 51
  stamp: 
    secs: 1722859272
    nsecs: 414599895
  frame_id: ''
twist: 
  linear: 
    x: 0.5579356681064629
    y: 0.0792976813968558
    z: 0.0
  angular: 
    x: 0.0
    y: 0.0
    z: 0.0
---
header: 
  seq: 52
  stamp: 
    secs: 1722859272
    nsecs: 427626132
  frame_id: ''
twist: 
  linear: 
    x: 0.557923648143755
    y: 0.07921522896097756
    z: 0.0
  angular: 
    x: 0.0
    y: 0.0
    z: 0.0
---
header: 
  seq: 53
  stamp: 
    secs: 1722859272
    nsecs: 443156480
  frame_id: ''
twist: 
  linear: 
    x: 0.5579732404391341
    y: 0.07901689069527906
    z: 0.0
  angular: 
    x: 0.0
    y: 0.0
    z: 0.0
---
header: 
  seq: 54
  stamp: 
    secs: 1722859272
    nsecs: 468166351
  frame_id: ''
twist: 
  linear: 
    x: 0.5579769554771933
    y: 0.07896980672213287
    z: 0.0
  angular: 
    x: 0.0
    y: 0.0
    z: 0.0
---
header: 
  seq: 55
  stamp: 
    secs: 1722859272
    nsecs: 496202468
  frame_id: ''
twist: 
  linear: 
    x: 0.558036670207276
    y: 0.0787808736862132
    z: 0.0
  angular: 
    x: 0.0
    y: 0.0
    z: 0.0
---
header: 
  seq: 56
  stamp: 
    secs: 1722859272
    nsecs: 521749734
  frame_id: ''
twist: 
  linear: 
    x: 0.5580900336299198
    y: 0.07891081848836265
    z: 0.0
  angular: 
    x: 0.0
    y: 0.0
    z: 0.0
---
header: 
  seq: 57
  stamp: 
    secs: 1722859272
    nsecs: 541092872
  frame_id: ''
twist: 
  linear: 
    x: 0.5580831723913786
    y: 0.07884839869842902
    z: 0.0
  angular: 
    x: 0.0
    y: 0.0
    z: 0.0
---
header: 
  seq: 58
  stamp: 
    secs: 1722859272
    nsecs: 564873456
  frame_id: ''
twist: 
  linear: 
    x: 0.5581015766912019
    y: 0.07886122293812114
    z: 0.0
  angular: 
    x: 0.0
    y: 0.0
    z: 0.0
---
header: 
  seq: 59
  stamp: 
    secs: 1722859272
    nsecs: 581700086
  frame_id: ''
twist: 
  linear: 
    x: 0.5581362843800488
    y: 0.07892484961541302
    z: 0.0
  angular: 
    x: 0.0
    y: 0.0
    z: 0.0
---
header: 
  seq: 60
  stamp: 
    secs: 1722859272
    nsecs: 602684259
  frame_id: ''
twist: 
  linear: 
    x: 0.5581161406746489
    y: 0.07881644697800483
    z: 0.0
  angular: 
    x: 0.0
    y: 0.0
    z: 0.0
---
header: 
  seq: 61
  stamp: 
    secs: 1722859272
    nsecs: 633483886
  frame_id: ''
twist: 
  linear: 
    x: 0.5582982640255004
    y: 0.07871696990687108
    z: 0.0
  angular: 
    x: 0.0
    y: 0.0
    z: 0.0
---
header: 
  seq: 62
  stamp: 
    secs: 1722859272
    nsecs: 646376371
  frame_id: ''
twist: 
  linear: 
    x: 0.5582379104647545
    y: 0.07843893379807458
    z: 0.0
  angular: 
    x: 0.0
    y: 0.0
    z: 0.0
---
header: 
  seq: 63
  stamp: 
    secs: 1722859272
    nsecs: 652474641
  frame_id: ''
twist: 
  linear: 
    x: 0.5583157933136732
    y: 0.07869129181027837
    z: 0.0
  angular: 
    x: 0.0
    y: 0.0
    z: 0.0
---
header: 
  seq: 64
  stamp: 
    secs: 1722859272
    nsecs: 665648221
  frame_id: ''
twist: 
  linear: 
    x: 0.5582766460511683
    y: 0.07847747824743533
    z: 0.0
  angular: 
    x: 0.0
    y: 0.0
    z: 0.0
---
header: 
  seq: 65
  stamp: 
    secs: 1722859272
    nsecs: 682813644
  frame_id: ''
twist: 
  linear: 
    x: 0.5583588247587552
    y: 0.07878097241976575
    z: 0.0
  angular: 
    x: 0.0
    y: 0.0
    z: 0.0
---
header: 
  seq: 66
  stamp: 
    secs: 1722859272
    nsecs: 705448627
  frame_id: ''
twist: 
  linear: 
    x: 0.5582861847475297
    y: 0.07841740432135563
    z: 0.0
  angular: 
    x: 0.0
    y: 0.0
    z: 0.0
---
header: 
  seq: 67
  stamp: 
    secs: 1722859272
    nsecs: 716184139
  frame_id: ''
twist: 
  linear: 
    x: 0.5582930564579458
    y: 0.07839705102906892
    z: 0.0
  angular: 
    x: 0.0
    y: 0.0
    z: 0.0
---
header: 
  seq: 68
  stamp: 
    secs: 1722859272
    nsecs: 750999450
  frame_id: ''
twist: 
  linear: 
    x: 0.5583526629747962
    y: 0.07828900862027169
    z: 0.0
  angular: 
    x: 0.0
    y: 0.0
    z: 0.0
---
header: 
  seq: 69
  stamp: 
    secs: 1722859272
    nsecs: 762864112
  frame_id: ''
twist: 
  linear: 
    x: 0.558362342530824
    y: 0.07828374808891701
    z: 0.0
  angular: 
    x: 0.0
    y: 0.0
    z: 0.0
---
header: 
  seq: 70
  stamp: 
    secs: 1722859272
    nsecs: 781369686
  frame_id: ''
twist: 
  linear: 
    x: 0.5583865805993926
    y: 0.07830993930953525
    z: 0.0
  angular: 
    x: 0.0
    y: 0.0
    z: 0.0
---
header: 
  seq: 71
  stamp: 
    secs: 1722859272
    nsecs: 802853107
  frame_id: ''
twist: 
  linear: 
    x: 0.558423844146211
    y: 0.07784730812737511
    z: 0.0
  angular: 
    x: 0.0
    y: 0.0
    z: 0.0
---
header: 
  seq: 72
  stamp: 
    secs: 1722859272
    nsecs: 830815553
  frame_id: ''
twist: 
  linear: 
    x: 0.5584738873358936
    y: 0.07803002667602259
    z: 0.0
  angular: 
    x: 0.0
    y: 0.0
    z: 0.0
---
header: 
  seq: 73
  stamp: 
    secs: 1722859272
    nsecs: 851140022
  frame_id: ''
twist: 
  linear: 
    x: 0.5584641207105806
    y: 0.07793114753461503
    z: 0.0
  angular: 
    x: 0.0
    y: 0.0
    z: 0.0
---
header: 
  seq: 74
  stamp: 
    secs: 1722859272
    nsecs: 879987478
  frame_id: ''
twist: 
  linear: 
    x: 0.5585524195294133
    y: 0.07793437406145759
    z: 0.0
  angular: 
    x: 0.0
    y: 0.0
    z: 0.0
---
header: 
  seq: 75
  stamp: 
    secs: 1722859272
    nsecs: 901108264
  frame_id: ''
twist: 
  linear: 
    x: 0.5585615118232752
    y: 0.07775524641336949
    z: 0.0
  angular: 
    x: 0.0
    y: 0.0
    z: 0.0
---
header: 
  seq: 76
  stamp: 
    secs: 1722859272
    nsecs: 920011997
  frame_id: ''
twist: 
  linear: 
    x: 0.5585811749233801
    y: 0.07782496503716003
    z: 0.0
  angular: 
    x: 0.0
    y: 0.0
    z: 0.0
---
header: 
  seq: 77
  stamp: 
    secs: 1722859272
    nsecs: 935070514
  frame_id: ''
twist: 
  linear: 
    x: 0.5585928215419952
    y: 0.0778456269886884
    z: 0.0
  angular: 
    x: 0.0
    y: 0.0
    z: 0.0
---
header: 
  seq: 78
  stamp: 
    secs: 1722859272
    nsecs: 962768793
  frame_id: ''
twist: 
  linear: 
    x: 0.5585627481224414
    y: 0.07759264411174968
    z: 0.0
  angular: 
    x: 0.0
    y: 0.0
    z: 0.0
---
header: 
  seq: 79
  stamp: 
    secs: 1722859272
    nsecs: 993865966
  frame_id: ''
twist: 
  linear: 
    x: 0.558630066762491
    y: 0.07747872664680591
    z: 0.0
  angular: 
    x: 0.0
    y: 0.0
    z: 0.0
---
header: 
  seq: 80
  stamp: 
    secs: 1722859273
    nsecs:   4433870
  frame_id: ''
twist: 
  linear: 
    x: 0.558638625347639
    y: 0.07746944257054905
    z: 0.0
  angular: 
    x: 0.0
    y: 0.0
    z: 0.0
---
header: 
  seq: 81
  stamp: 
    secs: 1722859273
    nsecs:  22743463
  frame_id: ''
twist: 
  linear: 
    x: 0.5586534287307569
    y: 0.07750800700552674
    z: 0.0
  angular: 
    x: 0.0
    y: 0.0
    z: 0.0
---
header: 
  seq: 82
  stamp: 
    secs: 1722859273
    nsecs:  37019968
  frame_id: ''
twist: 
  linear: 
    x: 0.5586313292905921
    y: 0.07731586834106596
    z: 0.0
  angular: 
    x: 0.0
    y: 0.0
    z: 0.0
---
header: 
  seq: 83
  stamp: 
    secs: 1722859273
    nsecs:  59039592
  frame_id: ''
twist: 
  linear: 
    x: 0.5586667519730615
    y: 0.07750885153751565
    z: 0.0
  angular: 
    x: 0.0
    y: 0.0
    z: 0.0
---
header: 
  seq: 84
  stamp: 
    secs: 1722859273
    nsecs:  85702180
  frame_id: ''
twist: 
  linear: 
    x: 0.5587182815698905
    y: 0.07724115715156468
    z: 0.0
  angular: 
    x: 0.0
    y: 0.0
    z: 0.0
---
header: 
  seq: 85
  stamp: 
    secs: 1722859273
    nsecs: 120098590
  frame_id: ''
twist: 
  linear: 
    x: 0.5587087574836344
    y: 0.07698136730400766
    z: 0.0
  angular: 
    x: 0.0
    y: 0.0
    z: 0.0
---
header: 
  seq: 86
  stamp: 
    secs: 1722859273
    nsecs: 135374784
  frame_id: ''
twist: 
  linear: 
    x: 0.5587257813579922
    y: 0.07703787479021573
    z: 0.0
  angular: 
    x: 0.0
    y: 0.0
    z: 0.0
---
header: 
  seq: 87
  stamp: 
    secs: 1722859273
    nsecs: 149115562
  frame_id: ''
twist: 
  linear: 
    x: 0.558744549494847
    y: 0.07703113534437436
    z: 0.0
  angular: 
    x: 0.0
    y: 0.0
    z: 0.0
---
header: 
  seq: 88
  stamp: 
    secs: 1722859273
    nsecs: 168976068
  frame_id: ''
twist: 
  linear: 
    x: 0.5587279956737733
    y: 0.076863824379973
    z: 0.0
  angular: 
    x: 0.0
    y: 0.0
    z: 0.0
---
header: 
  seq: 89
  stamp: 
    secs: 1722859273
    nsecs: 178610801
  frame_id: ''
twist: 
  linear: 
    x: 0.5587417845656505
    y: 0.07688060382815443
    z: 0.0
  angular: 
    x: 0.0
    y: 0.0
    z: 0.0
---
header: 
  seq: 90
  stamp: 
    secs: 1722859273
    nsecs: 186432600
  frame_id: ''
twist: 
  linear: 
    x: 0.5587559601189112
    y: 0.07696417851430414
    z: 0.0
  angular: 
    x: 0.0
    y: 0.0
    z: 0.0
---
header: 
  seq: 91
  stamp: 
    secs: 1722859273
    nsecs: 200333118
  frame_id: ''
twist: 
  linear: 
    x: 0.5587685048405099
    y: 0.07700674079963232
    z: 0.0
  angular: 
    x: 0.0
    y: 0.0
    z: 0.0
---
header: 
  seq: 92
  stamp: 
    secs: 1722859273
    nsecs: 220346212
  frame_id: ''
twist: 
  linear: 
    x: 0.5587545221506411
    y: 0.07678623088934056
    z: 0.0
  angular: 
    x: 0.0
    y: 0.0
    z: 0.0
---
header: 
  seq: 93
  stamp: 
    secs: 1722859273
    nsecs: 236933708
  frame_id: ''
twist: 
  linear: 
    x: 0.5587710483223141
    y: 0.07686072892475188
    z: 0.0
  angular: 
    x: 0.0
    y: 0.0
    z: 0.0
---
header: 
  seq: 94
  stamp: 
    secs: 1722859273
    nsecs: 255736827
  frame_id: ''
twist: 
  linear: 
    x: 0.5587751355886178
    y: 0.0768444179518957
    z: 0.0
  angular: 
    x: 0.0
    y: 0.0
    z: 0.0
---
header: 
  seq: 95
  stamp: 
    secs: 1722859273
    nsecs: 277956724
  frame_id: ''
twist: 
  linear: 
    x: 0.558772722681401
    y: 0.07675984691401838
    z: 0.0
  angular: 
    x: 0.0
    y: 0.0
    z: 0.0
---
header: 
  seq: 96
  stamp: 
    secs: 1722859273
    nsecs: 291928052
  frame_id: ''
twist: 
  linear: 
    x: 0.5587899587598514
    y: 0.07687563026738799
    z: 0.0
  angular: 
    x: 0.0
    y: 0.0
    z: 0.0
---
header: 
  seq: 97
  stamp: 
    secs: 1722859273
    nsecs: 318960666
  frame_id: ''
twist: 
  linear: 
    x: 0.5587637604855717
    y: 0.0766282062678034
    z: 0.0
  angular: 
    x: 0.0
    y: 0.0
    z: 0.0
---
header: 
  seq: 98
  stamp: 
    secs: 1722859273
    nsecs: 340661764
  frame_id: ''
twist: 
  linear: 
    x: 0.5587596633785441
    y: 0.07656906315236449
    z: 0.0
  angular: 
    x: 0.0
    y: 0.0
    z: 0.0
---
header: 
  seq: 99
  stamp: 
    secs: 1722859273
    nsecs: 353612661
  frame_id: ''
twist: 
  linear: 
    x: 0.5587877734546169
    y: 0.07679405303445733
    z: 0.0
  angular: 
    x: 0.0
    y: 0.0
    z: 0.0
---
header: 
  seq: 100
  stamp: 
    secs: 1722859273
    nsecs: 371582746
  frame_id: ''
twist: 
  linear: 
    x: 0.5587812883154937
    y: 0.07671106048181384
    z: 0.0
  angular: 
    x: 0.0
    y: 0.0
    z: 0.0
---
header: 
  seq: 101
  stamp: 
    secs: 1722859273
    nsecs: 380827188
  frame_id: ''
twist: 
  linear: 
    x: 0.558797491486703
    y: 0.07685316593855634
    z: 0.0
  angular: 
    x: 0.0
    y: 0.0
    z: 0.0
---
header: 
  seq: 102
  stamp: 
    secs: 1722859273
    nsecs: 394635438
  frame_id: ''
twist: 
  linear: 
    x: 0.5587978782184938
    y: 0.07679367672007396
    z: 0.0
  angular: 
    x: 0.0
    y: 0.0
    z: 0.0
---
header: 
  seq: 103
  stamp: 
    secs: 1722859273
    nsecs: 450423955
  frame_id: ''
twist: 
  linear: 
    x: 0.5588515894100965
    y: 0.07588690467645472
    z: 0.0
  angular: 
    x: 0.0
    y: 0.0
    z: 0.0
---
header: 
  seq: 104
  stamp: 
    secs: 1722859273
    nsecs: 460059165
  frame_id: ''
twist: 
  linear: 
    x: 0.5588554319582999
    y: 0.07586585352809108
    z: 0.0
  angular: 
    x: 0.0
    y: 0.0
    z: 0.0
---
header: 
  seq: 105
  stamp: 
    secs: 1722859273
    nsecs: 465624332
  frame_id: ''
twist: 
  linear: 
    x: 0.5588661387036187
    y: 0.07594958497758472
    z: 0.0
  angular: 
    x: 0.0
    y: 0.0
    z: 0.0
---
header: 
  seq: 106
  stamp: 
    secs: 1722859273
    nsecs: 477122306
  frame_id: ''
twist: 
  linear: 
    x: 0.5588716434650887
    y: 0.07598473974353741
    z: 0.0
  angular: 
    x: 0.0
    y: 0.0
    z: 0.0
---
header: 
  seq: 107
  stamp: 
    secs: 1722859273
    nsecs: 494468450
  frame_id: ''
twist: 
  linear: 
    x: 0.5588574334403598
    y: 0.07570005729145537
    z: 0.0
  angular: 
    x: 0.0
    y: 0.0
    z: 0.0
---
header: 
  seq: 108
  stamp: 
    secs: 1722859273
    nsecs: 504600763
  frame_id: ''
twist: 
  linear: 
    x: 0.5588638667778144
    y: 0.07561442904819272
    z: 0.0
  angular: 
    x: 0.0
    y: 0.0
    z: 0.0
---
header: 
  seq: 109
  stamp: 
    secs: 1722859273
    nsecs: 515918254
  frame_id: ''
twist: 
  linear: 
    x: 0.5588828835233578
    y: 0.0757548182263596
    z: 0.0
  angular: 
    x: 0.0
    y: 0.0
    z: 0.0
---
header: 
  seq: 110
  stamp: 
    secs: 1722859273
    nsecs: 535114765
  frame_id: ''
twist: 
  linear: 
    x: 0.5588693923935893
    y: 0.07548966216083791
    z: 0.0
  angular: 
    x: 0.0
    y: 0.0
    z: 0.0
---
header: 
  seq: 111
  stamp: 
    secs: 1722859273
    nsecs: 554118633
  frame_id: ''
twist: 
  linear: 
    x: 0.5588800684353117
    y: 0.07562142186258855
    z: 0.0
  angular: 
    x: 0.0
    y: 0.0
    z: 0.0
---
header: 
  seq: 112
  stamp: 
    secs: 1722859273
    nsecs: 577013492
  frame_id: ''
twist: 
  linear: 
    x: 0.5588951547255434
    y: 0.0755729543586136
    z: 0.0
  angular: 
    x: 0.0
    y: 0.0
    z: 0.0
---
header: 
  seq: 113
  stamp: 
    secs: 1722859273
    nsecs: 587795972
  frame_id: ''
twist: 
  linear: 
    x: 0.5589002356116873
    y: 0.07561322290050237
    z: 0.0
  angular: 
    x: 0.0
    y: 0.0
    z: 0.0
---
header: 
  seq: 114
  stamp: 
    secs: 1722859273
    nsecs: 607578992
  frame_id: ''
twist: 
  linear: 
    x: 0.5589012098800463
    y: 0.0755459729040801
    z: 0.0
  angular: 
    x: 0.0
    y: 0.0
    z: 0.0
---
header: 
  seq: 115
  stamp: 
    secs: 1722859273
    nsecs: 622529506
  frame_id: ''
twist: 
  linear: 
    x: 0.5589016619110568
    y: 0.07553609255758922
    z: 0.0
  angular: 
    x: 0.0
    y: 0.0
    z: 0.0
---
header: 
  seq: 116
  stamp: 
    secs: 1722859273
    nsecs: 640411138
  frame_id: ''
twist: 
  linear: 
    x: 0.5589015834355205
    y: 0.07545096954261685
    z: 0.0
  angular: 
    x: 0.0
    y: 0.0
    z: 0.0
---
header: 
  seq: 117
  stamp: 
    secs: 1722859273
    nsecs: 669530391
  frame_id: ''
twist: 
  linear: 
    x: 0.5589017958857035
    y: 0.07538277208103455
    z: 0.0
  angular: 
    x: 0.0
    y: 0.0
    z: 0.0
---
header: 
  seq: 118
  stamp: 
    secs: 1722859273
    nsecs: 687551498
  frame_id: ''
twist: 
  linear: 
    x: 0.5589058513870491
    y: 0.07527800705645651
    z: 0.0
  angular: 
    x: 0.0
    y: 0.0
    z: 0.0
---
header: 
  seq: 119
  stamp: 
    secs: 1722859273
    nsecs: 711936950
  frame_id: ''
twist: 
  linear: 
    x: 0.558916991022055
    y: 0.07487557794196491
    z: 0.0
  angular: 
    x: 0.0
    y: 0.0
    z: 0.0
---
header: 
  seq: 120
  stamp: 
    secs: 1722859273
    nsecs: 726864576
  frame_id: ''
twist: 
  linear: 
    x: 0.5589233505604184
    y: 0.07490337627456393
    z: 0.0
  angular: 
    x: 0.0
    y: 0.0
    z: 0.0
---
header: 
  seq: 121
  stamp: 
    secs: 1722859273
    nsecs: 745985269
  frame_id: ''
twist: 
  linear: 
    x: 0.5589272961403865
    y: 0.0748454849232569
    z: 0.0
  angular: 
    x: 0.0
    y: 0.0
    z: 0.0
---
header: 
  seq: 122
  stamp: 
    secs: 1722859273
    nsecs: 759809017
  frame_id: ''
twist: 
  linear: 
    x: 0.5589340109165778
    y: 0.07489101741672133
    z: 0.0
  angular: 
    x: 0.0
    y: 0.0
    z: 0.0
---
header: 
  seq: 123
  stamp: 
    secs: 1722859273
    nsecs: 770997524
  frame_id: ''
twist: 
  linear: 
    x: 0.5589332864589571
    y: 0.07479330178236783
    z: 0.0
  angular: 
    x: 0.0
    y: 0.0
    z: 0.0
---
header: 
  seq: 124
  stamp: 
    secs: 1722859273
    nsecs: 789191961
  frame_id: ''
twist: 
  linear: 
    x: 0.5589416704591876
    y: 0.07468444538097639
    z: 0.0
  angular: 
    x: 0.0
    y: 0.0
    z: 0.0
---
header: 
  seq: 125
  stamp: 
    secs: 1722859273
    nsecs: 803902626
  frame_id: ''
twist: 
  linear: 
    x: 0.5589458409266989
    y: 0.0747186919074394
    z: 0.0
  angular: 
    x: 0.0
    y: 0.0
    z: 0.0
---
header: 
  seq: 126
  stamp: 
    secs: 1722859273
    nsecs: 830539464
  frame_id: ''
twist: 
  linear: 
    x: 0.5589454831815515
    y: 0.07453955495574249
    z: 0.0
  angular: 
    x: 0.0
    y: 0.0
    z: 0.0
---
header: 
  seq: 127
  stamp: 
    secs: 1722859273
    nsecs: 840848922
  frame_id: ''
twist: 
  linear: 
    x: 0.5589382568240716
    y: 0.07430142631508041
    z: 0.0
  angular: 
    x: 0.0
    y: 0.0
    z: 0.0
---
header: 
  seq: 128
  stamp: 
    secs: 1722859273
    nsecs: 856966972
  frame_id: ''
twist: 
  linear: 
    x: 0.5589502429105172
    y: 0.07434280017483375
    z: 0.0
  angular: 
    x: 0.0
    y: 0.0
    z: 0.0
---
header: 
  seq: 129
  stamp: 
    secs: 1722859273
    nsecs: 869458675
  frame_id: ''
twist: 
  linear: 
    x: 0.5589573132466193
    y: 0.0744482064172229
    z: 0.0
  angular: 
    x: 0.0
    y: 0.0
    z: 0.0
---
header: 
  seq: 130
  stamp: 
    secs: 1722859273
    nsecs: 886077880
  frame_id: ''
twist: 
  linear: 
    x: 0.5589499504938835
    y: 0.07422879288664724
    z: 0.0
  angular: 
    x: 0.0
    y: 0.0
    z: 0.0
---
header: 
  seq: 131
  stamp: 
    secs: 1722859273
    nsecs: 898551702
  frame_id: ''
twist: 
  linear: 
    x: 0.558950069162489
    y: 0.074248516801706
    z: 0.0
  angular: 
    x: 0.0
    y: 0.0
    z: 0.0
---
header: 
  seq: 132
  stamp: 
    secs: 1722859273
    nsecs: 917367219
  frame_id: ''
twist: 
  linear: 
    x: 0.5589530110631555
    y: 0.07424828476358782
    z: 0.0
  angular: 
    x: 0.0
    y: 0.0
    z: 0.0
---
header: 
  seq: 133
  stamp: 
    secs: 1722859273
    nsecs: 927494764
  frame_id: ''
twist: 
  linear: 
    x: 0.5589492232640959
    y: 0.07415710745987111
    z: 0.0
  angular: 
    x: 0.0
    y: 0.0
    z: 0.0
---
header: 
  seq: 134
  stamp: 
    secs: 1722859273
    nsecs: 937580108
  frame_id: ''
twist: 
  linear: 
    x: 0.558952493002109
    y: 0.07415208683399335
    z: 0.0
  angular: 
    x: 0.0
    y: 0.0
    z: 0.0
---
header: 
  seq: 135
  stamp: 
    secs: 1722859273
    nsecs: 951870679
  frame_id: ''
twist: 
  linear: 
    x: 0.5589586798875299
    y: 0.07429803978397369
    z: 0.0
  angular: 
    x: 0.0
    y: 0.0
    z: 0.0
---
header: 
  seq: 136
  stamp: 
    secs: 1722859273
    nsecs: 966806411
  frame_id: ''
twist: 
  linear: 
    x: 0.5589531500495492
    y: 0.07401666083276306
    z: 0.0
  angular: 
    x: 0.0
    y: 0.0
    z: 0.0
---
header: 
  seq: 137
  stamp: 
    secs: 1722859273
    nsecs: 998567104
  frame_id: ''
twist: 
  linear: 
    x: 0.5589683329025446
    y: 0.07387079978172587
    z: 0.0
  angular: 
    x: 0.0
    y: 0.0
    z: 0.0
---
header: 
  seq: 138
  stamp: 
    secs: 1722859274
    nsecs:   4061460
  frame_id: ''
twist: 
  linear: 
    x: 0.5589733334513252
    y: 0.07396946256905965
    z: 0.0
  angular: 
    x: 0.0
    y: 0.0
    z: 0.0
---
header: 
  seq: 139
  stamp: 
    secs: 1722859274
    nsecs:  21132946
  frame_id: ''
twist: 
  linear: 
    x: 0.5589729934344121
    y: 0.07389947176139522
    z: 0.0
  angular: 
    x: 0.0
    y: 0.0
    z: 0.0
---
header: 
  seq: 140
  stamp: 
    secs: 1722859274
    nsecs:  34867525
  frame_id: ''
twist: 
  linear: 
    x: 0.5589723138985634
    y: 0.0738686021721458
    z: 0.0
  angular: 
    x: 0.0
    y: 0.0
    z: 0.0
---
header: 
  seq: 141
  stamp: 
    secs: 1722859274
    nsecs:  58088779
  frame_id: ''
twist: 
  linear: 
    x: 0.5589809587796143
    y: 0.07365888234766352
    z: 0.0
  angular: 
    x: 0.0
    y: 0.0
    z: 0.0
---
header: 
  seq: 142
  stamp: 
    secs: 1722859274
    nsecs:  73171615
  frame_id: ''
twist: 
  linear: 
    x: 0.5589794691510384
    y: 0.0735123334949413
    z: 0.0
  angular: 
    x: 0.0
    y: 0.0
    z: 0.0
---
header: 
  seq: 143
  stamp: 
    secs: 1722859274
    nsecs:  86234331
  frame_id: ''
twist: 
  linear: 
    x: 0.558992847184671
    y: 0.07367390795286523
    z: 0.0
  angular: 
    x: 0.0
    y: 0.0
    z: 0.0
---
header: 
  seq: 144
  stamp: 
    secs: 1722859274
    nsecs: 104805946
  frame_id: ''
twist: 
  linear: 
    x: 0.5589908435387824
    y: 0.07353446876755829
    z: 0.0
  angular: 
    x: 0.0
    y: 0.0
    z: 0.0
---
header: 
  seq: 145
  stamp: 
    secs: 1722859274
    nsecs: 112807989
  frame_id: ''
twist: 
  linear: 
    x: 0.5589891949203916
    y: 0.07354795806019979
    z: 0.0
  angular: 
    x: 0.0
    y: 0.0
    z: 0.0
---
header: 
  seq: 146
  stamp: 
    secs: 1722859274
    nsecs: 124950885
  frame_id: ''
twist: 
  linear: 
    x: 0.5589887682152737
    y: 0.07356314364090402
    z: 0.0
  angular: 
    x: 0.0
    y: 0.0
    z: 0.0
---
header: 
  seq: 147
  stamp: 
    secs: 1722859274
    nsecs: 141002655
  frame_id: ''
twist: 
  linear: 
    x: 0.5589869457774317
    y: 0.07359827157470102
    z: 0.0
  angular: 
    x: 0.0
    y: 0.0
    z: 0.0
---
header: 
  seq: 148
  stamp: 
    secs: 1722859274
    nsecs: 153453111
  frame_id: ''
twist: 
  linear: 
    x: 0.5589865244103872
    y: 0.0735594851111413
    z: 0.0
  angular: 
    x: 0.0
    y: 0.0
    z: 0.0
---
header: 
  seq: 149
  stamp: 
    secs: 1722859274
    nsecs: 163522720
  frame_id: ''
twist: 
  linear: 
    x: 0.55898141361419
    y: 0.07335777831687487
    z: 0.0
  angular: 
    x: 0.0
    y: 0.0
    z: 0.0
---
header: 
  seq: 150
  stamp: 
    secs: 1722859274
    nsecs: 180688858
  frame_id: ''
twist: 
  linear: 
    x: 0.5589818500507551
    y: 0.07337714764793685
    z: 0.0
  angular: 
    x: 0.0
    y: 0.0
    z: 0.0
---
header: 
  seq: 151
  stamp: 
    secs: 1722859274
    nsecs: 205593347
  frame_id: ''
twist: 
  linear: 
    x: 0.5589997236894446
    y: 0.07315863139104427
    z: 0.0
  angular: 
    x: 0.0
    y: 0.0
    z: 0.0
---
header: 
  seq: 152
  stamp: 
    secs: 1722859274
    nsecs: 219749689
  frame_id: ''
twist: 
  linear: 
    x: 0.5589943975022234
    y: 0.07299056924997147
    z: 0.0
  angular: 
    x: 0.0
    y: 0.0
    z: 0.0
---
header: 
  seq: 153
  stamp: 
    secs: 1722859274
    nsecs: 237522602
  frame_id: ''
twist: 
  linear: 
    x: 0.5589957420749563
    y: 0.07295057097677778
    z: 0.0
  angular: 
    x: 0.0
    y: 0.0
    z: 0.0
---
header: 
  seq: 154
  stamp: 
    secs: 1722859274
    nsecs: 253485679
  frame_id: ''
twist: 
  linear: 
    x: 0.5590013258490824
    y: 0.07318171658794612
    z: 0.0
  angular: 
    x: 0.0
    y: 0.0
    z: 0.0
---
header: 
  seq: 155
  stamp: 
    secs: 1722859274
    nsecs: 270037412
  frame_id: ''
twist: 
  linear: 
    x: 0.558995830479304
    y: 0.07294698650231024
    z: 0.0
  angular: 
    x: 0.0
    y: 0.0
    z: 0.0
---
header: 
  seq: 156
  stamp: 
    secs: 1722859274
    nsecs: 289426088
  frame_id: ''
twist: 
  linear: 
    x: 0.5590031475555153
    y: 0.07274162030961082
    z: 0.0
  angular: 
    x: 0.0
    y: 0.0
    z: 0.0
---
header: 
  seq: 157
  stamp: 
    secs: 1722859274
    nsecs: 304858684
  frame_id: ''
twist: 
  linear: 
    x: 0.5590071731207565
    y: 0.0728281155118381
    z: 0.0
  angular: 
    x: 0.0
    y: 0.0
    z: 0.0
---
header: 
  seq: 158
  stamp: 
    secs: 1722859274
    nsecs: 315639972
  frame_id: ''
twist: 
  linear: 
    x: 0.5590109472614213
    y: 0.0728707699036522
    z: 0.0
  angular: 
    x: 0.0
    y: 0.0
    z: 0.0
---
header: 
  seq: 159
  stamp: 
    secs: 1722859274
    nsecs: 326190233
  frame_id: ''
twist: 
  linear: 
    x: 0.5590070873497548
    y: 0.07270680320503975
    z: 0.0
  angular: 
    x: 0.0
    y: 0.0
    z: 0.0
---
header: 
  seq: 160
  stamp: 
    secs: 1722859274
    nsecs: 338241815
  frame_id: ''
twist: 
  linear: 
    x: 0.5590143107207808
    y: 0.07297762863816643
    z: 0.0
  angular: 
    x: 0.0
    y: 0.0
    z: 0.0
---
header: 
  seq: 161
  stamp: 
    secs: 1722859274
    nsecs: 350297451
  frame_id: ''
twist: 
  linear: 
    x: 0.5590078867410079
    y: 0.07260967572548564
    z: 0.0
  angular: 
    x: 0.0
    y: 0.0
    z: 0.0
---
header: 
  seq: 162
  stamp: 
    secs: 1722859274
    nsecs: 365038394
  frame_id: ''
twist: 
  linear: 
    x: 0.5590079361633934
    y: 0.07263072266675123
    z: 0.0
  angular: 
    x: 0.0
    y: 0.0
    z: 0.0
---
header: 
  seq: 163
  stamp: 
    secs: 1722859274
    nsecs: 372241497
  frame_id: ''
twist: 
  linear: 
    x: 0.5590099282278428
    y: 0.072744603416839
    z: 0.0
  angular: 
    x: 0.0
    y: 0.0
    z: 0.0
---
header: 
  seq: 164
  stamp: 
    secs: 1722859274
    nsecs: 381629228
  frame_id: ''
twist: 
  linear: 
    x: 0.559006326811391
    y: 0.07252856901312199
    z: 0.0
  angular: 
    x: 0.0
    y: 0.0
    z: 0.0
---
header: 
  seq: 165
  stamp: 
    secs: 1722859274
    nsecs: 422580003
  frame_id: ''
twist: 
  linear: 
    x: 0.5590143732425071
    y: 0.0723026730953527
    z: 0.0
  angular: 
    x: 0.0
    y: 0.0
    z: 0.0
---
header: 
  seq: 166
  stamp: 
    secs: 1722859274
    nsecs: 438116073
  frame_id: ''
twist: 
  linear: 
    x: 0.559021544230657
    y: 0.07230678748648017
    z: 0.0
  angular: 
    x: 0.0
    y: 0.0
    z: 0.0
---
header: 
  seq: 167
  stamp: 
    secs: 1722859274
    nsecs: 452057361
  frame_id: ''
twist: 
  linear: 
    x: 0.5590222390957108
    y: 0.07226718972774021
    z: 0.0
  angular: 
    x: 0.0
    y: 0.0
    z: 0.0
---
header: 
  seq: 168
  stamp: 
    secs: 1722859274
    nsecs: 467975616
  frame_id: ''
twist: 
  linear: 
    x: 0.5590266053207609
    y: 0.0723183465479685
    z: 0.0
  angular: 
    x: 0.0
    y: 0.0
    z: 0.0
---
header: 
  seq: 169
  stamp: 
    secs: 1722859274
    nsecs: 478613138
  frame_id: ''
twist: 
  linear: 
    x: 0.5590284793978382
    y: 0.07238057659662464
    z: 0.0
  angular: 
    x: 0.0
    y: 0.0
    z: 0.0
---
header: 
  seq: 170
  stamp: 
    secs: 1722859274
    nsecs: 495706558
  frame_id: ''
twist: 
  linear: 
    x: 0.5590316728248231
    y: 0.07245333630225755
    z: 0.0
  angular: 
    x: 0.0
    y: 0.0
    z: 0.0
---
header: 
  seq: 171
  stamp: 
    secs: 1722859274
    nsecs: 506182193
  frame_id: ''
twist: 
  linear: 
    x: 0.5590305433746945
    y: 0.07243217463757937
    z: 0.0
  angular: 
    x: 0.0
    y: 0.0
    z: 0.0
---
header: 
  seq: 172
  stamp: 
    secs: 1722859274
    nsecs: 529595613
  frame_id: ''
twist: 
  linear: 
    x: 0.559032722168364
    y: 0.07223190764613954
    z: 0.0
  angular: 
    x: 0.0
    y: 0.0
    z: 0.0
---
header: 
  seq: 173
  stamp: 
    secs: 1722859274
    nsecs: 553764581
  frame_id: ''
twist: 
  linear: 
    x: 0.5590358484168911
    y: 0.07194998474724824
    z: 0.0
  angular: 
    x: 0.0
    y: 0.0
    z: 0.0
---
header: 
  seq: 174
  stamp: 
    secs: 1722859274
    nsecs: 569530487
  frame_id: ''
twist: 
  linear: 
    x: 0.559042690314811
    y: 0.07207571712546001
    z: 0.0
  angular: 
    x: 0.0
    y: 0.0
    z: 0.0
---
header: 
  seq: 175
  stamp: 
    secs: 1722859274
    nsecs: 577842473
  frame_id: ''
twist: 
  linear: 
    x: 0.5590389211035944
    y: 0.07193546476404035
    z: 0.0
  angular: 
    x: 0.0
    y: 0.0
    z: 0.0
---
header: 
  seq: 176
  stamp: 
    secs: 1722859274
    nsecs: 600090742
  frame_id: ''
twist: 
  linear: 
    x: 0.5590461209102883
    y: 0.07197894743554749
    z: 0.0
  angular: 
    x: 0.0
    y: 0.0
    z: 0.0
---
header: 
  seq: 177
  stamp: 
    secs: 1722859274
    nsecs: 607053518
  frame_id: ''
twist: 
  linear: 
    x: 0.5590419509085159
    y: 0.07182083432885442
    z: 0.0
  angular: 
    x: 0.0
    y: 0.0
    z: 0.0
---
header: 
  seq: 178
  stamp: 
    secs: 1722859274
    nsecs: 653674840
  frame_id: ''
twist: 
  linear: 
    x: 0.5590520779562418
    y: 0.07141577227529701
    z: 0.0
  angular: 
    x: 0.0
    y: 0.0
    z: 0.0
---
header: 
  seq: 179
  stamp: 
    secs: 1722859274
    nsecs: 671461820
  frame_id: ''
twist: 
  linear: 
    x: 0.5590512831843264
    y: 0.07131832015865643
    z: 0.0
  angular: 
    x: 0.0
    y: 0.0
    z: 0.0
---
header: 
  seq: 180
  stamp: 
    secs: 1722859274
    nsecs: 684501171
  frame_id: ''
twist: 
  linear: 
    x: 0.5590636049774813
    y: 0.07158441894547236
    z: 0.0
  angular: 
    x: 0.0
    y: 0.0
    z: 0.0
---
header: 
  seq: 181
  stamp: 
    secs: 1722859274
    nsecs: 700681924
  frame_id: ''
twist: 
  linear: 
    x: 0.5590633409422124
    y: 0.07148710796554311
    z: 0.0
  angular: 
    x: 0.0
    y: 0.0
    z: 0.0
---
header: 
  seq: 182
  stamp: 
    secs: 1722859274
    nsecs: 719613552
  frame_id: ''
twist: 
  linear: 
    x: 0.5590608757892807
    y: 0.07141986994398652
    z: 0.0
  angular: 
    x: 0.0
    y: 0.0
    z: 0.0
---
header: 
  seq: 183
  stamp: 
    secs: 1722859274
    nsecs: 731511592
  frame_id: ''
twist: 
  linear: 
    x: 0.5590604630953128
    y: 0.07131852928942958
    z: 0.0
  angular: 
    x: 0.0
    y: 0.0
    z: 0.0
---
header: 
  seq: 184
  stamp: 
    secs: 1722859274
    nsecs: 745866298
  frame_id: ''
twist: 
  linear: 
    x: 0.5590650930301487
    y: 0.07136636222645476
    z: 0.0
  angular: 
    x: 0.0
    y: 0.0
    z: 0.0
---
header: 
  seq: 185
  stamp: 
    secs: 1722859274
    nsecs: 759813070
  frame_id: ''
twist: 
  linear: 
    x: 0.5590649013690925
    y: 0.07118046383083317
    z: 0.0
  angular: 
    x: 0.0
    y: 0.0
    z: 0.0
---
header: 
  seq: 186
  stamp: 
    secs: 1722859274
    nsecs: 808556318
  frame_id: ''
twist: 
  linear: 
    x: 0.5590692454600374
    y: 0.07091552118222567
    z: 0.0
  angular: 
    x: 0.0
    y: 0.0
    z: 0.0
---
header: 
  seq: 187
  stamp: 
    secs: 1722859274
    nsecs: 844036817
  frame_id: ''
twist: 
  linear: 
    x: 0.5590814340261652
    y: 0.07085150104647941
    z: 0.0
  angular: 
    x: 0.0
    y: 0.0
    z: 0.0
---
header: 
  seq: 188
  stamp: 
    secs: 1722859274
    nsecs: 870144844
  frame_id: ''
twist: 
  linear: 
    x: 0.5590781810963987
    y: 0.0707546347060178
    z: 0.0
  angular: 
    x: 0.0
    y: 0.0
    z: 0.0
---
header: 
  seq: 189
  stamp: 
    secs: 1722859274
    nsecs: 897742509
  frame_id: ''
twist: 
  linear: 
    x: 0.5590984874192655
    y: 0.07091414822683928
    z: 0.0
  angular: 
    x: 0.0
    y: 0.0
    z: 0.0
---
header: 
  seq: 190
  stamp: 
    secs: 1722859274
    nsecs: 915343761
  frame_id: ''
twist: 
  linear: 
    x: 0.5590847961054761
    y: 0.07062178474506793
    z: 0.0
  angular: 
    x: 0.0
    y: 0.0
    z: 0.0
---
header: 
  seq: 191
  stamp: 
    secs: 1722859274
    nsecs: 930205345
  frame_id: ''
twist: 
  linear: 
    x: 0.5590864308051369
    y: 0.07062180284478929
    z: 0.0
  angular: 
    x: 0.0
    y: 0.0
    z: 0.0
---
header: 
  seq: 192
  stamp: 
    secs: 1722859274
    nsecs: 940669536
  frame_id: ''
twist: 
  linear: 
    x: 0.5590904032205555
    y: 0.0706382722532626
    z: 0.0
  angular: 
    x: 0.0
    y: 0.0
    z: 0.0
---
header: 
  seq: 193
  stamp: 
    secs: 1722859274
    nsecs: 961742639
  frame_id: ''
twist: 
  linear: 
    x: 0.5590977248236971
    y: 0.07072841829515805
    z: 0.0
  angular: 
    x: 0.0
    y: 0.0
    z: 0.0
---
header: 
  seq: 194
  stamp: 
    secs: 1722859274
    nsecs: 972157001
  frame_id: ''
twist: 
  linear: 
    x: 0.5590976352976951
    y: 0.07064918026389297
    z: 0.0
  angular: 
    x: 0.0
    y: 0.0
    z: 0.0
---
header: 
  seq: 195
  stamp: 
    secs: 1722859274
    nsecs: 978044986
  frame_id: ''
twist: 
  linear: 
    x: 0.5590901152733164
    y: 0.07043796721513501
    z: 0.0
  angular: 
    x: 0.0
    y: 0.0
    z: 0.0
---
header: 
  seq: 196
  stamp: 
    secs: 1722859274
    nsecs: 987333059
  frame_id: ''
twist: 
  linear: 
    x: 0.5591025430519535
    y: 0.07058336103534177
    z: 0.0
  angular: 
    x: 0.0
    y: 0.0
    z: 0.0
---
header: 
  seq: 197
  stamp: 
    secs: 1722859275
    nsecs:   2484560
  frame_id: ''
twist: 
  linear: 
    x: 0.5591000280389267
    y: 0.07049146884476568
    z: 0.0
  angular: 
    x: 0.0
    y: 0.0
    z: 0.0
---
header: 
  seq: 198
  stamp: 
    secs: 1722859275
    nsecs:  29540061
  frame_id: ''
twist: 
  linear: 
    x: 0.5591159801942683
    y: 0.06999270756528521
    z: 0.0
  angular: 
    x: 0.0
    y: 0.0
    z: 0.0
---
header: 
  seq: 199
  stamp: 
    secs: 1722859275
    nsecs:  51061868
  frame_id: ''
twist: 
  linear: 
    x: 0.559118531939841
    y: 0.0699775342613117
    z: 0.0
  angular: 
    x: 0.0
    y: 0.0
    z: 0.0
---
header: 
  seq: 200
  stamp: 
    secs: 1722859275
    nsecs:  70985794
  frame_id: ''
twist: 
  linear: 
    x: 0.5591190327341693
    y: 0.06978307320492466
    z: 0.0
  angular: 
    x: 0.0
    y: 0.0
    z: 0.0
---
header: 
  seq: 201
  stamp: 
    secs: 1722859275
    nsecs:  89926242
  frame_id: ''
twist: 
  linear: 
    x: 0.5591227245292297
    y: 0.06968181496707085
    z: 0.0
  angular: 
    x: 0.0
    y: 0.0
    z: 0.0
---
header: 
  seq: 202
  stamp: 
    secs: 1722859275
    nsecs: 106029033
  frame_id: ''
twist: 
  linear: 
    x: 0.5591329961585946
    y: 0.06966455037861774
    z: 0.0
  angular: 
    x: 0.0
    y: 0.0
    z: 0.0
---
header: 
  seq: 203
  stamp: 
    secs: 1722859275
    nsecs: 115181207
  frame_id: ''
twist: 
  linear: 
    x: 0.5591259151868673
    y: 0.06952355920994563
    z: 0.0
  angular: 
    x: 0.0
    y: 0.0
    z: 0.0
---
header: 
  seq: 204
  stamp: 
    secs: 1722859275
    nsecs: 129115343
  frame_id: ''
twist: 
  linear: 
    x: 0.559149761264305
    y: 0.06975090231480038
    z: 0.0
  angular: 
    x: 0.0
    y: 0.0
    z: 0.0
---
header: 
  seq: 205
  stamp: 
    secs: 1722859275
    nsecs: 148953676
  frame_id: ''
twist: 
  linear: 
    x: 0.5591422961246875
    y: 0.06962535498314336
    z: 0.0
  angular: 
    x: 0.0
    y: 0.0
    z: 0.0
---
header: 
  seq: 206
  stamp: 
    secs: 1722859275
    nsecs: 171531677
  frame_id: ''
twist: 
  linear: 
    x: 0.5591580156287161
    y: 0.06965350404191312
    z: 0.0
  angular: 
    x: 0.0
    y: 0.0
    z: 0.0
---
header: 
  seq: 207
  stamp: 
    secs: 1722859275
    nsecs: 185090303
  frame_id: ''
twist: 
  linear: 
    x: 0.559140773054103
    y: 0.06944134483071479
    z: 0.0
  angular: 
    x: 0.0
    y: 0.0
    z: 0.0
---
header: 
  seq: 208
  stamp: 
    secs: 1722859275
    nsecs: 200459480
  frame_id: ''
twist: 
  linear: 
    x: 0.5591369071882717
    y: 0.06935454699400721
    z: 0.0
  angular: 
    x: 0.0
    y: 0.0
    z: 0.0
---
header: 
  seq: 209
  stamp: 
    secs: 1722859275
    nsecs: 212792396
  frame_id: ''
twist: 
  linear: 
    x: 0.5591238327298911
    y: 0.06917142413510699
    z: 0.0
  angular: 
    x: 0.0
    y: 0.0
    z: 0.0
---
header: 
  seq: 210
  stamp: 
    secs: 1722859275
    nsecs: 219284772
  frame_id: ''
twist: 
  linear: 
    x: 0.5591547770806313
    y: 0.06950332570302233
    z: 0.0
  angular: 
    x: 0.0
    y: 0.0
    z: 0.0
---
header: 
  seq: 211
  stamp: 
    secs: 1722859275
    nsecs: 235106468
  frame_id: ''
twist: 
  linear: 
    x: 0.5591510742730313
    y: 0.06942453841050472
    z: 0.0
  angular: 
    x: 0.0
    y: 0.0
    z: 0.0
---
header: 
  seq: 212
  stamp: 
    secs: 1722859275
    nsecs: 248871564
  frame_id: ''
twist: 
  linear: 
    x: 0.5591595853309242
    y: 0.0694531437353788
    z: 0.0
  angular: 
    x: 0.0
    y: 0.0
    z: 0.0
---
header: 
  seq: 213
  stamp: 
    secs: 1722859275
    nsecs: 267018556
  frame_id: ''
twist: 
  linear: 
    x: 0.5591676327270404
    y: 0.06950587995302898
    z: 0.0
  angular: 
    x: 0.0
    y: 0.0
    z: 0.0
---
header: 
  seq: 214
  stamp: 
    secs: 1722859275
    nsecs: 277327299
  frame_id: ''
twist: 
  linear: 
    x: 0.5591540760770243
    y: 0.06931513505245676
    z: 0.0
  angular: 
    x: 0.0
    y: 0.0
    z: 0.0
---
header: 
  seq: 215
  stamp: 
    secs: 1722859275
    nsecs: 295840501
  frame_id: ''
twist: 
  linear: 
    x: 0.559164982845408
    y: 0.06937700803797987
    z: 0.0
  angular: 
    x: 0.0
    y: 0.0
    z: 0.0
---
header: 
  seq: 216
  stamp: 
    secs: 1722859275
    nsecs: 313854694
  frame_id: ''
twist: 
  linear: 
    x: 0.5591746456410749
    y: 0.06915613649594918
    z: 0.0
  angular: 
    x: 0.0
    y: 0.0
    z: 0.0
---
header: 
  seq: 217
  stamp: 
    secs: 1722859275
    nsecs: 337819814
  frame_id: ''
twist: 
  linear: 
    x: 0.5591442296931777
    y: 0.06882991716580296
    z: 0.0
  angular: 
    x: 0.0
    y: 0.0
    z: 0.0
---
header: 
  seq: 218
  stamp: 
    secs: 1722859275
    nsecs: 356065988
  frame_id: ''
twist: 
  linear: 
    x: 0.5591868712418773
    y: 0.06930343104937445
    z: 0.0
  angular: 
    x: 0.0
    y: 0.0
    z: 0.0
---
header: 
  seq: 219
  stamp: 
    secs: 1722859275
    nsecs: 379618644
  frame_id: ''
twist: 
  linear: 
    x: 0.5591754781233954
    y: 0.06844965296905078
    z: 0.0
  angular: 
    x: 0.0
    y: 0.0
    z: 0.0
---
header: 
  seq: 220
  stamp: 
    secs: 1722859275
    nsecs: 390781164
  frame_id: ''
twist: 
  linear: 
    x: 0.5591744979004694
    y: 0.06831839947794568
    z: 0.0
  angular: 
    x: 0.0
    y: 0.0
    z: 0.0
---
header: 
  seq: 221
  stamp: 
    secs: 1722859275
    nsecs: 408665895
  frame_id: ''
twist: 
  linear: 
    x: 0.5591836090874371
    y: 0.06840389732863228
    z: 0.0
  angular: 
    x: 0.0
    y: 0.0
    z: 0.0
---
header: 
  seq: 222
  stamp: 
    secs: 1722859275
    nsecs: 431433916
  frame_id: ''
twist: 
  linear: 
    x: 0.5591715098406178
    y: 0.06786685051082365
    z: 0.0
  angular: 
    x: 0.0
    y: 0.0
    z: 0.0
---
header: 
  seq: 223
  stamp: 
    secs: 1722859275
    nsecs: 442169189
  frame_id: ''
twist: 
  linear: 
    x: 0.5591796328795684
    y: 0.06791865179228629
    z: 0.0
  angular: 
    x: 0.0
    y: 0.0
    z: 0.0
---
header: 
  seq: 224
  stamp: 
    secs: 1722859275
    nsecs: 462601900
  frame_id: ''
twist: 
  linear: 
    x: 0.559186947029266
    y: 0.06799356934202219
    z: 0.0
  angular: 
    x: 0.0
    y: 0.0
    z: 0.0
---
header: 
  seq: 225
  stamp: 
    secs: 1722859275
    nsecs: 480758190
  frame_id: ''
twist: 
  linear: 
    x: 0.5591880363501156
    y: 0.06797611218642079
    z: 0.0
  angular: 
    x: 0.0
    y: 0.0
    z: 0.0
---
header: 
  seq: 226
  stamp: 
    secs: 1722859275
    nsecs: 500863790
  frame_id: ''
twist: 
  linear: 
    x: 0.5591816596878167
    y: 0.06792606876343482
    z: 0.0
  angular: 
    x: 0.0
    y: 0.0
    z: 0.0
---
header: 
  seq: 227
  stamp: 
    secs: 1722859275
    nsecs: 528797626
  frame_id: ''
twist: 
  linear: 
    x: 0.5591878947603807
    y: 0.06796651181347561
    z: 0.0
  angular: 
    x: 0.0
    y: 0.0
    z: 0.0
---
header: 
  seq: 228
  stamp: 
    secs: 1722859275
    nsecs: 539707899
  frame_id: ''
twist: 
  linear: 
    x: 0.5591871953391689
    y: 0.06798045950138157
    z: 0.0
  angular: 
    x: 0.0
    y: 0.0
    z: 0.0
---
header: 
  seq: 229
  stamp: 
    secs: 1722859275
    nsecs: 568205356
  frame_id: ''
twist: 
  linear: 
    x: 0.5592279467593578
    y: 0.06738265349039785
    z: 0.0
  angular: 
    x: 0.0
    y: 0.0
    z: 0.0
---
header: 
  seq: 230
  stamp: 
    secs: 1722859275
    nsecs: 589541435
  frame_id: ''
twist: 
  linear: 
    x: 0.5592145698137277
    y: 0.06723646440643115
    z: 0.0
  angular: 
    x: 0.0
    y: 0.0
    z: 0.0
---
header: 
  seq: 231
  stamp: 
    secs: 1722859275
    nsecs: 614459037
  frame_id: ''
twist: 
  linear: 
    x: 0.5592413574331272
    y: 0.06747944864863092
    z: 0.0
  angular: 
    x: 0.0
    y: 0.0
    z: 0.0
---
header: 
  seq: 232
  stamp: 
    secs: 1722859275
    nsecs: 628610372
  frame_id: ''
twist: 
  linear: 
    x: 0.5592275463230392
    y: 0.06735306453104492
    z: 0.0
  angular: 
    x: 0.0
    y: 0.0
    z: 0.0
---
header: 
  seq: 233
  stamp: 
    secs: 1722859275
    nsecs: 644607543
  frame_id: ''
twist: 
  linear: 
    x: 0.5592381806523375
    y: 0.06742450683085649
    z: 0.0
  angular: 
    x: 0.0
    y: 0.0
    z: 0.0
---
header: 
  seq: 234
  stamp: 
    secs: 1722859275
    nsecs: 665266513
  frame_id: ''
twist: 
  linear: 
    x: 0.559241952753237
    y: 0.06744532048799984
    z: 0.0
  angular: 
    x: 0.0
    y: 0.0
    z: 0.0
---
header: 
  seq: 235
  stamp: 
    secs: 1722859275
    nsecs: 728415727
  frame_id: ''
twist: 
  linear: 
    x: 0.559235259796131
    y: 0.06692444451323318
    z: 0.0
  angular: 
    x: 0.0
    y: 0.0
    z: 0.0
---
header: 
  seq: 236
  stamp: 
    secs: 1722859275
    nsecs: 737003803
  frame_id: ''
twist: 
  linear: 
    x: 0.5592604012603447
    y: 0.06712679475303476
    z: 0.0
  angular: 
    x: 0.0
    y: 0.0
    z: 0.0
---
header: 
  seq: 237
  stamp: 
    secs: 1722859275
    nsecs: 748773574
  frame_id: ''
twist: 
  linear: 
    x: 0.5592627029847597
    y: 0.06715763816461809
    z: 0.0
  angular: 
    x: 0.0
    y: 0.0
    z: 0.0
---
header: 
  seq: 238
  stamp: 
    secs: 1722859275
    nsecs: 762055873
  frame_id: ''
twist: 
  linear: 
    x: 0.5592627503697796
    y: 0.06713629983597696
    z: 0.0
  angular: 
    x: 0.0
    y: 0.0
    z: 0.0
---
header: 
  seq: 239
  stamp: 
    secs: 1722859275
    nsecs: 780043125
  frame_id: ''
twist: 
  linear: 
    x: 0.5592644882396544
    y: 0.06710109863959748
    z: 0.0
  angular: 
    x: 0.0
    y: 0.0
    z: 0.0
---
header: 
  seq: 240
  stamp: 
    secs: 1722859275
    nsecs: 805836439
  frame_id: ''
twist: 
  linear: 
    x: 0.5592841313260699
    y: 0.06708177438065877
    z: 0.0
  angular: 
    x: 0.0
    y: 0.0
    z: 0.0
---
header: 
  seq: 241
  stamp: 
    secs: 1722859275
    nsecs: 833797693
  frame_id: ''
twist: 
  linear: 
    x: 0.559273646846158
    y: 0.06698700384065207
    z: 0.0
  angular: 
    x: 0.0
    y: 0.0
    z: 0.0
---
header: 
  seq: 242
  stamp: 
    secs: 1722859275
    nsecs: 856658935
  frame_id: ''
twist: 
  linear: 
    x: 0.5592682366418631
    y: 0.06679764163837723
    z: 0.0
  angular: 
    x: 0.0
    y: 0.0
    z: 0.0
---
header: 
  seq: 243
  stamp: 
    secs: 1722859275
    nsecs: 879036664
  frame_id: ''
twist: 
  linear: 
    x: 0.5592607259955908
    y: 0.06673591949594351
    z: 0.0
  angular: 
    x: 0.0
    y: 0.0
    z: 0.0
---
header: 
  seq: 244
  stamp: 
    secs: 1722859275
    nsecs: 889065027
  frame_id: ''
twist: 
  linear: 
    x: 0.5592667019528741
    y: 0.06676741270419126
    z: 0.0
  angular: 
    x: 0.0
    y: 0.0
    z: 0.0
---
header: 
  seq: 245
  stamp: 
    secs: 1722859275
    nsecs: 901950120
  frame_id: ''
twist: 
  linear: 
    x: 0.5593020364418241
    y: 0.06703973774527316
    z: 0.0
  angular: 
    x: 0.0
    y: 0.0
    z: 0.0
---
header: 
  seq: 246
  stamp: 
    secs: 1722859275
    nsecs: 921976327
  frame_id: ''
twist: 
  linear: 
    x: 0.559275342259855
    y: 0.06680732046021735
    z: 0.0
  angular: 
    x: 0.0
    y: 0.0
    z: 0.0
---
header: 
  seq: 247
  stamp: 
    secs: 1722859275
    nsecs: 931934833
  frame_id: ''
twist: 
  linear: 
    x: 0.5593094336287812
    y: 0.06706715386233272
    z: 0.0
  angular: 
    x: 0.0
    y: 0.0
    z: 0.0
---
header: 
  seq: 248
  stamp: 
    secs: 1722859275
    nsecs: 947218179
  frame_id: ''
twist: 
  linear: 
    x: 0.5592979445629828
    y: 0.06696834614977629
    z: 0.0
  angular: 
    x: 0.0
    y: 0.0
    z: 0.0
---
header: 
  seq: 249
  stamp: 
    secs: 1722859275
    nsecs: 962400436
  frame_id: ''
twist: 
  linear: 
    x: 0.5592579509092752
    y: 0.06662761202422003
    z: 0.0
  angular: 
    x: 0.0
    y: 0.0
    z: 0.0
---
header: 
  seq: 250
  stamp: 
    secs: 1722859275
    nsecs: 973525285
  frame_id: ''
twist: 
  linear: 
    x: 0.5592838397678328
    y: 0.06684382315938442
    z: 0.0
  angular: 
    x: 0.0
    y: 0.0
    z: 0.0
---
header: 
  seq: 251
  stamp: 
    secs: 1722859275
    nsecs: 991053819
  frame_id: ''
twist: 
  linear: 
    x: 0.559303823317637
    y: 0.06697373558423857
    z: 0.0
  angular: 
    x: 0.0
    y: 0.0
    z: 0.0
---
header: 
  seq: 252
  stamp: 
    secs: 1722859276
    nsecs:   4580020
  frame_id: ''
twist: 
  linear: 
    x: 0.5592905073215587
    y: 0.06687981988085857
    z: 0.0
  angular: 
    x: 0.0
    y: 0.0
    z: 0.0
---
header: 
  seq: 253
  stamp: 
    secs: 1722859276
    nsecs:  14322280
  frame_id: ''
twist: 
  linear: 
    x: 0.5592797451830241
    y: 0.06678089601912306
    z: 0.0
  angular: 
    x: 0.0
    y: 0.0
    z: 0.0
---
header: 
  seq: 254
  stamp: 
    secs: 1722859276
    nsecs:  25038480
  frame_id: ''
twist: 
  linear: 
    x: 0.5592781541621369
    y: 0.06676542370815264
    z: 0.0
  angular: 
    x: 0.0
    y: 0.0
    z: 0.0
---
header: 
  seq: 255
  stamp: 
    secs: 1722859276
    nsecs:  48489332
  frame_id: ''
twist: 
  linear: 
    x: 0.5592970603806415
    y: 0.06658663029061061
    z: 0.0
  angular: 
    x: 0.0
    y: 0.0
    z: 0.0
---
header: 
  seq: 256
  stamp: 
    secs: 1722859276
    nsecs:  70521831
  frame_id: ''
twist: 
  linear: 
    x: 0.5592668943520602
    y: 0.06633618402003469
    z: 0.0
  angular: 
    x: 0.0
    y: 0.0
    z: 0.0
---
header: 
  seq: 257
  stamp: 
    secs: 1722859276
    nsecs:  79541921
  frame_id: ''
twist: 
  linear: 
    x: 0.5592780101316006
    y: 0.06642893271171993
    z: 0.0
  angular: 
    x: 0.0
    y: 0.0
    z: 0.0
---
header: 
  seq: 258
  stamp: 
    secs: 1722859276
    nsecs: 101150274
  frame_id: ''
twist: 
  linear: 
    x: 0.5592923685963914
    y: 0.06651337490026737
    z: 0.0
  angular: 
    x: 0.0
    y: 0.0
    z: 0.0
---
header: 
  seq: 259
  stamp: 
    secs: 1722859276
    nsecs: 117037057
  frame_id: ''
twist: 
  linear: 
    x: 0.5592681133388963
    y: 0.06634064853162702
    z: 0.0
  angular: 
    x: 0.0
    y: 0.0
    z: 0.0
---
header: 
  seq: 260
  stamp: 
    secs: 1722859276
    nsecs: 128602266
  frame_id: ''
twist: 
  linear: 
    x: 0.5592827108927865
    y: 0.06641046918828439
    z: 0.0
  angular: 
    x: 0.0
    y: 0.0
    z: 0.0
---
header: 
  seq: 261
  stamp: 
    secs: 1722859276
    nsecs: 153893947
  frame_id: ''
twist: 
  linear: 
    x: 0.559299932280801
    y: 0.06653788344956349
    z: 0.0
  angular: 
    x: 0.0
    y: 0.0
    z: 0.0
---
header: 
  seq: 262
  stamp: 
    secs: 1722859276
    nsecs: 180045127
  frame_id: ''
twist: 
  linear: 
    x: 0.5593197020882124
    y: 0.0666305152730612
    z: 0.0
  angular: 
    x: 0.0
    y: 0.0
    z: 0.0
---
header: 
  seq: 263
  stamp: 
    secs: 1722859276
    nsecs: 189976215
  frame_id: ''
twist: 
  linear: 
    x: 0.5593150359200473
    y: 0.06659588700215967
    z: 0.0
  angular: 
    x: 0.0
    y: 0.0
    z: 0.0
---
header: 
  seq: 264
  stamp: 
    secs: 1722859276
    nsecs: 206236362
  frame_id: ''
twist: 
  linear: 
    x: 0.5593108036254388
    y: 0.06653877994470074
    z: 0.0
  angular: 
    x: 0.0
    y: 0.0
    z: 0.0
---
header: 
  seq: 265
  stamp: 
    secs: 1722859276
    nsecs: 224401712
  frame_id: ''
twist: 
  linear: 
    x: 0.5592830225138312
    y: 0.06632301376813494
    z: 0.0
  angular: 
    x: 0.0
    y: 0.0
    z: 0.0
---
header: 
  seq: 266
  stamp: 
    secs: 1722859276
    nsecs: 240485906
  frame_id: ''
twist: 
  linear: 
    x: 0.5593007510847866
    y: 0.06645346744544818
    z: 0.0
  angular: 
    x: 0.0
    y: 0.0
    z: 0.0
---
header: 
  seq: 267
  stamp: 
    secs: 1722859276
    nsecs: 256985664
  frame_id: ''
twist: 
  linear: 
    x: 0.5592905428181506
    y: 0.06635748477376582
    z: 0.0
  angular: 
    x: 0.0
    y: 0.0
    z: 0.0
---
header: 
  seq: 268
  stamp: 
    secs: 1722859276
    nsecs: 272490739
  frame_id: ''
twist: 
  linear: 
    x: 0.5592800728707298
    y: 0.06627980339627203
    z: 0.0
  angular: 
    x: 0.0
    y: 0.0
    z: 0.0
---
header: 
  seq: 269
  stamp: 
    secs: 1722859276
    nsecs: 290172100
  frame_id: ''
twist: 
  linear: 
    x: 0.5593147587146324
    y: 0.0665125204774852
    z: 0.0
  angular: 
    x: 0.0
    y: 0.0
    z: 0.0
---
header: 
  seq: 270
  stamp: 
    secs: 1722859276
    nsecs: 302603960
  frame_id: ''
twist: 
  linear: 
    x: 0.5593039070520561
    y: 0.06642967606472186
    z: 0.0
  angular: 
    x: 0.0
    y: 0.0
    z: 0.0
---
header: 
  seq: 271
  stamp: 
    secs: 1722859276
    nsecs: 326565027
  frame_id: ''
twist: 
  linear: 
    x: 0.5593293886403105
    y: 0.06660475946543615
    z: 0.0
  angular: 
    x: 0.0
    y: 0.0
    z: 0.0
---
header: 
  seq: 272
  stamp: 
    secs: 1722859276
    nsecs: 340660572
  frame_id: ''
twist: 
  linear: 
    x: 0.5593269194590871
    y: 0.06655683433170057
    z: 0.0
  angular: 
    x: 0.0
    y: 0.0
    z: 0.0
---
header: 
  seq: 273
  stamp: 
    secs: 1722859276
    nsecs: 361501693
  frame_id: ''
twist: 
  linear: 
    x: 0.5593602416148751
    y: 0.06675551354876771
    z: 0.0
  angular: 
    x: 0.0
    y: 0.0
    z: 0.0
---
header: 
  seq: 274
  stamp: 
    secs: 1722859276
    nsecs: 369053125
  frame_id: ''
twist: 
  linear: 
    x: 0.5592929701949634
    y: 0.06628539667429356
    z: 0.0
  angular: 
    x: 0.0
    y: 0.0
    z: 0.0
---
header: 
  seq: 275
  stamp: 
    secs: 1722859276
    nsecs: 381834030
  frame_id: ''
twist: 
  linear: 
    x: 0.5593697799862032
    y: 0.0666601923193799
    z: 0.0
