header: 
  seq: 1647771
  stamp: 
    secs: 1722858137
    nsecs: 397985260
  frame_id: ''
magnetic_x: -9964.248046875
magnetic_y: 5152.83984375
magnetic_z: 16042.056640625
---
header: 
  seq: 1647772
  stamp: 
    secs: 1722858137
    nsecs: 403985260
  frame_id: ''
magnetic_x: -9980.7119140625
magnetic_y: 5146.17578125
magnetic_z: 16046.48046875
---
header: 
  seq: 1647773
  stamp: 
    secs: 1722858137
    nsecs: 409985260
  frame_id: ''
magnetic_x: -9969.7353515625
magnetic_y: 5149.31201171875
magnetic_z: 16063.544921875
---
header: 
  seq: 1647774
  stamp: 
    secs: 1722858137
    nsecs: 415985260
  frame_id: ''
magnetic_x: -9973.263671875
magnetic_y: 5158.32763671875
magnetic_z: 16045.8486328125
---
header: 
  seq: 1647775
  stamp: 
    secs: 1722858137
    nsecs: 421985260
  frame_id: ''
magnetic_x: -9963.0712890625
magnetic_y: 5159.11181640625
magnetic_z: 16066.072265625
---
header: 
  seq: 1647776
  stamp: 
    secs: 1722858137
    nsecs: 427985260
  frame_id: ''
magnetic_x: -9974.439453125
magnetic_y: 5150.095703125
magnetic_z: 16046.48046875
---
header: 
  seq: 1647777
  stamp: 
    secs: 1722858137
    nsecs: 434985260
  frame_id: ''
magnetic_x: -9967.775390625
magnetic_y: 5145.39208984375
magnetic_z: 16057.8564453125
---
header: 
  seq: 1647778
  stamp: 
    secs: 1722858137
    nsecs: 440985260
  frame_id: ''
magnetic_x: -9969.7353515625
magnetic_y: 5160.2880859375
magnetic_z: 16057.8564453125
---
header: 
  seq: 1647779
  stamp: 
    secs: 1722858137
    nsecs: 446985260
  frame_id: ''
magnetic_x: -9976.7919921875
magnetic_y: 5155.97607421875
magnetic_z: 16047.7451171875
---
header: 
  seq: 1647780
  stamp: 
    secs: 1722858137
    nsecs: 452985260
  frame_id: ''
magnetic_x: -9972.087890625
magnetic_y: 5159.11181640625
magnetic_z: 16045.8486328125
---
header: 
  seq: 1647781
  stamp: 
    secs: 1722858137
    nsecs: 458985260
  frame_id: ''
magnetic_x: -9978.359375
magnetic_y: 5152.83984375
magnetic_z: 16043.953125
---
header: 
  seq: 1647782
  stamp: 
    secs: 1722858137
    nsecs: 464985260
  frame_id: ''
magnetic_x: -9969.34375
magnetic_y: 5154.015625
magnetic_z: 16047.7451171875
---
header: 
  seq: 1647783
  stamp: 
    secs: 1722858137
    nsecs: 470985260
  frame_id: ''
magnetic_x: -9981.49609375
magnetic_y: 5143.431640625
magnetic_z: 16050.2724609375
---
header: 
  seq: 1647784
  stamp: 
    secs: 1722858137
    nsecs: 477985260
  frame_id: ''
magnetic_x: -9971.6953125
magnetic_y: 5155.97607421875
magnetic_z: 16055.3291015625
---
header: 
  seq: 1647785
  stamp: 
    secs: 1722858137
    nsecs: 483985260
  frame_id: ''
magnetic_x: -9966.9921875
magnetic_y: 5153.6240234375
magnetic_z: 16068.6005859375
---
header: 
  seq: 1647786
  stamp: 
    secs: 1722858137
    nsecs: 489985260
  frame_id: ''
magnetic_x: -9976.0078125
magnetic_y: 5155.19189453125
magnetic_z: 16054.6962890625
---
header: 
  seq: 1647787
  stamp: 
    secs: 1722858137
    nsecs: 495985260
  frame_id: ''
magnetic_x: -9972.4794921875
magnetic_y: 5148.1357421875
magnetic_z: 16056.5927734375
---
header: 
  seq: 1647788
  stamp: 
    secs: 1722858137
    nsecs: 501985260
  frame_id: ''
magnetic_x: -9981.103515625
magnetic_y: 5156.759765625
magnetic_z: 16042.6884765625
---
header: 
  seq: 1647789
  stamp: 
    secs: 1722858137
    nsecs: 507985260
  frame_id: ''
magnetic_x: -9981.8876953125
magnetic_y: 5156.759765625
magnetic_z: 16057.8564453125
---
header: 
  seq: 1647790
  stamp: 
    secs: 1722858137
    nsecs: 513985260
  frame_id: ''
magnetic_x: -9985.416015625
magnetic_y: 5152.0556640625
magnetic_z: 16048.376953125
---
header: 
  seq: 1647791
  stamp: 
    secs: 1722858137
    nsecs: 520985260
  frame_id: ''
magnetic_x: -9979.927734375
magnetic_y: 5154.40771484375
magnetic_z: 16050.2724609375
---
header: 
  seq: 1647792
  stamp: 
    secs: 1722858137
    nsecs: 526985260
  frame_id: ''
magnetic_x: -9977.18359375
magnetic_y: 5154.015625
magnetic_z: 16057.8564453125
---
header: 
  seq: 1647793
  stamp: 
    secs: 1722858137
    nsecs: 532985260
  frame_id: ''
magnetic_x: -9972.8720703125
magnetic_y: 5151.27197265625
magnetic_z: 16045.8486328125
---
header: 
  seq: 1647794
  stamp: 
    secs: 1722858137
    nsecs: 538985260
  frame_id: ''
magnetic_x: -9974.0478515625
magnetic_y: 5151.6640625
magnetic_z: 16037.0009765625
---
header: 
  seq: 1647795
  stamp: 
    secs: 1722858137
    nsecs: 544985260
  frame_id: ''
magnetic_x: -9973.263671875
magnetic_y: 5147.74365234375
magnetic_z: 16046.48046875
---
header: 
  seq: 1647796
  stamp: 
    secs: 1722858137
    nsecs: 550985260
  frame_id: ''
magnetic_x: -9988.943359375
magnetic_y: 5148.919921875
magnetic_z: 16050.2724609375
---
header: 
  seq: 1647797
  stamp: 
    secs: 1722858137
    nsecs: 556985260
  frame_id: ''
magnetic_x: -9979.1435546875
magnetic_y: 5150.48779296875
magnetic_z: 16052.80078125
---
header: 
  seq: 1647798
  stamp: 
    secs: 1722858137
    nsecs: 563985260
  frame_id: ''
magnetic_x: -9976.3994140625
magnetic_y: 5153.23193359375
magnetic_z: 16059.7529296875
---
header: 
  seq: 1647799
  stamp: 
    secs: 1722858137
    nsecs: 569985260
  frame_id: ''
magnetic_x: -9971.6953125
magnetic_y: 5151.27197265625
magnetic_z: 16058.48828125
---
header: 
  seq: 1647800
  stamp: 
    secs: 1722858137
    nsecs: 575985260
  frame_id: ''
magnetic_x: -9971.3037109375
magnetic_y: 5144.60791015625
magnetic_z: 16055.3291015625
---
header: 
  seq: 1647801
  stamp: 
    secs: 1722858137
    nsecs: 581985260
  frame_id: ''
magnetic_x: -9980.7119140625
magnetic_y: 5148.52783203125
magnetic_z: 16054.064453125
---
header: 
  seq: 1647802
  stamp: 
    secs: 1722858137
    nsecs: 587985260
  frame_id: ''
magnetic_x: -9988.16015625
magnetic_y: 5154.7998046875
magnetic_z: 16050.2724609375
---
header: 
  seq: 1647803
  stamp: 
    secs: 1722858137
    nsecs: 593985260
  frame_id: ''
magnetic_x: -9973.6552734375
magnetic_y: 5153.6240234375
magnetic_z: 16045.216796875
---
header: 
  seq: 1647804
  stamp: 
    secs: 1722858137
    nsecs: 599985260
  frame_id: ''
magnetic_x: -9978.751953125
magnetic_y: 5154.40771484375
magnetic_z: 16056.5927734375
---
header: 
  seq: 1647805
  stamp: 
    secs: 1722858137
    nsecs: 606985260
  frame_id: ''
magnetic_x: -9975.2236328125
magnetic_y: 5154.40771484375
magnetic_z: 16061.6484375
---
header: 
  seq: 1647806
  stamp: 
    secs: 1722858137
    nsecs: 612985260
  frame_id: ''
magnetic_x: -9963.85546875
magnetic_y: 5154.7998046875
magnetic_z: 16062.2802734375
---
header: 
  seq: 1647807
  stamp: 
    secs: 1722858137
    nsecs: 618985260
  frame_id: ''
magnetic_x: -9978.751953125
magnetic_y: 5155.19189453125
magnetic_z: 16027.5205078125
---
header: 
  seq: 1647808
  stamp: 
    secs: 1722858137
    nsecs: 624985260
  frame_id: ''
magnetic_x: -9972.087890625
magnetic_y: 5153.23193359375
magnetic_z: 16051.537109375
---
header: 
  seq: 1647809
  stamp: 
    secs: 1722858137
    nsecs: 630985260
  frame_id: ''
magnetic_x: -9970.1279296875
magnetic_y: 5157.93603515625
magnetic_z: 16060.384765625
---
header: 
  seq: 1647810
  stamp: 
    secs: 1722858137
    nsecs: 636985260
  frame_id: ''
magnetic_x: -9969.7353515625
magnetic_y: 5161.85595703125
magnetic_z: 16047.7451171875
---
header: 
  seq: 1647811
  stamp: 
    secs: 1722858137
    nsecs: 641985260
  frame_id: ''
magnetic_x: -9972.4794921875
magnetic_y: 5145.78369140625
magnetic_z: 16045.216796875
---
header: 
  seq: 1647812
  stamp: 
    secs: 1722858137
    nsecs: 648985260
  frame_id: ''
magnetic_x: -9983.84765625
magnetic_y: 5143.82373046875
magnetic_z: 16050.904296875
---
header: 
  seq: 1647813
  stamp: 
    secs: 1722858137
    nsecs: 654985260
  frame_id: ''
magnetic_x: -9981.8876953125
magnetic_y: 5145.39208984375
magnetic_z: 16035.736328125
---
header: 
  seq: 1647814
  stamp: 
    secs: 1722858137
    nsecs: 660985260
  frame_id: ''
magnetic_x: -9974.439453125
magnetic_y: 5152.0556640625
magnetic_z: 16053.4326171875
---
header: 
  seq: 1647815
  stamp: 
    secs: 1722858137
    nsecs: 666985260
  frame_id: ''
magnetic_x: -9967.775390625
magnetic_y: 5153.6240234375
magnetic_z: 16050.904296875
---
header: 
  seq: 1647816
  stamp: 
    secs: 1722858137
    nsecs: 672985260
  frame_id: ''
magnetic_x: -9963.0712890625
magnetic_y: 5144.60791015625
magnetic_z: 16045.8486328125
---
header: 
  seq: 1647817
  stamp: 
    secs: 1722858137
    nsecs: 678985260
  frame_id: ''
magnetic_x: -9972.4794921875
magnetic_y: 5151.27197265625
magnetic_z: 16054.064453125
---
header: 
  seq: 1647818
  stamp: 
    secs: 1722858137
    nsecs: 684985260
  frame_id: ''
magnetic_x: -9972.8720703125
magnetic_y: 5150.48779296875
magnetic_z: 16040.79296875
---
header: 
  seq: 1647819
  stamp: 
    secs: 1722858137
    nsecs: 691985260
  frame_id: ''
magnetic_x: -9973.263671875
magnetic_y: 5151.6640625
magnetic_z: 16057.8564453125
---
header: 
  seq: 1647820
  stamp: 
    secs: 1722858137
    nsecs: 697985260
  frame_id: ''
magnetic_x: -9986.2001953125
magnetic_y: 5145.78369140625
magnetic_z: 16031.9443359375
---
header: 
  seq: 1647821
  stamp: 
    secs: 1722858137
    nsecs: 703985260
  frame_id: ''
magnetic_x: -9966.9921875
magnetic_y: 5149.7041015625
magnetic_z: 16045.8486328125
---
header: 
  seq: 1647822
  stamp: 
    secs: 1722858137
    nsecs: 709985260
  frame_id: ''
magnetic_x: -9974.0478515625
magnetic_y: 5153.6240234375
magnetic_z: 16053.4326171875
---
header: 
  seq: 1647823
  stamp: 
    secs: 1722858137
    nsecs: 715985260
  frame_id: ''
magnetic_x: -9967.775390625
magnetic_y: 5154.7998046875
magnetic_z: 16048.376953125
---
header: 
  seq: 1647824
  stamp: 
    secs: 1722858137
    nsecs: 721985260
  frame_id: ''
magnetic_x: -9977.9677734375
magnetic_y: 5149.7041015625
magnetic_z: 16043.953125
---
header: 
  seq: 1647825
  stamp: 
    secs: 1722858137
    nsecs: 727985260
  frame_id: ''
magnetic_x: -9974.83203125
magnetic_y: 5145.39208984375
magnetic_z: 16067.96875
---
header: 
  seq: 1647826
  stamp: 
    secs: 1722858137
    nsecs: 734985260
  frame_id: ''
magnetic_x: -9978.359375
magnetic_y: 5154.40771484375
magnetic_z: 16043.3203125
---
header: 
  seq: 1647827
  stamp: 
    secs: 1722858137
    nsecs: 740985260
  frame_id: ''
magnetic_x: -9965.0322265625
magnetic_y: 5148.52783203125
magnetic_z: 16064.1767578125
---
header: 
  seq: 1647828
  stamp: 
    secs: 1722858137
    nsecs: 746985260
  frame_id: ''
magnetic_x: -9974.439453125
magnetic_y: 5152.0556640625
magnetic_z: 16057.8564453125
---
header: 
  seq: 1647829
  stamp: 
    secs: 1722858137
    nsecs: 752985260
  frame_id: ''
magnetic_x: -9974.83203125
magnetic_y: 5147.35205078125
magnetic_z: 16069.232421875
---
header: 
  seq: 1647830
  stamp: 
    secs: 1722858137
    nsecs: 758985260
  frame_id: ''
magnetic_x: -9970.912109375
magnetic_y: 5147.35205078125
magnetic_z: 16057.8564453125
---
header: 
  seq: 1647831
  stamp: 
    secs: 1722858137
    nsecs: 764985260
  frame_id: ''
magnetic_x: -9970.912109375
magnetic_y: 5152.0556640625
magnetic_z: 16045.216796875
---
header: 
  seq: 1647832
  stamp: 
    secs: 1722858137
    nsecs: 770985260
  frame_id: ''
magnetic_x: -9985.8076171875
magnetic_y: 5153.23193359375
magnetic_z: 16052.1689453125
---
header: 
  seq: 1647833
  stamp: 
    secs: 1722858137
    nsecs: 777985260
  frame_id: ''
magnetic_x: -9968.16796875
magnetic_y: 5157.5439453125
magnetic_z: 16035.1044921875
---
header: 
  seq: 1647834
  stamp: 
    secs: 1722858137
    nsecs: 783985260
  frame_id: ''
magnetic_x: -9978.751953125
magnetic_y: 5147.74365234375
magnetic_z: 16066.072265625
---
header: 
  seq: 1647835
  stamp: 
    secs: 1722858137
    nsecs: 789985260
  frame_id: ''
magnetic_x: -9982.671875
magnetic_y: 5156.759765625
magnetic_z: 16061.0166015625
---
header: 
  seq: 1647836
  stamp: 
    secs: 1722858137
    nsecs: 795985260
  frame_id: ''
magnetic_x: -9977.9677734375
magnetic_y: 5143.431640625
magnetic_z: 16042.056640625
---
header: 
  seq: 1647837
  stamp: 
    secs: 1722858137
    nsecs: 801985260
  frame_id: ''
magnetic_x: -9974.439453125
magnetic_y: 5150.095703125
magnetic_z: 16062.2802734375
---
header: 
  seq: 1647838
  stamp: 
    secs: 1722858137
    nsecs: 807985260
  frame_id: ''
magnetic_x: -9964.6396484375
magnetic_y: 5152.0556640625
magnetic_z: 16052.1689453125
---
header: 
  seq: 1647839
  stamp: 
    secs: 1722858137
    nsecs: 813985260
  frame_id: ''
magnetic_x: -9985.8076171875
magnetic_y: 5151.27197265625
magnetic_z: 16047.1123046875
---
header: 
  seq: 1647840
  stamp: 
    secs: 1722858137
    nsecs: 820985260
  frame_id: ''
magnetic_x: -9973.263671875
magnetic_y: 5150.095703125
magnetic_z: 16048.376953125
---
header: 
  seq: 1647841
  stamp: 
    secs: 1722858137
    nsecs: 826985260
  frame_id: ''
magnetic_x: -9983.4560546875
magnetic_y: 5151.6640625
magnetic_z: 16059.7529296875
---
header: 
  seq: 1647842
  stamp: 
    secs: 1722858137
    nsecs: 832985260
  frame_id: ''
magnetic_x: -9979.1435546875
magnetic_y: 5159.11181640625
magnetic_z: 16047.1123046875
---
header: 
  seq: 1647843
  stamp: 
    secs: 1722858137
    nsecs: 838985260
  frame_id: ''
magnetic_x: -9976.7919921875
magnetic_y: 5148.919921875
magnetic_z: 16047.7451171875
---
header: 
  seq: 1647844
  stamp: 
    secs: 1722858137
    nsecs: 844985260
  frame_id: ''
magnetic_x: -9977.9677734375
magnetic_y: 5132.84765625
magnetic_z: 16055.3291015625
---
header: 
  seq: 1647845
  stamp: 
    secs: 1722858137
    nsecs: 850985260
  frame_id: ''
magnetic_x: -9973.6552734375
magnetic_y: 5151.6640625
magnetic_z: 16047.7451171875
---
header: 
  seq: 1647846
  stamp: 
    secs: 1722858137
    nsecs: 857985260
  frame_id: ''
magnetic_x: -9976.3994140625
magnetic_y: 5155.97607421875
magnetic_z: 16049.0087890625
---
header: 
  seq: 1647847
  stamp: 
    secs: 1722858137
    nsecs: 863985260
  frame_id: ''
magnetic_x: -9986.9833984375
magnetic_y: 5142.255859375
magnetic_z: 16063.544921875
---
header: 
  seq: 1647848
  stamp: 
    secs: 1722858137
    nsecs: 869985260
  frame_id: ''
magnetic_x: -9969.34375
magnetic_y: 5160.6796875
magnetic_z: 16033.208984375
---
header: 
  seq: 1647849
  stamp: 
    secs: 1722858137
    nsecs: 875985260
  frame_id: ''
magnetic_x: -9970.51953125
magnetic_y: 5146.56787109375
magnetic_z: 16058.48828125
---
header: 
  seq: 1647850
  stamp: 
    secs: 1722858137
    nsecs: 881985260
  frame_id: ''
magnetic_x: -9980.7119140625
magnetic_y: 5143.0400390625
magnetic_z: 16053.4326171875
---
header: 
  seq: 1647851
  stamp: 
    secs: 1722858137
    nsecs: 889985260
  frame_id: ''
magnetic_x: -9974.0478515625
magnetic_y: 5149.7041015625
magnetic_z: 16042.6884765625
---
header: 
  seq: 1647852
  stamp: 
    secs: 1722858137
    nsecs: 895985260
  frame_id: ''
magnetic_x: -9974.439453125
magnetic_y: 5145.78369140625
magnetic_z: 16042.6884765625
---
header: 
  seq: 1647853
  stamp: 
    secs: 1722858137
    nsecs: 902985260
  frame_id: ''
magnetic_x: -9971.3037109375
magnetic_y: 5153.23193359375
magnetic_z: 16038.896484375
---
header: 
  seq: 1647854
  stamp: 
    secs: 1722858137
    nsecs: 908985260
  frame_id: ''
magnetic_x: -9971.3037109375
magnetic_y: 5146.9599609375
magnetic_z: 16064.80859375
---
header: 
  seq: 1647855
  stamp: 
    secs: 1722858137
    nsecs: 914985260
  frame_id: ''
magnetic_x: -9978.751953125
magnetic_y: 5144.2158203125
magnetic_z: 16039.5283203125
---
header: 
  seq: 1647856
  stamp: 
    secs: 1722858137
    nsecs: 925791271
  frame_id: ''
magnetic_x: -9975.6162109375
magnetic_y: 5149.7041015625
magnetic_z: 16047.7451171875
---
header: 
  seq: 1647857
  stamp: 
    secs: 1722858137
    nsecs: 931791271
  frame_id: ''
magnetic_x: -9974.83203125
magnetic_y: 5156.759765625
magnetic_z: 16052.1689453125
---
header: 
  seq: 1647858
  stamp: 
    secs: 1722858137
    nsecs: 937791271
  frame_id: ''
magnetic_x: -9970.51953125
magnetic_y: 5154.7998046875
magnetic_z: 16042.056640625
---
header: 
  seq: 1647859
  stamp: 
    secs: 1722858137
    nsecs: 943791271
  frame_id: ''
magnetic_x: -9977.576171875
magnetic_y: 5139.90380859375
magnetic_z: 16043.3203125
---
header: 
  seq: 1647860
  stamp: 
    secs: 1722858137
    nsecs: 950791271
  frame_id: ''
magnetic_x: -9970.912109375
magnetic_y: 5151.27197265625
magnetic_z: 16052.80078125
---
header: 
  seq: 1647861
  stamp: 
    secs: 1722858137
    nsecs: 956791271
  frame_id: ''
magnetic_x: -9976.0078125
magnetic_y: 5161.4638671875
magnetic_z: 16051.537109375
---
header: 
  seq: 1647862
  stamp: 
    secs: 1722858137
    nsecs: 962791271
  frame_id: ''
magnetic_x: -9977.18359375
magnetic_y: 5143.82373046875
magnetic_z: 16059.7529296875
---
header: 
  seq: 1647863
  stamp: 
    secs: 1722858137
    nsecs: 968791271
  frame_id: ''
magnetic_x: -9983.0634765625
magnetic_y: 5155.19189453125
magnetic_z: 16053.4326171875
---
header: 
  seq: 1647864
  stamp: 
    secs: 1722858137
    nsecs: 974791271
  frame_id: ''
magnetic_x: -9979.927734375
magnetic_y: 5142.255859375
magnetic_z: 16062.2802734375
---
header: 
  seq: 1647865
  stamp: 
    secs: 1722858137
    nsecs: 980791271
  frame_id: ''
magnetic_x: -9974.0478515625
magnetic_y: 5154.40771484375
magnetic_z: 16050.2724609375
---
header: 
  seq: 1647866
  stamp: 
    secs: 1722858137
    nsecs: 986791271
  frame_id: ''
magnetic_x: -9972.8720703125
magnetic_y: 5146.17578125
magnetic_z: 16056.5927734375
---
header: 
  seq: 1647867
  stamp: 
    secs: 1722858137
    nsecs: 993791271
  frame_id: ''
magnetic_x: -9961.8955078125
magnetic_y: 5152.0556640625
magnetic_z: 16068.6005859375
---
header: 
  seq: 1647868
  stamp: 
    secs: 1722858137
    nsecs: 999791271
  frame_id: ''
magnetic_x: -9975.2236328125
magnetic_y: 5155.97607421875
magnetic_z: 16039.5283203125
---
header: 
  seq: 1647869
  stamp: 
    secs: 1722858138
    nsecs:   5791271
  frame_id: ''
magnetic_x: -9973.6552734375
magnetic_y: 5141.86376953125
magnetic_z: 16049.640625
---
header: 
  seq: 1647870
  stamp: 
    secs: 1722858138
    nsecs:  11791271
  frame_id: ''
magnetic_x: -9970.912109375
magnetic_y: 5149.7041015625
magnetic_z: 16048.376953125
---
header: 
  seq: 1647871
  stamp: 
    secs: 1722858138
    nsecs:  17791271
  frame_id: ''
magnetic_x: -9977.9677734375
magnetic_y: 5149.7041015625
magnetic_z: 16054.064453125
---
header: 
  seq: 1647872
  stamp: 
    secs: 1722858138
    nsecs:  23791271
  frame_id: ''
magnetic_x: -9968.16796875
magnetic_y: 5148.1357421875
magnetic_z: 16049.640625
---
header: 
  seq: 1647873
  stamp: 
    secs: 1722858138
    nsecs:  29791271
  frame_id: ''
magnetic_x: -9974.0478515625
magnetic_y: 5139.11962890625
magnetic_z: 16049.640625
---
header: 
  seq: 1647874
  stamp: 
    secs: 1722858138
    nsecs:  36791271
  frame_id: ''
magnetic_x: -9973.6552734375
magnetic_y: 5153.6240234375
magnetic_z: 16034.47265625
---
header: 
  seq: 1647875
  stamp: 
    secs: 1722858138
    nsecs:  42791271
  frame_id: ''
magnetic_x: -9979.5361328125
magnetic_y: 5153.23193359375
magnetic_z: 16051.537109375
---
header: 
  seq: 1647876
  stamp: 
    secs: 1722858138
    nsecs:  48791271
  frame_id: ''
magnetic_x: -9963.85546875
magnetic_y: 5156.759765625
magnetic_z: 16049.0087890625
---
header: 
  seq: 1647877
  stamp: 
    secs: 1722858138
    nsecs:  54791271
  frame_id: ''
magnetic_x: -9976.0078125
magnetic_y: 5159.50390625
magnetic_z: 16049.640625
---
header: 
  seq: 1647878
  stamp: 
    secs: 1722858138
    nsecs:  60791271
  frame_id: ''
magnetic_x: -9971.6953125
magnetic_y: 5143.431640625
magnetic_z: 16062.9130859375
---
header: 
  seq: 1647879
  stamp: 
    secs: 1722858138
    nsecs:  66791271
  frame_id: ''
magnetic_x: -9974.83203125
magnetic_y: 5154.7998046875
magnetic_z: 16043.953125
---
header: 
  seq: 1647880
  stamp: 
    secs: 1722858138
    nsecs:  72791271
  frame_id: ''
magnetic_x: -9980.3193359375
magnetic_y: 5146.17578125
magnetic_z: 16062.9130859375
---
header: 
  seq: 1647881
  stamp: 
    secs: 1722858138
    nsecs:  79791271
  frame_id: ''
magnetic_x: -9972.8720703125
magnetic_y: 5152.0556640625
magnetic_z: 16045.216796875
---
header: 
  seq: 1647882
  stamp: 
    secs: 1722858138
    nsecs:  84791271
  frame_id: ''
magnetic_x: -9980.3193359375
magnetic_y: 5147.35205078125
magnetic_z: 16062.2802734375
---
header: 
  seq: 1647883
  stamp: 
    secs: 1722858138
    nsecs:  90791271
  frame_id: ''
magnetic_x: -9977.576171875
magnetic_y: 5149.7041015625
magnetic_z: 16034.47265625
---
header: 
  seq: 1647884
  stamp: 
    secs: 1722858138
    nsecs:  96791271
  frame_id: ''
magnetic_x: -9975.2236328125
magnetic_y: 5157.15185546875
magnetic_z: 16038.2646484375
---
header: 
  seq: 1647885
  stamp: 
    secs: 1722858138
    nsecs: 102791271
  frame_id: ''
magnetic_x: -9974.439453125
magnetic_y: 5147.35205078125
magnetic_z: 16047.7451171875
---
header: 
  seq: 1647886
  stamp: 
    secs: 1722858138
    nsecs: 108791271
  frame_id: ''
magnetic_x: -9979.927734375
magnetic_y: 5157.15185546875
magnetic_z: 16058.48828125
---
header: 
  seq: 1647887
  stamp: 
    secs: 1722858138
    nsecs: 114791271
  frame_id: ''
magnetic_x: -9973.263671875
magnetic_y: 5153.23193359375
magnetic_z: 16042.6884765625
---
header: 
  seq: 1647888
  stamp: 
    secs: 1722858138
    nsecs: 121791271
  frame_id: ''
magnetic_x: -9973.6552734375
magnetic_y: 5153.23193359375
magnetic_z: 16061.0166015625
---
header: 
  seq: 1647889
  stamp: 
    secs: 1722858138
    nsecs: 127791271
  frame_id: ''
magnetic_x: -9971.6953125
magnetic_y: 5150.095703125
magnetic_z: 16062.9130859375
---
header: 
  seq: 1647890
  stamp: 
    secs: 1722858138
    nsecs: 133791271
  frame_id: ''
magnetic_x: -9975.2236328125
magnetic_y: 5149.7041015625
magnetic_z: 16037.6328125
---
header: 
  seq: 1647891
  stamp: 
    secs: 1722858138
    nsecs: 139791271
  frame_id: ''
magnetic_x: -9981.103515625
magnetic_y: 5141.86376953125
magnetic_z: 16047.7451171875
---
header: 
  seq: 1647892
  stamp: 
    secs: 1722858138
    nsecs: 145791271
  frame_id: ''
magnetic_x: -9984.6318359375
magnetic_y: 5156.759765625
magnetic_z: 16052.1689453125
---
header: 
  seq: 1647893
  stamp: 
    secs: 1722858138
    nsecs: 151791271
  frame_id: ''
magnetic_x: -9980.3193359375
magnetic_y: 5139.11962890625
magnetic_z: 16048.376953125
---
header: 
  seq: 1647894
  stamp: 
    secs: 1722858138
    nsecs: 157791271
  frame_id: ''
magnetic_x: -9977.9677734375
magnetic_y: 5141.86376953125
magnetic_z: 16054.064453125
---
header: 
  seq: 1647895
  stamp: 
    secs: 1722858138
    nsecs: 164791271
  frame_id: ''
magnetic_x: -9975.2236328125
magnetic_y: 5154.7998046875
magnetic_z: 16035.1044921875
---
header: 
  seq: 1647896
  stamp: 
    secs: 1722858138
    nsecs: 170791271
  frame_id: ''
magnetic_x: -9972.8720703125
magnetic_y: 5143.82373046875
magnetic_z: 16048.376953125
---
header: 
  seq: 1647897
  stamp: 
    secs: 1722858138
    nsecs: 176791271
  frame_id: ''
magnetic_x: -9974.83203125
magnetic_y: 5152.0556640625
magnetic_z: 16057.224609375
---
header: 
  seq: 1647898
  stamp: 
    secs: 1722858138
    nsecs: 182791271
  frame_id: ''
magnetic_x: -9973.6552734375
magnetic_y: 5152.44775390625
magnetic_z: 16063.544921875
---
header: 
  seq: 1647899
  stamp: 
    secs: 1722858138
    nsecs: 188791271
  frame_id: ''
magnetic_x: -9974.83203125
magnetic_y: 5147.35205078125
magnetic_z: 16055.3291015625
---
header: 
  seq: 1647900
  stamp: 
    secs: 1722858138
    nsecs: 194791271
  frame_id: ''
magnetic_x: -9978.359375
magnetic_y: 5162.6396484375
magnetic_z: 16065.4404296875
---
header: 
  seq: 1647901
  stamp: 
    secs: 1722858138
    nsecs: 200791271
  frame_id: ''
magnetic_x: -9977.9677734375
magnetic_y: 5149.31201171875
magnetic_z: 16044.5849609375
---
header: 
  seq: 1647902
  stamp: 
    secs: 1722858138
    nsecs: 207791271
  frame_id: ''
magnetic_x: -9987.3759765625
magnetic_y: 5141.080078125
magnetic_z: 16051.537109375
---
header: 
  seq: 1647903
  stamp: 
    secs: 1722858138
    nsecs: 213791271
  frame_id: ''
magnetic_x: -9985.0234375
magnetic_y: 5152.44775390625
magnetic_z: 16048.376953125
---
header: 
  seq: 1647904
  stamp: 
    secs: 1722858138
    nsecs: 219791271
  frame_id: ''
magnetic_x: -9982.671875
magnetic_y: 5151.6640625
magnetic_z: 16055.3291015625
---
header: 
  seq: 1647905
  stamp: 
    secs: 1722858138
    nsecs: 225791271
  frame_id: ''
magnetic_x: -9981.8876953125
magnetic_y: 5146.56787109375
magnetic_z: 16064.1767578125
---
header: 
  seq: 1647906
  stamp: 
    secs: 1722858138
    nsecs: 231791271
  frame_id: ''
magnetic_x: -9977.9677734375
magnetic_y: 5152.44775390625
magnetic_z: 16040.1611328125
---
header: 
  seq: 1647907
  stamp: 
    secs: 1722858138
    nsecs: 237791271
  frame_id: ''
magnetic_x: -9972.087890625
magnetic_y: 5154.7998046875
magnetic_z: 16037.6328125
---
header: 
  seq: 1647908
  stamp: 
    secs: 1722858138
    nsecs: 243791271
  frame_id: ''
magnetic_x: -9973.6552734375
magnetic_y: 5160.2880859375
magnetic_z: 16054.6962890625
---
header: 
  seq: 1647909
  stamp: 
    secs: 1722858138
    nsecs: 250791271
  frame_id: ''
magnetic_x: -9976.0078125
magnetic_y: 5162.248046875
magnetic_z: 16057.224609375
---
header: 
  seq: 1647910
  stamp: 
    secs: 1722858138
    nsecs: 256791271
  frame_id: ''
magnetic_x: -9981.8876953125
magnetic_y: 5147.35205078125
magnetic_z: 16058.48828125
---
header: 
  seq: 1647911
  stamp: 
    secs: 1722858138
    nsecs: 262791271
  frame_id: ''
magnetic_x: -9979.1435546875
magnetic_y: 5145.78369140625
magnetic_z: 16045.8486328125
---
header: 
  seq: 1647912
  stamp: 
    secs: 1722858138
    nsecs: 268791271
  frame_id: ''
magnetic_x: -9981.49609375
magnetic_y: 5150.8798828125
magnetic_z: 16054.064453125
---
header: 
  seq: 1647913
  stamp: 
    secs: 1722858138
    nsecs: 274791271
  frame_id: ''
magnetic_x: -9974.439453125
magnetic_y: 5143.431640625
magnetic_z: 16049.640625
---
header: 
  seq: 1647914
  stamp: 
    secs: 1722858138
    nsecs: 280791271
  frame_id: ''
magnetic_x: -9981.49609375
magnetic_y: 5148.52783203125
magnetic_z: 16067.96875
---
header: 
  seq: 1647915
  stamp: 
    secs: 1722858138
    nsecs: 286791271
  frame_id: ''
magnetic_x: -9980.3193359375
magnetic_y: 5155.583984375
magnetic_z: 16046.48046875
---
header: 
  seq: 1647916
  stamp: 
    secs: 1722858138
    nsecs: 293791271
  frame_id: ''
magnetic_x: -9977.18359375
magnetic_y: 5146.9599609375
magnetic_z: 16060.384765625
---
header: 
  seq: 1647917
  stamp: 
    secs: 1722858138
    nsecs: 299791271
  frame_id: ''
magnetic_x: -9982.671875
magnetic_y: 5146.9599609375
magnetic_z: 16031.9443359375
---
header: 
  seq: 1647918
  stamp: 
    secs: 1722858138
    nsecs: 305791271
  frame_id: ''
magnetic_x: -9968.5595703125
magnetic_y: 5150.48779296875
magnetic_z: 16054.064453125
---
header: 
  seq: 1647919
  stamp: 
    secs: 1722858138
    nsecs: 311791271
  frame_id: ''
magnetic_x: -9979.927734375
magnetic_y: 5151.6640625
magnetic_z: 16043.953125
---
header: 
  seq: 1647920
  stamp: 
    secs: 1722858138
    nsecs: 317791271
  frame_id: ''
magnetic_x: -9980.3193359375
magnetic_y: 5156.36767578125
magnetic_z: 16058.48828125
---
header: 
  seq: 1647921
  stamp: 
    secs: 1722858138
    nsecs: 323791271
  frame_id: ''
magnetic_x: -9980.7119140625
magnetic_y: 5146.9599609375
magnetic_z: 16043.3203125
---
header: 
  seq: 1647922
  stamp: 
    secs: 1722858138
    nsecs: 329791271
  frame_id: ''
magnetic_x: -9978.359375
magnetic_y: 5144.2158203125
magnetic_z: 16045.216796875
---
header: 
  seq: 1647923
  stamp: 
    secs: 1722858138
    nsecs: 336791271
  frame_id: ''
magnetic_x: -9986.2001953125
magnetic_y: 5147.35205078125
magnetic_z: 16062.9130859375
---
header: 
  seq: 1647924
  stamp: 
    secs: 1722858138
    nsecs: 342791271
  frame_id: ''
magnetic_x: -9980.3193359375
magnetic_y: 5158.32763671875
magnetic_z: 16062.9130859375
---
header: 
  seq: 1647925
  stamp: 
    secs: 1722858138
    nsecs: 347791271
  frame_id: ''
magnetic_x: -9983.0634765625
magnetic_y: 5139.11962890625
magnetic_z: 16045.216796875
---
header: 
  seq: 1647926
  stamp: 
    secs: 1722858138
    nsecs: 353791271
  frame_id: ''
magnetic_x: -9982.671875
magnetic_y: 5151.6640625
magnetic_z: 16066.072265625
---
header: 
  seq: 1647927
  stamp: 
    secs: 1722858138
    nsecs: 359791271
  frame_id: ''
magnetic_x: -9982.671875
magnetic_y: 5145.0
magnetic_z: 16059.7529296875
---
header: 
  seq: 1647928
  stamp: 
    secs: 1722858138
    nsecs: 365791271
  frame_id: ''
magnetic_x: -9974.0478515625
magnetic_y: 5145.78369140625
magnetic_z: 16049.640625
---
header: 
  seq: 1647929
  stamp: 
    secs: 1722858138
    nsecs: 371791271
  frame_id: ''
magnetic_x: -9978.359375
magnetic_y: 5153.6240234375
magnetic_z: 16055.9609375
---
header: 
  seq: 1647930
  stamp: 
    secs: 1722858138
    nsecs: 378791271
  frame_id: ''
magnetic_x: -9966.9921875
magnetic_y: 5159.89599609375
magnetic_z: 16054.6962890625
---
header: 
  seq: 1647931
  stamp: 
    secs: 1722858138
    nsecs: 384791271
  frame_id: ''
magnetic_x: -9970.1279296875
magnetic_y: 5160.2880859375
magnetic_z: 16060.384765625
---
header: 
  seq: 1647932
  stamp: 
    secs: 1722858138
    nsecs: 390791271
  frame_id: ''
magnetic_x: -9975.6162109375
magnetic_y: 5148.1357421875
magnetic_z: 16045.8486328125
---
header: 
  seq: 1647933
  stamp: 
    secs: 1722858138
    nsecs: 396791271
  frame_id: ''
magnetic_x: -9978.359375
magnetic_y: 5163.81591796875
magnetic_z: 16052.1689453125
---
header: 
  seq: 1647934
  stamp: 
    secs: 1722858138
    nsecs: 402791271
  frame_id: ''
magnetic_x: -9978.751953125
magnetic_y: 5153.23193359375
magnetic_z: 16037.0009765625
---
header: 
  seq: 1647935
  stamp: 
    secs: 1722858138
    nsecs: 408791271
  frame_id: ''
magnetic_x: -9977.576171875
magnetic_y: 5163.423828125
magnetic_z: 16066.072265625
---
header: 
  seq: 1647936
  stamp: 
    secs: 1722858138
    nsecs: 414791271
  frame_id: ''
magnetic_x: -9979.927734375
magnetic_y: 5149.31201171875
magnetic_z: 16052.80078125
---
header: 
  seq: 1647937
  stamp: 
    secs: 1722858138
    nsecs: 421791271
  frame_id: ''
magnetic_x: -9978.359375
magnetic_y: 5151.6640625
magnetic_z: 16050.904296875
---
header: 
  seq: 1647938
  stamp: 
    secs: 1722858138
    nsecs: 427791271
  frame_id: ''
magnetic_x: -9973.6552734375
magnetic_y: 5158.32763671875
magnetic_z: 16051.537109375
---
header: 
  seq: 1647939
  stamp: 
    secs: 1722858138
    nsecs: 433791271
  frame_id: ''
magnetic_x: -9977.9677734375
magnetic_y: 5148.52783203125
magnetic_z: 16040.79296875
---
header: 
  seq: 1647940
  stamp: 
    secs: 1722858138
    nsecs: 439791271
  frame_id: ''
magnetic_x: -9983.84765625
magnetic_y: 5149.7041015625
magnetic_z: 16055.3291015625
---
header: 
  seq: 1647941
  stamp: 
    secs: 1722858138
    nsecs: 445791271
  frame_id: ''
magnetic_x: -9965.423828125
magnetic_y: 5146.56787109375
magnetic_z: 16040.1611328125
---
header: 
  seq: 1647942
  stamp: 
    secs: 1722858138
    nsecs: 451791271
  frame_id: ''
magnetic_x: -9977.18359375
magnetic_y: 5156.36767578125
magnetic_z: 16059.12109375
---
header: 
  seq: 1647943
  stamp: 
    secs: 1722858138
    nsecs: 457791271
  frame_id: ''
magnetic_x: -9973.263671875
magnetic_y: 5154.40771484375
magnetic_z: 16062.9130859375
---
header: 
  seq: 1647944
  stamp: 
    secs: 1722858138
    nsecs: 464791271
  frame_id: ''
magnetic_x: -9972.8720703125
magnetic_y: 5154.7998046875
magnetic_z: 16064.1767578125
---
header: 
  seq: 1647945
  stamp: 
    secs: 1722858138
    nsecs: 470791271
  frame_id: ''
magnetic_x: -9976.7919921875
magnetic_y: 5156.36767578125
magnetic_z: 16050.904296875
---
header: 
  seq: 1647946
  stamp: 
    secs: 1722858138
    nsecs: 476791271
  frame_id: ''
magnetic_x: -9969.7353515625
magnetic_y: 5145.78369140625
magnetic_z: 16047.1123046875
---
header: 
  seq: 1647947
  stamp: 
    secs: 1722858138
    nsecs: 482791271
  frame_id: ''
magnetic_x: -9977.18359375
magnetic_y: 5152.44775390625
magnetic_z: 16060.384765625
---
header: 
  seq: 1647948
  stamp: 
    secs: 1722858138
    nsecs: 488791271
  frame_id: ''
magnetic_x: -9983.0634765625
magnetic_y: 5143.82373046875
magnetic_z: 16064.1767578125
---
header: 
  seq: 1647949
  stamp: 
    secs: 1722858138
    nsecs: 494791271
  frame_id: ''
magnetic_x: -9981.103515625
magnetic_y: 5141.4716796875
magnetic_z: 16066.072265625
---
header: 
  seq: 1647950
  stamp: 
    secs: 1722858138
    nsecs: 500791271
  frame_id: ''
magnetic_x: -9981.49609375
magnetic_y: 5148.1357421875
magnetic_z: 16062.9130859375
---
header: 
  seq: 1647951
  stamp: 
    secs: 1722858138
    nsecs: 507791271
  frame_id: ''
magnetic_x: -9973.6552734375
magnetic_y: 5150.8798828125
magnetic_z: 16044.5849609375
---
header: 
  seq: 1647952
  stamp: 
    secs: 1722858138
    nsecs: 513791271
  frame_id: ''
magnetic_x: -9965.8154296875
magnetic_y: 5144.60791015625
magnetic_z: 16049.0087890625
---
header: 
  seq: 1647953
  stamp: 
    secs: 1722858138
    nsecs: 519791271
  frame_id: ''
magnetic_x: -9974.439453125
magnetic_y: 5148.919921875
magnetic_z: 16049.0087890625
---
header: 
  seq: 1647954
  stamp: 
    secs: 1722858138
    nsecs: 525791271
  frame_id: ''
magnetic_x: -9968.9521484375
magnetic_y: 5146.56787109375
magnetic_z: 16062.9130859375
---
header: 
  seq: 1647955
  stamp: 
    secs: 1722858138
    nsecs: 531791271
  frame_id: ''
magnetic_x: -9972.4794921875
magnetic_y: 5152.44775390625
magnetic_z: 16047.1123046875
---
header: 
  seq: 1647956
  stamp: 
    secs: 1722858138
    nsecs: 537791271
  frame_id: ''
magnetic_x: -9976.0078125
magnetic_y: 5150.48779296875
magnetic_z: 16040.1611328125
---
header: 
  seq: 1647957
  stamp: 
    secs: 1722858138
    nsecs: 543791271
  frame_id: ''
magnetic_x: -9978.359375
magnetic_y: 5148.52783203125
magnetic_z: 16052.1689453125
---
header: 
  seq: 1647958
  stamp: 
    secs: 1722858138
    nsecs: 550791271
  frame_id: ''
magnetic_x: -9971.3037109375
magnetic_y: 5146.56787109375
magnetic_z: 16050.2724609375
---
header: 
  seq: 1647959
  stamp: 
    secs: 1722858138
    nsecs: 556791271
  frame_id: ''
magnetic_x: -9968.9521484375
magnetic_y: 5141.4716796875
magnetic_z: 16054.064453125
---
header: 
  seq: 1647960
  stamp: 
    secs: 1722858138
    nsecs: 562791271
  frame_id: ''
magnetic_x: -9979.5361328125
magnetic_y: 5158.32763671875
magnetic_z: 16055.9609375
---
header: 
  seq: 1647961
  stamp: 
    secs: 1722858138
    nsecs: 568791271
  frame_id: ''
magnetic_x: -9979.927734375
magnetic_y: 5152.44775390625
magnetic_z: 16047.1123046875
---
header: 
  seq: 1647962
  stamp: 
    secs: 1722858138
    nsecs: 574791271
  frame_id: ''
magnetic_x: -9976.7919921875
magnetic_y: 5155.19189453125
magnetic_z: 16050.904296875
---
header: 
  seq: 1647963
  stamp: 
    secs: 1722858138
    nsecs: 580791271
  frame_id: ''
magnetic_x: -9968.16796875
magnetic_y: 5144.60791015625
magnetic_z: 16048.376953125
---
header: 
  seq: 1647964
  stamp: 
    secs: 1722858138
    nsecs: 586791271
  frame_id: ''
magnetic_x: -9976.3994140625
magnetic_y: 5139.11962890625
magnetic_z: 16078.0810546875
---
header: 
  seq: 1647965
  stamp: 
    secs: 1722858138
    nsecs: 593791271
  frame_id: ''
magnetic_x: -9976.3994140625
magnetic_y: 5152.44775390625
magnetic_z: 16058.48828125
---
header: 
  seq: 1647966
  stamp: 
    secs: 1722858138
    nsecs: 599791271
  frame_id: ''
magnetic_x: -9980.3193359375
magnetic_y: 5152.83984375
magnetic_z: 16054.6962890625
---
header: 
  seq: 1647967
  stamp: 
    secs: 1722858138
    nsecs: 604791271
  frame_id: ''
magnetic_x: -9969.7353515625
magnetic_y: 5146.17578125
magnetic_z: 16059.12109375
---
header: 
  seq: 1647968
  stamp: 
    secs: 1722858138
    nsecs: 610791271
  frame_id: ''
magnetic_x: -9983.0634765625
magnetic_y: 5156.759765625
magnetic_z: 16051.537109375
---
header: 
  seq: 1647969
  stamp: 
    secs: 1722858138
    nsecs: 616791271
  frame_id: ''
magnetic_x: -9972.087890625
magnetic_y: 5144.60791015625
magnetic_z: 16058.48828125
---
header: 
  seq: 1647970
  stamp: 
    secs: 1722858138
    nsecs: 622791271
  frame_id: ''
magnetic_x: -9968.9521484375
magnetic_y: 5146.9599609375
magnetic_z: 16061.6484375
---
header: 
  seq: 1647971
  stamp: 
    secs: 1722858138
    nsecs: 628791271
  frame_id: ''
magnetic_x: -9978.359375
magnetic_y: 5150.8798828125
magnetic_z: 16052.1689453125
---
header: 
  seq: 1647972
  stamp: 
    secs: 1722858138
    nsecs: 635791271
  frame_id: ''
magnetic_x: -9981.49609375
magnetic_y: 5158.32763671875
magnetic_z: 16043.953125
---
header: 
  seq: 1647973
  stamp: 
    secs: 1722858138
    nsecs: 641791271
  frame_id: ''
magnetic_x: -9971.6953125
magnetic_y: 5153.6240234375
magnetic_z: 16040.1611328125
---
header: 
  seq: 1647974
  stamp: 
    secs: 1722858138
    nsecs: 647791271
  frame_id: ''
magnetic_x: -9966.599609375
magnetic_y: 5140.68798828125
magnetic_z: 16050.904296875
---
header: 
  seq: 1647975
  stamp: 
    secs: 1722858138
    nsecs: 653791271
  frame_id: ''
magnetic_x: -9972.8720703125
magnetic_y: 5141.86376953125
magnetic_z: 16049.640625
---
header: 
  seq: 1647976
  stamp: 
    secs: 1722858138
    nsecs: 659791271
  frame_id: ''
magnetic_x: -9976.0078125
magnetic_y: 5150.48779296875
magnetic_z: 16060.384765625
---
header: 
  seq: 1647977
  stamp: 
    secs: 1722858138
    nsecs: 665791271
  frame_id: ''
magnetic_x: -9977.576171875
magnetic_y: 5148.1357421875
magnetic_z: 16067.3369140625
---
header: 
  seq: 1647978
  stamp: 
    secs: 1722858138
    nsecs: 671791271
  frame_id: ''
magnetic_x: -9972.8720703125
magnetic_y: 5150.48779296875
magnetic_z: 16030.6806640625
---
header: 
  seq: 1647979
  stamp: 
    secs: 1722858138
    nsecs: 678791271
  frame_id: ''
magnetic_x: -9971.6953125
magnetic_y: 5156.36767578125
magnetic_z: 16054.064453125
---
header: 
  seq: 1647980
  stamp: 
    secs: 1722858138
    nsecs: 684791271
  frame_id: ''
magnetic_x: -9972.8720703125
magnetic_y: 5152.83984375
magnetic_z: 16035.736328125
---
header: 
  seq: 1647981
  stamp: 
    secs: 1722858138
    nsecs: 690791271
  frame_id: ''
magnetic_x: -9974.83203125
magnetic_y: 5146.56787109375
magnetic_z: 16040.1611328125
---
header: 
  seq: 1647982
  stamp: 
    secs: 1722858138
    nsecs: 696791271
  frame_id: ''
magnetic_x: -9966.2080078125
magnetic_y: 5141.080078125
magnetic_z: 16041.4248046875
---
header: 
  seq: 1647983
  stamp: 
    secs: 1722858138
    nsecs: 702791271
  frame_id: ''
magnetic_x: -9972.087890625
magnetic_y: 5145.39208984375
magnetic_z: 16043.953125
---
header: 
  seq: 1647984
  stamp: 
    secs: 1722858138
    nsecs: 708791271
  frame_id: ''
magnetic_x: -9970.51953125
magnetic_y: 5148.52783203125
magnetic_z: 16052.80078125
---
header: 
  seq: 1647985
  stamp: 
    secs: 1722858138
    nsecs: 714791271
  frame_id: ''
magnetic_x: -9966.9921875
magnetic_y: 5158.7197265625
magnetic_z: 16055.3291015625
---
header: 
  seq: 1647986
  stamp: 
    secs: 1722858138
    nsecs: 721791271
  frame_id: ''
magnetic_x: -9978.359375
magnetic_y: 5152.44775390625
magnetic_z: 16035.1044921875
---
header: 
  seq: 1647987
  stamp: 
    secs: 1722858138
    nsecs: 727791271
  frame_id: ''
magnetic_x: -9970.912109375
magnetic_y: 5146.17578125
magnetic_z: 16062.2802734375
---
header: 
  seq: 1647988
  stamp: 
    secs: 1722858138
    nsecs: 733791271
  frame_id: ''
magnetic_x: -9978.359375
magnetic_y: 5145.78369140625
magnetic_z: 16055.9609375
---
header: 
  seq: 1647989
  stamp: 
    secs: 1722858138
    nsecs: 739791271
  frame_id: ''
magnetic_x: -9978.751953125
magnetic_y: 5150.095703125
magnetic_z: 16053.4326171875
---
header: 
  seq: 1647990
  stamp: 
    secs: 1722858138
    nsecs: 745791271
  frame_id: ''
magnetic_x: -9966.599609375
magnetic_y: 5142.64794921875
magnetic_z: 16031.3125
---
header: 
  seq: 1647991
  stamp: 
    secs: 1722858138
    nsecs: 751791271
  frame_id: ''
magnetic_x: -9965.0322265625
magnetic_y: 5141.080078125
magnetic_z: 16045.216796875
---
header: 
  seq: 1647992
  stamp: 
    secs: 1722858138
    nsecs: 758791271
  frame_id: ''
magnetic_x: -9967.775390625
magnetic_y: 5148.52783203125
magnetic_z: 16045.216796875
---
header: 
  seq: 1647993
  stamp: 
    secs: 1722858138
    nsecs: 764791271
  frame_id: ''
magnetic_x: -9977.18359375
magnetic_y: 5146.17578125
magnetic_z: 16049.640625
---
header: 
  seq: 1647994
  stamp: 
    secs: 1722858138
    nsecs: 770791271
  frame_id: ''
magnetic_x: -9981.49609375
magnetic_y: 5148.1357421875
magnetic_z: 16045.8486328125
---
header: 
  seq: 1647995
  stamp: 
    secs: 1722858138
    nsecs: 776791271
  frame_id: ''
magnetic_x: -9972.8720703125
magnetic_y: 5149.31201171875
magnetic_z: 16049.640625
---
header: 
  seq: 1647996
  stamp: 
    secs: 1722858138
    nsecs: 782791271
  frame_id: ''
magnetic_x: -9972.4794921875
magnetic_y: 5146.9599609375
magnetic_z: 16052.1689453125
---
header: 
  seq: 1647997
  stamp: 
    secs: 1722858138
    nsecs: 788791271
  frame_id: ''
magnetic_x: -9978.751953125
magnetic_y: 5146.9599609375
magnetic_z: 16050.904296875
---
header: 
  seq: 1647998
  stamp: 
    secs: 1722858138
    nsecs: 794791271
  frame_id: ''
magnetic_x: -9966.599609375
magnetic_y: 5148.52783203125
magnetic_z: 16043.3203125
---
header: 
  seq: 1647999
  stamp: 
    secs: 1722858138
    nsecs: 801791271
  frame_id: ''
magnetic_x: -9972.8720703125
magnetic_y: 5133.23974609375
magnetic_z: 16051.537109375
---
header: 
  seq: 1648000
  stamp: 
    secs: 1722858138
    nsecs: 807791271
  frame_id: ''
magnetic_x: -9978.751953125
magnetic_y: 5152.83984375
magnetic_z: 16050.2724609375
---
header: 
  seq: 1648001
  stamp: 
    secs: 1722858138
    nsecs: 813791271
  frame_id: ''
magnetic_x: -9973.263671875
magnetic_y: 5152.44775390625
magnetic_z: 16043.953125
---
header: 
  seq: 1648002
  stamp: 
    secs: 1722858138
    nsecs: 819791271
  frame_id: ''
magnetic_x: -9973.263671875
magnetic_y: 5151.27197265625
magnetic_z: 16053.4326171875
---
header: 
  seq: 1648003
  stamp: 
    secs: 1722858138
    nsecs: 825791271
  frame_id: ''
magnetic_x: -9976.7919921875
magnetic_y: 5145.39208984375
magnetic_z: 16054.6962890625
---
header: 
  seq: 1648004
  stamp: 
    secs: 1722858138
    nsecs: 831791271
  frame_id: ''
magnetic_x: -9968.16796875
magnetic_y: 5150.8798828125
magnetic_z: 16035.736328125
---
header: 
  seq: 1648005
  stamp: 
    secs: 1722858138
    nsecs: 837791271
  frame_id: ''
magnetic_x: -9972.4794921875
magnetic_y: 5159.50390625
magnetic_z: 16043.953125
---
header: 
  seq: 1648006
  stamp: 
    secs: 1722858138
    nsecs: 844791271
  frame_id: ''
magnetic_x: -9975.2236328125
magnetic_y: 5144.2158203125
magnetic_z: 16043.3203125
---
header: 
  seq: 1648007
  stamp: 
    secs: 1722858138
    nsecs: 850791271
  frame_id: ''
magnetic_x: -9980.7119140625
magnetic_y: 5149.7041015625
magnetic_z: 16063.544921875
---
header: 
  seq: 1648008
  stamp: 
    secs: 1722858138
    nsecs: 856791271
  frame_id: ''
magnetic_x: -9974.439453125
magnetic_y: 5153.23193359375
magnetic_z: 16040.1611328125
---
header: 
  seq: 1648009
  stamp: 
    secs: 1722858138
    nsecs: 862791271
  frame_id: ''
magnetic_x: -9979.1435546875
magnetic_y: 5159.11181640625
magnetic_z: 16043.953125
---
header: 
  seq: 1648010
  stamp: 
    secs: 1722858138
    nsecs: 867791271
  frame_id: ''
magnetic_x: -9974.83203125
magnetic_y: 5160.2880859375
magnetic_z: 16062.9130859375
---
header: 
  seq: 1648011
  stamp: 
    secs: 1722858138
    nsecs: 873791271
  frame_id: ''
magnetic_x: -9965.8154296875
magnetic_y: 5147.74365234375
magnetic_z: 16049.640625
---
header: 
  seq: 1648012
  stamp: 
    secs: 1722858138
    nsecs: 879791271
  frame_id: ''
magnetic_x: -9965.0322265625
magnetic_y: 5154.015625
magnetic_z: 16049.0087890625
---
header: 
  seq: 1648013
  stamp: 
    secs: 1722858138
    nsecs: 886791271
  frame_id: ''
magnetic_x: -9978.751953125
magnetic_y: 5150.48779296875
magnetic_z: 16050.904296875
---
header: 
  seq: 1648014
  stamp: 
    secs: 1722858138
    nsecs: 892791271
  frame_id: ''
magnetic_x: -9973.263671875
magnetic_y: 5147.74365234375
magnetic_z: 16050.2724609375
---
header: 
  seq: 1648015
  stamp: 
    secs: 1722858138
    nsecs: 898791271
  frame_id: ''
magnetic_x: -9965.0322265625
magnetic_y: 5139.90380859375
magnetic_z: 16043.953125
---
header: 
  seq: 1648016
  stamp: 
    secs: 1722858138
    nsecs: 904791271
  frame_id: ''
magnetic_x: -9973.263671875
magnetic_y: 5154.015625
magnetic_z: 16034.47265625
---
header: 
  seq: 1648017
  stamp: 
    secs: 1722858138
    nsecs: 910791271
  frame_id: ''
magnetic_x: -9977.18359375
magnetic_y: 5147.74365234375
magnetic_z: 16050.904296875
---
header: 
  seq: 1648018
  stamp: 
    secs: 1722858138
    nsecs: 916791271
  frame_id: ''
magnetic_x: -9973.6552734375
magnetic_y: 5145.0
magnetic_z: 16057.8564453125
---
header: 
  seq: 1648019
  stamp: 
    secs: 1722858138
    nsecs: 922791271
  frame_id: ''
magnetic_x: -9963.4638671875
magnetic_y: 5150.095703125
magnetic_z: 16063.544921875
---
header: 
  seq: 1648020
  stamp: 
    secs: 1722858138
    nsecs: 929791271
  frame_id: ''
magnetic_x: -9977.18359375
magnetic_y: 5151.6640625
magnetic_z: 16050.2724609375
---
header: 
  seq: 1648021
  stamp: 
    secs: 1722858138
    nsecs: 935791271
  frame_id: ''
magnetic_x: -9977.576171875
magnetic_y: 5153.23193359375
magnetic_z: 16059.7529296875
---
header: 
  seq: 1648022
  stamp: 
    secs: 1722858138
    nsecs: 941791271
  frame_id: ''
magnetic_x: -9974.439453125
magnetic_y: 5146.17578125
magnetic_z: 16036.369140625
---
header: 
  seq: 1648023
  stamp: 
    secs: 1722858138
    nsecs: 947791271
  frame_id: ''
magnetic_x: -9976.3994140625
magnetic_y: 5148.919921875
magnetic_z: 16053.4326171875
---
header: 
  seq: 1648024
  stamp: 
    secs: 1722858138
    nsecs: 953791271
  frame_id: ''
magnetic_x: -9977.9677734375
magnetic_y: 5153.6240234375
magnetic_z: 16054.6962890625
---
header: 
  seq: 1648025
  stamp: 
    secs: 1722858138
    nsecs: 959791271
  frame_id: ''
magnetic_x: -9974.83203125
magnetic_y: 5161.4638671875
magnetic_z: 16041.4248046875
---
header: 
  seq: 1648026
  stamp: 
    secs: 1722858138
    nsecs: 965791271
  frame_id: ''
magnetic_x: -9972.4794921875
magnetic_y: 5147.74365234375
magnetic_z: 16052.80078125
---
header: 
  seq: 1648027
  stamp: 
    secs: 1722858138
    nsecs: 972791271
  frame_id: ''
magnetic_x: -9969.7353515625
magnetic_y: 5140.68798828125
magnetic_z: 16039.5283203125
---
header: 
  seq: 1648028
  stamp: 
    secs: 1722858138
    nsecs: 978791271
  frame_id: ''
magnetic_x: -9978.359375
magnetic_y: 5144.60791015625
magnetic_z: 16038.896484375
---
header: 
  seq: 1648029
  stamp: 
    secs: 1722858138
    nsecs: 984791271
  frame_id: ''
magnetic_x: -9967.775390625
magnetic_y: 5141.080078125
magnetic_z: 16047.7451171875
---
header: 
  seq: 1648030
  stamp: 
    secs: 1722858138
    nsecs: 990791271
  frame_id: ''
magnetic_x: -9980.3193359375
magnetic_y: 5138.3359375
magnetic_z: 16040.1611328125
---
header: 
  seq: 1648031
  stamp: 
    secs: 1722858138
    nsecs: 996791271
  frame_id: ''
magnetic_x: -9981.8876953125
magnetic_y: 5146.56787109375
magnetic_z: 16033.208984375
---
header: 
  seq: 1648032
  stamp: 
    secs: 1722858139
    nsecs:   2791271
  frame_id: ''
magnetic_x: -9977.18359375
magnetic_y: 5146.9599609375
magnetic_z: 16062.2802734375
---
header: 
  seq: 1648033
  stamp: 
    secs: 1722858139
    nsecs:   8791271
  frame_id: ''
magnetic_x: -9968.5595703125
magnetic_y: 5156.36767578125
magnetic_z: 16040.1611328125
---
header: 
  seq: 1648034
  stamp: 
    secs: 1722858139
    nsecs:  15791271
  frame_id: ''
magnetic_x: -9968.9521484375
magnetic_y: 5159.11181640625
magnetic_z: 16049.640625
---
header: 
  seq: 1648035
  stamp: 
    secs: 1722858139
    nsecs:  21791271
  frame_id: ''
magnetic_x: -9974.83203125
magnetic_y: 5154.40771484375
magnetic_z: 16062.9130859375
---
header: 
  seq: 1648036
  stamp: 
    secs: 1722858139
    nsecs:  27791271
  frame_id: ''
magnetic_x: -9983.84765625
magnetic_y: 5155.97607421875
magnetic_z: 16054.064453125
---
header: 
  seq: 1648037
  stamp: 
    secs: 1722858139
    nsecs:  33791271
  frame_id: ''
magnetic_x: -9977.18359375
magnetic_y: 5141.86376953125
magnetic_z: 16051.537109375
---
header: 
  seq: 1648038
  stamp: 
    secs: 1722858139
    nsecs:  39791271
  frame_id: ''
magnetic_x: -9978.751953125
magnetic_y: 5156.36767578125
magnetic_z: 16054.6962890625
---
header: 
  seq: 1648039
  stamp: 
    secs: 1722858139
    nsecs:  45791271
  frame_id: ''
magnetic_x: -9971.3037109375
magnetic_y: 5154.7998046875
magnetic_z: 16057.224609375
---
header: 
  seq: 1648040
  stamp: 
    secs: 1722858139
    nsecs:  51791271
  frame_id: ''
magnetic_x: -9973.6552734375
magnetic_y: 5150.095703125
magnetic_z: 16052.1689453125
---
header: 
  seq: 1648041
  stamp: 
    secs: 1722858139
    nsecs:  58791271
  frame_id: ''
magnetic_x: -9973.6552734375
magnetic_y: 5142.255859375
magnetic_z: 16064.80859375
---
header: 
  seq: 1648042
  stamp: 
    secs: 1722858139
    nsecs:  64791271
  frame_id: ''
magnetic_x: -9981.103515625
magnetic_y: 5150.095703125
magnetic_z: 16054.6962890625
---
header: 
  seq: 1648043
  stamp: 
    secs: 1722858139
    nsecs:  70791271
  frame_id: ''
magnetic_x: -9979.5361328125
magnetic_y: 5148.919921875
magnetic_z: 16061.0166015625
---
header: 
  seq: 1648044
  stamp: 
    secs: 1722858139
    nsecs:  76791271
  frame_id: ''
magnetic_x: -9971.6953125
magnetic_y: 5147.35205078125
magnetic_z: 16062.2802734375
---
header: 
  seq: 1648045
  stamp: 
    secs: 1722858139
    nsecs:  82791271
  frame_id: ''
magnetic_x: -9976.0078125
magnetic_y: 5146.56787109375
magnetic_z: 16053.4326171875
---
header: 
  seq: 1648046
  stamp: 
    secs: 1722858139
    nsecs:  88791271
  frame_id: ''
magnetic_x: -9969.34375
magnetic_y: 5150.8798828125
magnetic_z: 16045.8486328125
---
header: 
  seq: 1648047
  stamp: 
    secs: 1722858139
    nsecs:  94791271
  frame_id: ''
magnetic_x: -9978.751953125
magnetic_y: 5153.23193359375
magnetic_z: 16042.6884765625
---
header: 
  seq: 1648048
  stamp: 
    secs: 1722858139
    nsecs: 101791271
  frame_id: ''
magnetic_x: -9966.9921875
magnetic_y: 5146.17578125
magnetic_z: 16046.48046875
---
header: 
  seq: 1648049
  stamp: 
    secs: 1722858139
    nsecs: 107791271
  frame_id: ''
magnetic_x: -9970.51953125
magnetic_y: 5139.90380859375
magnetic_z: 16042.6884765625
---
header: 
  seq: 1648050
  stamp: 
    secs: 1722858139
    nsecs: 113791271
  frame_id: ''
magnetic_x: -9976.3994140625
magnetic_y: 5156.759765625
magnetic_z: 16040.79296875
---
header: 
  seq: 1648051
  stamp: 
    secs: 1722858139
    nsecs: 119791271
  frame_id: ''
magnetic_x: -9972.8720703125
magnetic_y: 5144.60791015625
magnetic_z: 16062.2802734375
---
header: 
  seq: 1648052
  stamp: 
    secs: 1722858139
    nsecs: 125791271
  frame_id: ''
magnetic_x: -9964.248046875
magnetic_y: 5141.080078125
magnetic_z: 16040.79296875
---
header: 
  seq: 1648053
  stamp: 
    secs: 1722858139
    nsecs: 130791271
  frame_id: ''
magnetic_x: -9975.6162109375
magnetic_y: 5143.431640625
magnetic_z: 16054.6962890625
---
header: 
  seq: 1648054
  stamp: 
    secs: 1722858139
    nsecs: 136791271
  frame_id: ''
magnetic_x: -9979.1435546875
magnetic_y: 5154.40771484375
magnetic_z: 16034.47265625
---
header: 
  seq: 1648055
  stamp: 
    secs: 1722858139
    nsecs: 143791271
  frame_id: ''
magnetic_x: -9975.6162109375
magnetic_y: 5147.35205078125
magnetic_z: 16055.3291015625
---
header: 
  seq: 1648056
  stamp: 
    secs: 1722858139
    nsecs: 149791271
  frame_id: ''
magnetic_x: -9973.6552734375
magnetic_y: 5148.919921875
magnetic_z: 16054.6962890625
---
header: 
  seq: 1648057
  stamp: 
    secs: 1722858139
    nsecs: 155791271
  frame_id: ''
magnetic_x: -9974.83203125
magnetic_y: 5148.52783203125
magnetic_z: 16051.537109375
---
header: 
  seq: 1648058
  stamp: 
    secs: 1722858139
    nsecs: 161791271
  frame_id: ''
magnetic_x: -9976.0078125
magnetic_y: 5153.6240234375
magnetic_z: 16048.376953125
---
header: 
  seq: 1648059
  stamp: 
    secs: 1722858139
    nsecs: 167791271
  frame_id: ''
magnetic_x: -9974.83203125
magnetic_y: 5148.919921875
magnetic_z: 16043.3203125
---
header: 
  seq: 1648060
  stamp: 
    secs: 1722858139
    nsecs: 173791271
  frame_id: ''
magnetic_x: -9965.0322265625
magnetic_y: 5139.90380859375
magnetic_z: 16045.216796875
---
header: 
  seq: 1648061
  stamp: 
    secs: 1722858139
    nsecs: 179791271
  frame_id: ''
magnetic_x: -9974.439453125
magnetic_y: 5150.48779296875
magnetic_z: 16054.064453125
---
header: 
  seq: 1648062
  stamp: 
    secs: 1722858139
    nsecs: 186791271
  frame_id: ''
magnetic_x: -9962.2880859375
magnetic_y: 5145.0
magnetic_z: 16059.7529296875
---
header: 
  seq: 1648063
  stamp: 
    secs: 1722858139
    nsecs: 192791271
  frame_id: ''
magnetic_x: -9973.263671875
magnetic_y: 5150.48779296875
magnetic_z: 16064.1767578125
---
header: 
  seq: 1648064
  stamp: 
    secs: 1722858139
    nsecs: 198791271
  frame_id: ''
magnetic_x: -9963.85546875
magnetic_y: 5146.9599609375
magnetic_z: 16061.6484375
---
header: 
  seq: 1648065
  stamp: 
    secs: 1722858139
    nsecs: 204791271
  frame_id: ''
magnetic_x: -9960.7197265625
magnetic_y: 5141.080078125
magnetic_z: 16067.96875
---
header: 
  seq: 1648066
  stamp: 
    secs: 1722858139
    nsecs: 210791271
  frame_id: ''
magnetic_x: -9969.34375
magnetic_y: 5155.97607421875
magnetic_z: 16077.44921875
---
header: 
  seq: 1648067
  stamp: 
    secs: 1722858139
    nsecs: 216791271
  frame_id: ''
magnetic_x: -9968.9521484375
magnetic_y: 5163.423828125
magnetic_z: 16087.560546875
---
header: 
  seq: 1648068
  stamp: 
    secs: 1722858139
    nsecs: 222791271
  frame_id: ''
magnetic_x: -9959.5439453125
magnetic_y: 5160.2880859375
magnetic_z: 16081.2412109375
---
header: 
  seq: 1648069
  stamp: 
    secs: 1722858139
    nsecs: 229791271
  frame_id: ''
magnetic_x: -9966.599609375
magnetic_y: 5162.6396484375
magnetic_z: 16097.041015625
---
header: 
  seq: 1648070
  stamp: 
    secs: 1722858139
    nsecs: 235791271
  frame_id: ''
magnetic_x: -9965.0322265625
magnetic_y: 5152.44775390625
magnetic_z: 16071.7607421875
---
header: 
  seq: 1648071
  stamp: 
    secs: 1722858139
    nsecs: 241791271
  frame_id: ''
magnetic_x: -9973.6552734375
magnetic_y: 5141.080078125
magnetic_z: 16061.0166015625
---
header: 
  seq: 1648072
  stamp: 
    secs: 1722858139
    nsecs: 247791271
  frame_id: ''
magnetic_x: -9983.4560546875
magnetic_y: 5137.15966796875
magnetic_z: 16049.640625
---
header: 
  seq: 1648073
  stamp: 
    secs: 1722858139
    nsecs: 253791271
  frame_id: ''
magnetic_x: -9977.18359375
magnetic_y: 5126.18408203125
magnetic_z: 16043.3203125
---
header: 
  seq: 1648074
  stamp: 
    secs: 1722858139
    nsecs: 259791271
  frame_id: ''
magnetic_x: -9983.0634765625
magnetic_y: 5130.10400390625
magnetic_z: 16018.041015625
---
header: 
  seq: 1648075
  stamp: 
    secs: 1722858139
    nsecs: 265791271
  frame_id: ''
magnetic_x: -9985.0234375
magnetic_y: 5125.0078125
magnetic_z: 16044.5849609375
---
header: 
  seq: 1648076
  stamp: 
    secs: 1722858139
    nsecs: 272791271
  frame_id: ''
magnetic_x: -9983.4560546875
magnetic_y: 5132.4560546875
magnetic_z: 16020.568359375
---
header: 
  seq: 1648077
  stamp: 
    secs: 1722858139
    nsecs: 278791271
  frame_id: ''
magnetic_x: -9992.86328125
magnetic_y: 5135.591796875
magnetic_z: 16028.78515625
---
header: 
  seq: 1648078
  stamp: 
    secs: 1722858139
    nsecs: 284791271
  frame_id: ''
magnetic_x: -9988.5517578125
magnetic_y: 5141.080078125
magnetic_z: 16032.5771484375
---
header: 
  seq: 1648079
  stamp: 
    secs: 1722858139
    nsecs: 290791271
  frame_id: ''
magnetic_x: -9975.6162109375
magnetic_y: 5142.64794921875
magnetic_z: 16052.1689453125
---
header: 
  seq: 1648080
  stamp: 
    secs: 1722858139
    nsecs: 296791271
  frame_id: ''
magnetic_x: -9979.1435546875
magnetic_y: 5162.248046875
magnetic_z: 16067.3369140625
---
header: 
  seq: 1648081
  stamp: 
    secs: 1722858139
    nsecs: 302791271
  frame_id: ''
magnetic_x: -9970.912109375
magnetic_y: 5168.91162109375
magnetic_z: 16061.6484375
---
header: 
  seq: 1648082
  stamp: 
    secs: 1722858139
    nsecs: 308791271
  frame_id: ''
magnetic_x: -9967.3837890625
magnetic_y: 5159.89599609375
magnetic_z: 16055.3291015625
---
header: 
  seq: 1648083
  stamp: 
    secs: 1722858139
    nsecs: 315791271
  frame_id: ''
magnetic_x: -9992.080078125
magnetic_y: 5132.4560546875
magnetic_z: 16024.3603515625
---
header: 
  seq: 1648084
  stamp: 
    secs: 1722858139
    nsecs: 321791271
  frame_id: ''
magnetic_x: -9993.255859375
magnetic_y: 5118.73583984375
magnetic_z: 16006.6650390625
---
header: 
  seq: 1648085
  stamp: 
    secs: 1722858139
    nsecs: 327791271
  frame_id: ''
magnetic_x: -9981.8876953125
magnetic_y: 5121.087890625
magnetic_z: 16003.5048828125
---
header: 
  seq: 1648086
  stamp: 
    secs: 1722858139
    nsecs: 333791271
  frame_id: ''
magnetic_x: -9998.744140625
magnetic_y: 5130.49609375
magnetic_z: 16014.2490234375
---
header: 
  seq: 1648087
  stamp: 
    secs: 1722858139
    nsecs: 339791271
  frame_id: ''
magnetic_x: -9989.3359375
magnetic_y: 5135.98388671875
magnetic_z: 16038.2646484375
---
header: 
  seq: 1648088
  stamp: 
    secs: 1722858139
    nsecs: 345791271
  frame_id: ''
magnetic_x: -9982.671875
magnetic_y: 5152.44775390625
magnetic_z: 16066.072265625
---
header: 
  seq: 1648089
  stamp: 
    secs: 1722858139
    nsecs: 351791271
  frame_id: ''
magnetic_x: -9959.5439453125
magnetic_y: 5168.52001953125
magnetic_z: 16062.2802734375
---
header: 
  seq: 1648090
  stamp: 
    secs: 1722858139
    nsecs: 358791271
  frame_id: ''
magnetic_x: -9966.599609375
magnetic_y: 5160.6796875
magnetic_z: 16065.4404296875
---
header: 
  seq: 1648091
  stamp: 
    secs: 1722858139
    nsecs: 364791271
  frame_id: ''
magnetic_x: -9967.3837890625
magnetic_y: 5148.52783203125
magnetic_z: 16061.6484375
---
header: 
  seq: 1648092
  stamp: 
    secs: 1722858139
    nsecs: 370791271
  frame_id: ''
magnetic_x: -9974.0478515625
magnetic_y: 5141.4716796875
magnetic_z: 16037.6328125
---
header: 
  seq: 1648093
  stamp: 
    secs: 1722858139
    nsecs: 376791271
  frame_id: ''
magnetic_x: -9976.0078125
magnetic_y: 5147.74365234375
magnetic_z: 16031.3125
---
header: 
  seq: 1648094
  stamp: 
    secs: 1722858139
    nsecs: 382791271
  frame_id: ''
magnetic_x: -9974.439453125
magnetic_y: 5146.56787109375
magnetic_z: 16009.8251953125
---
header: 
  seq: 1648095
  stamp: 
    secs: 1722858139
    nsecs: 387791271
  frame_id: ''
magnetic_x: -9986.591796875
magnetic_y: 5132.06396484375
magnetic_z: 16011.0888671875
---
header: 
  seq: 1648096
  stamp: 
    secs: 1722858139
    nsecs: 393791271
  frame_id: ''
magnetic_x: -9985.0234375
magnetic_y: 5123.83203125
magnetic_z: 15997.1845703125
---
header: 
  seq: 1648097
  stamp: 
    secs: 1722858139
    nsecs: 400791271
  frame_id: ''
magnetic_x: -9977.18359375
magnetic_y: 5132.84765625
magnetic_z: 16028.78515625
---
header: 
  seq: 1648098
  stamp: 
    secs: 1722858139
    nsecs: 406791271
  frame_id: ''
magnetic_x: -9968.5595703125
magnetic_y: 5148.1357421875
magnetic_z: 16056.5927734375
---
header: 
  seq: 1648099
  stamp: 
    secs: 1722858139
    nsecs: 412791271
  frame_id: ''
magnetic_x: -9963.0712890625
magnetic_y: 5159.50390625
magnetic_z: 16035.736328125
---
header: 
  seq: 1648100
  stamp: 
    secs: 1722858139
    nsecs: 418791271
  frame_id: ''
magnetic_x: -9964.248046875
magnetic_y: 5160.2880859375
magnetic_z: 16044.5849609375
---
header: 
  seq: 1648101
  stamp: 
    secs: 1722858139
    nsecs: 424791271
  frame_id: ''
magnetic_x: -9969.34375
magnetic_y: 5192.0400390625
magnetic_z: 16043.3203125
---
header: 
  seq: 1648102
  stamp: 
    secs: 1722858139
    nsecs: 430791271
  frame_id: ''
magnetic_x: -9964.248046875
magnetic_y: 5168.91162109375
magnetic_z: 15918.1845703125
---
header: 
  seq: 1648103
  stamp: 
    secs: 1722858139
    nsecs: 436791271
  frame_id: ''
magnetic_x: -9968.9521484375
magnetic_y: 5129.7119140625
magnetic_z: 15909.3369140625
---
header: 
  seq: 1648104
  stamp: 
    secs: 1722858139
    nsecs: 443791271
  frame_id: ''
magnetic_x: -9988.16015625
magnetic_y: 5107.36767578125
magnetic_z: 16038.896484375
---
header: 
  seq: 1648105
  stamp: 
    secs: 1722858139
    nsecs: 449791271
  frame_id: ''
magnetic_x: -9986.2001953125
magnetic_y: 5114.423828125
magnetic_z: 16152.0244140625
---
header: 
  seq: 1648106
