header: 
  seq: 1
  stamp: 
    secs: 1722858154
    nsecs: 375287771
  frame_id: ''
twist: 
  linear: 
    x: 0.5555887607829043
    y: 0.08119013428773586
    z: 0.0
  angular: 
    x: 0.0
    y: 0.0
    z: 0.0
---
header: 
  seq: 2
  stamp: 
    secs: 1722858154
    nsecs: 384343385
  frame_id: ''
twist: 
  linear: 
    x: 0.5555220565730956
    y: 0.08104178023138867
    z: 0.0
  angular: 
    x: 0.0
    y: 0.0
    z: 0.0
---
header: 
  seq: 3
  stamp: 
    secs: 1722858154
    nsecs: 402745246
  frame_id: ''
twist: 
  linear: 
    x: 0.5556862274339661
    y: 0.08122786681739516
    z: 0.0
  angular: 
    x: 0.0
    y: 0.0
    z: 0.0
---
header: 
  seq: 4
  stamp: 
    secs: 1722858154
    nsecs: 420160531
  frame_id: ''
twist: 
  linear: 
    x: 0.5555235766530097
    y: 0.08094421667027993
    z: 0.0
  angular: 
    x: 0.0
    y: 0.0
    z: 0.0
---
header: 
  seq: 5
  stamp: 
    secs: 1722858154
    nsecs: 438525915
  frame_id: ''
twist: 
  linear: 
    x: 0.5557021058486608
    y: 0.0811497483170525
    z: 0.0
  angular: 
    x: 0.0
    y: 0.0
    z: 0.0
---
header: 
  seq: 6
  stamp: 
    secs: 1722858154
    nsecs: 451706647
  frame_id: ''
twist: 
  linear: 
    x: 0.5557029798091104
    y: 0.08110101080908677
    z: 0.0
  angular: 
    x: 0.0
    y: 0.0
    z: 0.0
---
header: 
  seq: 7
  stamp: 
    secs: 1722858154
    nsecs: 462553501
  frame_id: ''
twist: 
  linear: 
    x: 0.5556137021865224
    y: 0.08092337404525508
    z: 0.0
  angular: 
    x: 0.0
    y: 0.0
    z: 0.0
---
header: 
  seq: 8
  stamp: 
    secs: 1722858154
    nsecs: 486123561
  frame_id: ''
twist: 
  linear: 
    x: 0.5559622920421364
    y: 0.08078455408029792
    z: 0.0
  angular: 
    x: 0.0
    y: 0.0
    z: 0.0
---
header: 
  seq: 9
  stamp: 
    secs: 1722858154
    nsecs: 498056888
  frame_id: ''
twist: 
  linear: 
    x: 0.5560049554443978
    y: 0.0807941507980223
    z: 0.0
  angular: 
    x: 0.0
    y: 0.0
    z: 0.0
---
header: 
  seq: 10
  stamp: 
    secs: 1722858154
    nsecs: 514757633
  frame_id: ''
twist: 
  linear: 
    x: 0.5560477015107431
    y: 0.08081684339069486
    z: 0.0
  angular: 
    x: 0.0
    y: 0.0
    z: 0.0
---
header: 
  seq: 11
  stamp: 
    secs: 1722858154
    nsecs: 532034873
  frame_id: ''
twist: 
  linear: 
    x: 0.5560694315279857
    y: 0.08060831818212853
    z: 0.0
  angular: 
    x: 0.0
    y: 0.0
    z: 0.0
---
header: 
  seq: 12
  stamp: 
    secs: 1722858154
    nsecs: 547623634
  frame_id: ''
twist: 
  linear: 
    x: 0.5561292705704632
    y: 0.08058893981861252
    z: 0.0
  angular: 
    x: 0.0
    y: 0.0
    z: 0.0
---
header: 
  seq: 13
  stamp: 
    secs: 1722858154
    nsecs: 556923151
  frame_id: ''
twist: 
  linear: 
    x: 0.5562735567170389
    y: 0.08072262811007276
    z: 0.0
  angular: 
    x: 0.0
    y: 0.0
    z: 0.0
---
header: 
  seq: 14
  stamp: 
    secs: 1722858154
    nsecs: 569430589
  frame_id: ''
twist: 
  linear: 
    x: 0.556225589024347
    y: 0.08059315270895605
    z: 0.0
  angular: 
    x: 0.0
    y: 0.0
    z: 0.0
---
header: 
  seq: 15
  stamp: 
    secs: 1722858154
    nsecs: 588153839
  frame_id: ''
twist: 
  linear: 
    x: 0.556276471791385
    y: 0.08063047347661559
    z: 0.0
  angular: 
    x: 0.0
    y: 0.0
    z: 0.0
---
header: 
  seq: 16
  stamp: 
    secs: 1722858154
    nsecs: 600968360
  frame_id: ''
twist: 
  linear: 
    x: 0.5562368511622302
    y: 0.08051596093817048
    z: 0.0
  angular: 
    x: 0.0
    y: 0.0
    z: 0.0
---
header: 
  seq: 17
  stamp: 
    secs: 1722858154
    nsecs: 618193149
  frame_id: ''
twist: 
  linear: 
    x: 0.5562731879301709
    y: 0.08051511452489019
    z: 0.0
  angular: 
    x: 0.0
    y: 0.0
    z: 0.0
---
header: 
  seq: 18
  stamp: 
    secs: 1722858154
    nsecs: 633796691
  frame_id: ''
twist: 
  linear: 
    x: 0.5563425127444854
    y: 0.08058040068057731
    z: 0.0
  angular: 
    x: 0.0
    y: 0.0
    z: 0.0
---
header: 
  seq: 19
  stamp: 
    secs: 1722858154
    nsecs: 654389142
  frame_id: ''
twist: 
  linear: 
    x: 0.5563532328573318
    y: 0.08055451785656315
    z: 0.0
  angular: 
    x: 0.0
    y: 0.0
    z: 0.0
---
header: 
  seq: 20
  stamp: 
    secs: 1722858154
    nsecs: 666827201
  frame_id: ''
twist: 
  linear: 
    x: 0.556336935326377
    y: 0.08047316980873007
    z: 0.0
  angular: 
    x: 0.0
    y: 0.0
    z: 0.0
---
header: 
  seq: 21
  stamp: 
    secs: 1722858154
    nsecs: 671866178
  frame_id: ''
twist: 
  linear: 
    x: 0.5563818996074649
    y: 0.08049496482103849
    z: 0.0
  angular: 
    x: 0.0
    y: 0.0
    z: 0.0
---
header: 
  seq: 22
  stamp: 
    secs: 1722858154
    nsecs: 692662000
  frame_id: ''
twist: 
  linear: 
    x: 0.5564589609145421
    y: 0.08058995510224148
    z: 0.0
  angular: 
    x: 0.0
    y: 0.0
    z: 0.0
---
header: 
  seq: 23
  stamp: 
    secs: 1722858154
    nsecs: 704800844
  frame_id: ''
twist: 
  linear: 
    x: 0.556364963595952
    y: 0.08037877308432688
    z: 0.0
  angular: 
    x: 0.0
    y: 0.0
    z: 0.0
---
header: 
  seq: 24
  stamp: 
    secs: 1722858154
    nsecs: 730378150
  frame_id: ''
twist: 
  linear: 
    x: 0.5563473810897095
    y: 0.08013594795179922
    z: 0.0
  angular: 
    x: 0.0
    y: 0.0
    z: 0.0
---
header: 
  seq: 25
  stamp: 
    secs: 1722858154
    nsecs: 740440607
  frame_id: ''
twist: 
  linear: 
    x: 0.5564699898595808
    y: 0.08035467344017883
    z: 0.0
  angular: 
    x: 0.0
    y: 0.0
    z: 0.0
---
header: 
  seq: 26
  stamp: 
    secs: 1722858154
    nsecs: 753967285
  frame_id: ''
twist: 
  linear: 
    x: 0.5563828377974915
    y: 0.08020989126969824
    z: 0.0
  angular: 
    x: 0.0
    y: 0.0
    z: 0.0
---
header: 
  seq: 27
  stamp: 
    secs: 1722858154
    nsecs: 762861490
  frame_id: ''
twist: 
  linear: 
    x: 0.5566655832383154
    y: 0.08068428519972523
    z: 0.0
  angular: 
    x: 0.0
    y: 0.0
    z: 0.0
---
header: 
  seq: 28
  stamp: 
    secs: 1722858154
    nsecs: 770028829
  frame_id: ''
twist: 
  linear: 
    x: 0.5566815123304818
    y: 0.08069137532746118
    z: 0.0
  angular: 
    x: 0.0
    y: 0.0
    z: 0.0
---
header: 
  seq: 29
  stamp: 
    secs: 1722858154
    nsecs: 777261495
  frame_id: ''
twist: 
  linear: 
    x: 0.5565019263733781
    y: 0.08032250154794583
    z: 0.0
  angular: 
    x: 0.0
    y: 0.0
    z: 0.0
---
header: 
  seq: 30
  stamp: 
    secs: 1722858154
    nsecs: 788702011
  frame_id: ''
twist: 
  linear: 
    x: 0.5566157835858161
    y: 0.08047067976591886
    z: 0.0
  angular: 
    x: 0.0
    y: 0.0
    z: 0.0
---
header: 
  seq: 31
  stamp: 
    secs: 1722858154
    nsecs: 816781997
  frame_id: ''
twist: 
  linear: 
    x: 0.556549653082997
    y: 0.07884899989409465
    z: 0.0
  angular: 
    x: 0.0
    y: 0.0
    z: 0.0
---
header: 
  seq: 32
  stamp: 
    secs: 1722858154
    nsecs: 826524019
  frame_id: ''
twist: 
  linear: 
    x: 0.5566832222890026
    y: 0.07908314681654702
    z: 0.0
  angular: 
    x: 0.0
    y: 0.0
    z: 0.0
---
header: 
  seq: 33
  stamp: 
    secs: 1722858154
    nsecs: 837508440
  frame_id: ''
twist: 
  linear: 
    x: 0.5565598577294001
    y: 0.07885133411706621
    z: 0.0
  angular: 
    x: 0.0
    y: 0.0
    z: 0.0
---
header: 
  seq: 34
  stamp: 
    secs: 1722858154
    nsecs: 860683441
  frame_id: ''
twist: 
  linear: 
    x: 0.5568038244460918
    y: 0.07917103104653149
    z: 0.0
  angular: 
    x: 0.0
    y: 0.0
    z: 0.0
---
header: 
  seq: 35
  stamp: 
    secs: 1722858154
    nsecs: 868616819
  frame_id: ''
twist: 
  linear: 
    x: 0.5566941856953677
    y: 0.07894901676740498
    z: 0.0
  angular: 
    x: 0.0
    y: 0.0
    z: 0.0
---
header: 
  seq: 36
  stamp: 
    secs: 1722858154
    nsecs: 878155708
  frame_id: ''
twist: 
  linear: 
    x: 0.5567432614054496
    y: 0.07903337274371379
    z: 0.0
  angular: 
    x: 0.0
    y: 0.0
    z: 0.0
---
header: 
  seq: 37
  stamp: 
    secs: 1722858154
    nsecs: 898154258
  frame_id: ''
twist: 
  linear: 
    x: 0.5566489874896807
    y: 0.07885265426057941
    z: 0.0
  angular: 
    x: 0.0
    y: 0.0
    z: 0.0
---
header: 
  seq: 38
  stamp: 
    secs: 1722858154
    nsecs: 909399509
  frame_id: ''
twist: 
  linear: 
    x: 0.5566604960801762
    y: 0.07859082893580713
    z: 0.0
  angular: 
    x: 0.0
    y: 0.0
    z: 0.0
---
header: 
  seq: 39
  stamp: 
    secs: 1722858154
    nsecs: 922281742
  frame_id: ''
twist: 
  linear: 
    x: 0.5567895102323683
    y: 0.07882212745690291
    z: 0.0
  angular: 
    x: 0.0
    y: 0.0
    z: 0.0
---
header: 
  seq: 40
  stamp: 
    secs: 1722858154
    nsecs: 940787553
  frame_id: ''
twist: 
  linear: 
    x: 0.5566904931675923
    y: 0.0786302383374571
    z: 0.0
  angular: 
    x: 0.0
    y: 0.0
    z: 0.0
---
header: 
  seq: 41
  stamp: 
    secs: 1722858154
    nsecs: 953777313
  frame_id: ''
twist: 
  linear: 
    x: 0.5566549452885285
    y: 0.07855763242082836
    z: 0.0
  angular: 
    x: 0.0
    y: 0.0
    z: 0.0
---
header: 
  seq: 42
  stamp: 
    secs: 1722858154
    nsecs: 968789577
  frame_id: ''
twist: 
  linear: 
    x: 0.5568672298090738
    y: 0.0789448681498984
    z: 0.0
  angular: 
    x: 0.0
    y: 0.0
    z: 0.0
---
header: 
  seq: 43
  stamp: 
    secs: 1722858154
    nsecs: 987188816
  frame_id: ''
twist: 
  linear: 
    x: 0.5568722289049296
    y: 0.07893792152961103
    z: 0.0
  angular: 
    x: 0.0
    y: 0.0
    z: 0.0
---
header: 
  seq: 44
  stamp: 
    secs: 1722858155
    nsecs:   5961656
  frame_id: ''
twist: 
  linear: 
    x: 0.5569152388747023
    y: 0.07901085280107338
    z: 0.0
  angular: 
    x: 0.0
    y: 0.0
    z: 0.0
---
header: 
  seq: 45
  stamp: 
    secs: 1722858155
    nsecs:  20531654
  frame_id: ''
twist: 
  linear: 
    x: 0.5568174208915303
    y: 0.07880491931912956
    z: 0.0
  angular: 
    x: 0.0
    y: 0.0
    z: 0.0
---
header: 
  seq: 46
  stamp: 
    secs: 1722858155
    nsecs:  36846399
  frame_id: ''
twist: 
  linear: 
    x: 0.5569215999345336
    y: 0.07900241527411939
    z: 0.0
  angular: 
    x: 0.0
    y: 0.0
    z: 0.0
---
header: 
  seq: 47
  stamp: 
    secs: 1722858155
    nsecs:  68311452
  frame_id: ''
twist: 
  linear: 
    x: 0.5569113672078603
    y: 0.0787578302845884
    z: 0.0
  angular: 
    x: 0.0
    y: 0.0
    z: 0.0
---
header: 
  seq: 48
  stamp: 
    secs: 1722858155
    nsecs:  78788280
  frame_id: ''
twist: 
  linear: 
    x: 0.5568132027797404
    y: 0.07855647038262002
    z: 0.0
  angular: 
    x: 0.0
    y: 0.0
    z: 0.0
---
header: 
  seq: 49
  stamp: 
    secs: 1722858155
    nsecs:  89959383
  frame_id: ''
twist: 
  linear: 
    x: 0.5569500181317625
    y: 0.07881198290905747
    z: 0.0
  angular: 
    x: 0.0
    y: 0.0
    z: 0.0
---
header: 
  seq: 50
  stamp: 
    secs: 1722858155
    nsecs: 108978033
  frame_id: ''
twist: 
  linear: 
    x: 0.5569117308847595
    y: 0.07873317662760872
    z: 0.0
  angular: 
    x: 0.0
    y: 0.0
    z: 0.0
---
header: 
  seq: 51
  stamp: 
    secs: 1722858155
    nsecs: 120570421
  frame_id: ''
twist: 
  linear: 
    x: 0.556995392288156
    y: 0.0788896235858113
    z: 0.0
  angular: 
    x: 0.0
    y: 0.0
    z: 0.0
---
header: 
  seq: 52
  stamp: 
    secs: 1722858155
    nsecs: 136855840
  frame_id: ''
twist: 
  linear: 
    x: 0.5570244320161621
    y: 0.07894255263688256
    z: 0.0
  angular: 
    x: 0.0
    y: 0.0
    z: 0.0
---
header: 
  seq: 53
  stamp: 
    secs: 1722858155
    nsecs: 154615402
  frame_id: ''
twist: 
  linear: 
    x: 0.5569543114550953
    y: 0.07879366398473636
    z: 0.0
  angular: 
    x: 0.0
    y: 0.0
    z: 0.0
---
header: 
  seq: 54
  stamp: 
    secs: 1722858155
    nsecs: 169526338
  frame_id: ''
twist: 
  linear: 
    x: 0.5570999678992347
    y: 0.07908167952096579
    z: 0.0
  angular: 
    x: 0.0
    y: 0.0
    z: 0.0
---
header: 
  seq: 55
  stamp: 
    secs: 1722858155
    nsecs: 189778804
  frame_id: ''
twist: 
  linear: 
    x: 0.5569755705157025
    y: 0.07849946703759181
    z: 0.0
  angular: 
    x: 0.0
    y: 0.0
    z: 0.0
---
header: 
  seq: 56
  stamp: 
    secs: 1722858155
    nsecs: 203499794
  frame_id: ''
twist: 
  linear: 
    x: 0.5570563036707858
    y: 0.07865627537164795
    z: 0.0
  angular: 
    x: 0.0
    y: 0.0
    z: 0.0
---
header: 
  seq: 57
  stamp: 
    secs: 1722858155
    nsecs: 212782144
  frame_id: ''
twist: 
  linear: 
    x: 0.5571663607399084
    y: 0.0788789992630568
    z: 0.0
  angular: 
    x: 0.0
    y: 0.0
    z: 0.0
---
header: 
  seq: 58
  stamp: 
    secs: 1722858155
    nsecs: 228874206
  frame_id: ''
twist: 
  linear: 
    x: 0.5572293428467969
    y: 0.07900725741403465
    z: 0.0
  angular: 
    x: 0.0
    y: 0.0
    z: 0.0
---
header: 
  seq: 59
  stamp: 
    secs: 1722858155
    nsecs: 242510557
  frame_id: ''
twist: 
  linear: 
    x: 0.5571357077427409
    y: 0.07879578630361746
    z: 0.0
  angular: 
    x: 0.0
    y: 0.0
    z: 0.0
---
header: 
  seq: 60
  stamp: 
    secs: 1722858155
    nsecs: 254733800
  frame_id: ''
twist: 
  linear: 
    x: 0.557169870429047
    y: 0.07885680779431825
    z: 0.0
  angular: 
    x: 0.0
    y: 0.0
    z: 0.0
---
header: 
  seq: 61
  stamp: 
    secs: 1722858155
    nsecs: 280289888
  frame_id: ''
twist: 
  linear: 
    x: 0.5573678497428699
    y: 0.07826156935695729
    z: 0.0
  angular: 
    x: 0.0
    y: 0.0
    z: 0.0
---
header: 
  seq: 62
  stamp: 
    secs: 1722858155
    nsecs: 293582677
  frame_id: ''
twist: 
  linear: 
    x: 0.5573914753376091
    y: 0.07830259478836143
    z: 0.0
  angular: 
    x: 0.0
    y: 0.0
    z: 0.0
---
header: 
  seq: 63
  stamp: 
    secs: 1722858155
    nsecs: 310638904
  frame_id: ''
twist: 
  linear: 
    x: 0.5573507950291525
    y: 0.07820110834627116
    z: 0.0
  angular: 
    x: 0.0
    y: 0.0
    z: 0.0
---
header: 
  seq: 64
  stamp: 
    secs: 1722858155
    nsecs: 328018665
  frame_id: ''
twist: 
  linear: 
    x: 0.5573056259991273
    y: 0.07809002377588922
    z: 0.0
  angular: 
    x: 0.0
    y: 0.0
    z: 0.0
---
header: 
  seq: 65
  stamp: 
    secs: 1722858155
    nsecs: 340424776
  frame_id: ''
twist: 
  linear: 
    x: 0.5574582194674959
    y: 0.07843662662630979
    z: 0.0
  angular: 
    x: 0.0
    y: 0.0
    z: 0.0
---
header: 
  seq: 66
  stamp: 
    secs: 1722858155
    nsecs: 356748580
  frame_id: ''
twist: 
  linear: 
    x: 0.5573733258115787
    y: 0.07822504635337085
    z: 0.0
  angular: 
    x: 0.0
    y: 0.0
    z: 0.0
---
header: 
  seq: 67
  stamp: 
    secs: 1722858155
    nsecs: 370736122
  frame_id: ''
twist: 
  linear: 
    x: 0.5574426758711872
    y: 0.07838699467152489
    z: 0.0
  angular: 
    x: 0.0
    y: 0.0
    z: 0.0
---
header: 
  seq: 68
  stamp: 
    secs: 1722858155
    nsecs: 384490489
  frame_id: ''
twist: 
  linear: 
    x: 0.5573868668068755
    y: 0.078242704557003
    z: 0.0
  angular: 
    x: 0.0
    y: 0.0
    z: 0.0
---
header: 
  seq: 69
  stamp: 
    secs: 1722858155
    nsecs: 403383731
  frame_id: ''
twist: 
  linear: 
    x: 0.5574302351093016
    y: 0.07833302741408418
    z: 0.0
  angular: 
    x: 0.0
    y: 0.0
    z: 0.0
---
header: 
  seq: 70
  stamp: 
    secs: 1722858155
    nsecs: 419110774
  frame_id: ''
twist: 
  linear: 
    x: 0.5575015278350517
    y: 0.078500472978556
    z: 0.0
  angular: 
    x: 0.0
    y: 0.0
    z: 0.0
---
header: 
  seq: 71
  stamp: 
    secs: 1722858155
    nsecs: 435748100
  frame_id: ''
twist: 
  linear: 
    x: 0.5575110323570884
    y: 0.0785161621253915
    z: 0.0
  angular: 
    x: 0.0
    y: 0.0
    z: 0.0
---
header: 
  seq: 72
  stamp: 
    secs: 1722858155
    nsecs: 443558216
  frame_id: ''
twist: 
  linear: 
    x: 0.5574839287073823
    y: 0.07837898486162054
    z: 0.0
  angular: 
    x: 0.0
    y: 0.0
    z: 0.0
---
header: 
  seq: 73
  stamp: 
    secs: 1722858155
    nsecs: 466262817
  frame_id: ''
twist: 
  linear: 
    x: 0.5575212945035732
    y: 0.0784613185217226
    z: 0.0
  angular: 
    x: 0.0
    y: 0.0
    z: 0.0
---
header: 
  seq: 74
  stamp: 
    secs: 1722858155
    nsecs: 473478555
  frame_id: ''
twist: 
  linear: 
    x: 0.5575381349672994
    y: 0.0784962017596687
    z: 0.0
  angular: 
    x: 0.0
    y: 0.0
    z: 0.0
---
header: 
  seq: 75
  stamp: 
    secs: 1722858155
    nsecs: 487543106
  frame_id: ''
twist: 
  linear: 
    x: 0.5575003959860302
    y: 0.07839225810218634
    z: 0.0
  angular: 
    x: 0.0
    y: 0.0
    z: 0.0
---
header: 
  seq: 76
  stamp: 
    secs: 1722858155
    nsecs: 503280162
  frame_id: ''
twist: 
  linear: 
    x: 0.5575661051272867
    y: 0.07855491587782155
    z: 0.0
  angular: 
    x: 0.0
    y: 0.0
    z: 0.0
---
header: 
  seq: 77
  stamp: 
    secs: 1722858155
    nsecs: 514814615
  frame_id: ''
twist: 
  linear: 
    x: 0.5574345805864048
    y: 0.0782214455809998
    z: 0.0
  angular: 
    x: 0.0
    y: 0.0
    z: 0.0
---
header: 
  seq: 78
  stamp: 
    secs: 1722858155
    nsecs: 520670413
  frame_id: ''
twist: 
  linear: 
    x: 0.5575581636924762
    y: 0.07851498317597858
    z: 0.0
  angular: 
    x: 0.0
    y: 0.0
    z: 0.0
---
header: 
  seq: 79
  stamp: 
    secs: 1722858155
    nsecs: 534728050
  frame_id: ''
twist: 
  linear: 
    x: 0.5575448402001503
    y: 0.07847541415628555
    z: 0.0
  angular: 
    x: 0.0
    y: 0.0
    z: 0.0
---
header: 
  seq: 80
  stamp: 
    secs: 1722858155
    nsecs: 545845985
  frame_id: ''
twist: 
  linear: 
    x: 0.5575928513993754
    y: 0.07858720808529736
    z: 0.0
  angular: 
    x: 0.0
    y: 0.0
    z: 0.0
---
header: 
  seq: 81
  stamp: 
    secs: 1722858155
    nsecs: 554454326
  frame_id: ''
twist: 
  linear: 
    x: 0.5574957583427758
    y: 0.07834322420645266
    z: 0.0
  angular: 
    x: 0.0
    y: 0.0
    z: 0.0
---
header: 
  seq: 82
  stamp: 
    secs: 1722858155
    nsecs: 565342664
  frame_id: ''
twist: 
  linear: 
    x: 0.5576998351351757
    y: 0.07886235359313569
    z: 0.0
  angular: 
    x: 0.0
    y: 0.0
    z: 0.0
---
header: 
  seq: 83
  stamp: 
    secs: 1722858155
    nsecs: 571799993
  frame_id: ''
twist: 
  linear: 
    x: 0.5578100946017547
    y: 0.07916502916674265
    z: 0.0
  angular: 
    x: 0.0
    y: 0.0
    z: 0.0
---
header: 
  seq: 84
  stamp: 
    secs: 1722858155
    nsecs: 578406095
  frame_id: ''
twist: 
  linear: 
    x: 0.557766673729706
    y: 0.0790314324364542
    z: 0.0
  angular: 
    x: 0.0
    y: 0.0
    z: 0.0
---
header: 
  seq: 85
  stamp: 
    secs: 1722858155
    nsecs: 586081981
  frame_id: ''
twist: 
  linear: 
    x: 0.5577754142080794
    y: 0.07905248134723823
    z: 0.0
  angular: 
    x: 0.0
    y: 0.0
    z: 0.0
---
header: 
  seq: 86
  stamp: 
    secs: 1722858155
    nsecs: 592921257
  frame_id: ''
twist: 
  linear: 
    x: 0.5577461089076279
    y: 0.07895766012572769
    z: 0.0
  angular: 
    x: 0.0
    y: 0.0
    z: 0.0
---
header: 
  seq: 87
  stamp: 
    secs: 1722858155
    nsecs: 600390195
  frame_id: ''
twist: 
  linear: 
    x: 0.5578069422489129
    y: 0.07912196756084902
    z: 0.0
  angular: 
    x: 0.0
    y: 0.0
    z: 0.0
---
header: 
  seq: 88
  stamp: 
    secs: 1722858155
    nsecs: 606436014
  frame_id: ''
twist: 
  linear: 
    x: 0.5578352398311051
    y: 0.07919437854341484
    z: 0.0
  angular: 
    x: 0.0
    y: 0.0
    z: 0.0
---
header: 
  seq: 89
  stamp: 
    secs: 1722858155
    nsecs: 620843172
  frame_id: ''
twist: 
  linear: 
    x: 0.557818999361908
    y: 0.07913934289795066
    z: 0.0
  angular: 
    x: 0.0
    y: 0.0
    z: 0.0
---
header: 
  seq: 90
  stamp: 
    secs: 1722858155
    nsecs: 632242918
  frame_id: ''
twist: 
  linear: 
    x: 0.5578278654780232
    y: 0.0791250513214336
    z: 0.0
  angular: 
    x: 0.0
    y: 0.0
    z: 0.0
---
header: 
  seq: 91
  stamp: 
    secs: 1722858155
    nsecs: 644666433
  frame_id: ''
twist: 
  linear: 
    x: 0.5578410489519862
    y: 0.07912262699109229
    z: 0.0
  angular: 
    x: 0.0
    y: 0.0
    z: 0.0
---
header: 
  seq: 92
  stamp: 
    secs: 1722858155
    nsecs: 669893026
  frame_id: ''
twist: 
  linear: 
    x: 0.5579278651995372
    y: 0.07811063900576333
    z: 0.0
  angular: 
    x: 0.0
    y: 0.0
    z: 0.0
---
header: 
  seq: 93
  stamp: 
    secs: 1722858155
    nsecs: 685145378
  frame_id: ''
twist: 
  linear: 
    x: 0.5578469252244149
    y: 0.07786247631395433
    z: 0.0
  angular: 
    x: 0.0
    y: 0.0
    z: 0.0
---
header: 
  seq: 94
  stamp: 
    secs: 1722858155
    nsecs: 696540832
  frame_id: ''
twist: 
  linear: 
    x: 0.5579110835170963
    y: 0.07804560495390797
    z: 0.0
  angular: 
    x: 0.0
    y: 0.0
    z: 0.0
---
header: 
  seq: 95
  stamp: 
    secs: 1722858155
    nsecs: 714766263
  frame_id: ''
twist: 
  linear: 
    x: 0.5578843731506469
    y: 0.07795663920131157
    z: 0.0
  angular: 
    x: 0.0
    y: 0.0
    z: 0.0
---
header: 
  seq: 96
  stamp: 
    secs: 1722858155
    nsecs: 724565505
  frame_id: ''
twist: 
  linear: 
    x: 0.5579349918621834
    y: 0.07810336246271588
    z: 0.0
  angular: 
    x: 0.0
    y: 0.0
    z: 0.0
---
header: 
  seq: 97
  stamp: 
    secs: 1722858155
    nsecs: 747639656
  frame_id: ''
twist: 
  linear: 
    x: 0.5579162242140807
    y: 0.0780360335668056
    z: 0.0
  angular: 
    x: 0.0
    y: 0.0
    z: 0.0
---
header: 
  seq: 98
  stamp: 
    secs: 1722858155
    nsecs: 775753259
  frame_id: ''
twist: 
  linear: 
    x: 0.5579067937305432
    y: 0.07799605966666882
    z: 0.0
  angular: 
    x: 0.0
    y: 0.0
    z: 0.0
---
header: 
  seq: 99
  stamp: 
    secs: 1722858155
    nsecs: 793453931
  frame_id: ''
twist: 
  linear: 
    x: 0.5579150560233025
    y: 0.07733180027902171
    z: 0.0
  angular: 
    x: 0.0
    y: 0.0
    z: 0.0
---
header: 
  seq: 100
  stamp: 
    secs: 1722858155
    nsecs: 816452264
  frame_id: ''
twist: 
  linear: 
    x: 0.5579541441623966
    y: 0.07744265248607353
    z: 0.0
  angular: 
    x: 0.0
    y: 0.0
    z: 0.0
---
header: 
  seq: 101
  stamp: 
    secs: 1722858155
    nsecs: 837525844
  frame_id: ''
twist: 
  linear: 
    x: 0.558000111015682
    y: 0.07759959947600609
    z: 0.0
  angular: 
    x: 0.0
    y: 0.0
    z: 0.0
---
header: 
  seq: 102
  stamp: 
    secs: 1722858155
    nsecs: 842376947
  frame_id: ''
twist: 
  linear: 
    x: 0.5579744127991757
    y: 0.07749802620246501
    z: 0.0
  angular: 
    x: 0.0
    y: 0.0
    z: 0.0
---
header: 
  seq: 103
  stamp: 
    secs: 1722858155
    nsecs: 859859943
  frame_id: ''
twist: 
  linear: 
    x: 0.5579715855344073
    y: 0.07748990753139143
    z: 0.0
  angular: 
    x: 0.0
    y: 0.0
    z: 0.0
---
header: 
  seq: 104
  stamp: 
    secs: 1722858155
    nsecs: 882230520
  frame_id: ''
twist: 
  linear: 
    x: 0.5579655776509087
    y: 0.07745282490599059
    z: 0.0
  angular: 
    x: 0.0
    y: 0.0
    z: 0.0
---
header: 
  seq: 105
  stamp: 
    secs: 1722858155
    nsecs: 891483545
  frame_id: ''
twist: 
  linear: 
    x: 0.5580162253973422
    y: 0.0776180904336639
    z: 0.0
  angular: 
    x: 0.0
    y: 0.0
    z: 0.0
---
header: 
  seq: 106
  stamp: 
    secs: 1722858155
    nsecs: 907092332
  frame_id: ''
twist: 
  linear: 
    x: 0.558018890938513
    y: 0.0776203129614437
    z: 0.0
  angular: 
    x: 0.0
    y: 0.0
    z: 0.0
---
header: 
  seq: 107
  stamp: 
    secs: 1722858155
    nsecs: 921748161
  frame_id: ''
twist: 
  linear: 
    x: 0.5579923380987315
    y: 0.0775120088498183
    z: 0.0
  angular: 
    x: 0.0
    y: 0.0
    z: 0.0
---
header: 
  seq: 108
  stamp: 
    secs: 1722858155
    nsecs: 939208745
  frame_id: ''
twist: 
  linear: 
    x: 0.5580525540159809
    y: 0.07770138654500627
    z: 0.0
  angular: 
    x: 0.0
    y: 0.0
    z: 0.0
---
header: 
  seq: 109
  stamp: 
    secs: 1722858155
    nsecs: 949681520
  frame_id: ''
twist: 
  linear: 
    x: 0.5580848720150323
    y: 0.07780786834672616
    z: 0.0
  angular: 
    x: 0.0
    y: 0.0
    z: 0.0
---
header: 
  seq: 110
  stamp: 
    secs: 1722858156
    nsecs:  26723384
  frame_id: ''
twist: 
  linear: 
    x: 0.5587419755588475
    y: 0.07655310326874874
    z: 0.0
  angular: 
    x: 0.0
    y: 0.0
    z: 0.0
---
header: 
  seq: 111
  stamp: 
    secs: 1722858156
    nsecs:  40486335
  frame_id: ''
twist: 
  linear: 
    x: 0.5587433121697352
    y: 0.07652734736295053
    z: 0.0
  angular: 
    x: 0.0
    y: 0.0
    z: 0.0
---
header: 
  seq: 112
  stamp: 
    secs: 1722858156
    nsecs:  62077999
  frame_id: ''
twist: 
  linear: 
    x: 0.5587736679635176
    y: 0.07651853251396348
    z: 0.0
  angular: 
    x: 0.0
    y: 0.0
    z: 0.0
---
header: 
  seq: 113
  stamp: 
    secs: 1722858156
    nsecs:  79038381
  frame_id: ''
twist: 
  linear: 
    x: 0.5587877403220294
    y: 0.07643340086971559
    z: 0.0
  angular: 
    x: 0.0
    y: 0.0
    z: 0.0
---
header: 
  seq: 114
  stamp: 
    secs: 1722858156
    nsecs: 104122638
  frame_id: ''
twist: 
  linear: 
    x: 0.5587921686695552
    y: 0.07642165171289649
    z: 0.0
  angular: 
    x: 0.0
    y: 0.0
    z: 0.0
---
header: 
  seq: 115
  stamp: 
    secs: 1722858156
    nsecs: 127795457
  frame_id: ''
twist: 
  linear: 
    x: 0.5587697654368408
    y: 0.07613158884114996
    z: 0.0
  angular: 
    x: 0.0
    y: 0.0
    z: 0.0
---
header: 
  seq: 116
  stamp: 
    secs: 1722858156
    nsecs: 152150154
  frame_id: ''
twist: 
  linear: 
    x: 0.5587771539924661
    y: 0.07595661650052463
    z: 0.0
  angular: 
    x: 0.0
    y: 0.0
    z: 0.0
---
header: 
  seq: 117
  stamp: 
    secs: 1722858156
    nsecs: 159544229
  frame_id: ''
twist: 
  linear: 
    x: 0.5587829907339422
    y: 0.07600853349745698
    z: 0.0
  angular: 
    x: 0.0
    y: 0.0
    z: 0.0
---
header: 
  seq: 118
  stamp: 
    secs: 1722858156
    nsecs: 191247701
  frame_id: ''
twist: 
  linear: 
    x: 0.5588046885399847
    y: 0.07597227178450812
    z: 0.0
  angular: 
    x: 0.0
    y: 0.0
    z: 0.0
---
header: 
  seq: 119
  stamp: 
    secs: 1722858156
    nsecs: 204924821
  frame_id: ''
twist: 
  linear: 
    x: 0.5587933395240176
    y: 0.07565273921780015
    z: 0.0
  angular: 
    x: 0.0
    y: 0.0
    z: 0.0
---
header: 
  seq: 120
  stamp: 
    secs: 1722858156
    nsecs: 218529701
  frame_id: ''
twist: 
  linear: 
    x: 0.5588317188603935
    y: 0.07613139371402017
    z: 0.0
  angular: 
    x: 0.0
    y: 0.0
    z: 0.0
---
header: 
  seq: 121
  stamp: 
    secs: 1722858156
    nsecs: 234526872
  frame_id: ''
twist: 
  linear: 
    x: 0.5588066543798637
    y: 0.07575425448527133
    z: 0.0
  angular: 
    x: 0.0
    y: 0.0
    z: 0.0
---
header: 
  seq: 122
  stamp: 
    secs: 1722858156
    nsecs: 245888948
  frame_id: ''
twist: 
  linear: 
    x: 0.5588218991106979
    y: 0.0758821413465548
    z: 0.0
  angular: 
    x: 0.0
    y: 0.0
    z: 0.0
---
header: 
  seq: 123
  stamp: 
    secs: 1722858156
    nsecs: 261739253
  frame_id: ''
twist: 
  linear: 
    x: 0.5588097582885208
    y: 0.07565719292363104
    z: 0.0
  angular: 
    x: 0.0
    y: 0.0
    z: 0.0
---
header: 
  seq: 124
  stamp: 
    secs: 1722858156
    nsecs: 274552345
  frame_id: ''
twist: 
  linear: 
    x: 0.5588325313437595
    y: 0.07589982756845635
    z: 0.0
  angular: 
    x: 0.0
    y: 0.0
    z: 0.0
---
header: 
  seq: 125
  stamp: 
    secs: 1722858156
    nsecs: 289886951
  frame_id: ''
twist: 
  linear: 
    x: 0.5588426367480632
    y: 0.07596464939554902
    z: 0.0
  angular: 
    x: 0.0
    y: 0.0
    z: 0.0
---
header: 
  seq: 126
  stamp: 
    secs: 1722858156
    nsecs: 300940275
  frame_id: ''
twist: 
  linear: 
    x: 0.5588333021328432
    y: 0.07572470760657955
    z: 0.0
  angular: 
    x: 0.0
    y: 0.0
    z: 0.0
---
header: 
  seq: 127
  stamp: 
    secs: 1722858156
    nsecs: 310473680
  frame_id: ''
twist: 
  linear: 
    x: 0.5588299486905406
    y: 0.07565076260100642
    z: 0.0
  angular: 
    x: 0.0
    y: 0.0
    z: 0.0
---
header: 
  seq: 128
  stamp: 
    secs: 1722858156
    nsecs: 334527969
  frame_id: ''
twist: 
  linear: 
    x: 0.5588343204951087
    y: 0.0756830302869331
    z: 0.0
  angular: 
    x: 0.0
    y: 0.0
    z: 0.0
---
header: 
  seq: 129
  stamp: 
    secs: 1722858156
    nsecs: 340524196
  frame_id: ''
twist: 
  linear: 
    x: 0.5588247249095084
    y: 0.0755089944685743
    z: 0.0
  angular: 
    x: 0.0
    y: 0.0
    z: 0.0
---
header: 
  seq: 130
  stamp: 
    secs: 1722858156
    nsecs: 369519472
  frame_id: ''
twist: 
  linear: 
    x: 0.5588331280717411
    y: 0.07509341075393838
    z: 0.0
  angular: 
    x: 0.0
    y: 0.0
    z: 0.0
---
header: 
  seq: 131
  stamp: 
    secs: 1722858156
    nsecs: 393533706
  frame_id: ''
twist: 
  linear: 
    x: 0.5588713012503337
    y: 0.07396843222730198
    z: 0.0
  angular: 
    x: 0.0
    y: 0.0
    z: 0.0
---
header: 
  seq: 132
  stamp: 
    secs: 1722858156
    nsecs: 418661117
  frame_id: ''
twist: 
  linear: 
    x: 0.5588630595257362
    y: 0.07379361769236757
    z: 0.0
  angular: 
    x: 0.0
    y: 0.0
    z: 0.0
---
header: 
  seq: 133
  stamp: 
    secs: 1722858156
    nsecs: 434255599
  frame_id: ''
twist: 
  linear: 
    x: 0.558865638995684
    y: 0.07382056946212948
    z: 0.0
  angular: 
    x: 0.0
    y: 0.0
    z: 0.0
---
header: 
  seq: 134
  stamp: 
    secs: 1722858156
    nsecs: 451172351
  frame_id: ''
twist: 
  linear: 
    x: 0.5588639001602181
    y: 0.07377127946886754
    z: 0.0
  angular: 
    x: 0.0
    y: 0.0
    z: 0.0
---
header: 
  seq: 135
  stamp: 
    secs: 1722858156
    nsecs: 469376325
  frame_id: ''
twist: 
  linear: 
    x: 0.5588738663445568
    y: 0.07394632493143999
    z: 0.0
  angular: 
    x: 0.0
    y: 0.0
    z: 0.0
---
header: 
  seq: 136
  stamp: 
    secs: 1722858156
    nsecs: 488678455
  frame_id: ''
twist: 
  linear: 
    x: 0.5588671441877195
    y: 0.07380010099011447
    z: 0.0
  angular: 
    x: 0.0
    y: 0.0
    z: 0.0
---
header: 
  seq: 137
  stamp: 
    secs: 1722858156
    nsecs: 517248868
  frame_id: ''
twist: 
  linear: 
    x: 0.5588777374403784
    y: 0.07401391100819411
    z: 0.0
  angular: 
    x: 0.0
    y: 0.0
    z: 0.0
---
header: 
  seq: 138
  stamp: 
    secs: 1722858156
    nsecs: 537455558
  frame_id: ''
twist: 
  linear: 
    x: 0.5588803668176586
    y: 0.07402055718313585
    z: 0.0
  angular: 
    x: 0.0
    y: 0.0
    z: 0.0
---
header: 
  seq: 139
  stamp: 
    secs: 1722858156
    nsecs: 572736501
  frame_id: ''
twist: 
  linear: 
    x: 0.5588970798142177
    y: 0.07351911464941217
    z: 0.0
  angular: 
    x: 0.0
    y: 0.0
    z: 0.0
---
header: 
  seq: 140
  stamp: 
    secs: 1722858156
    nsecs: 589548349
  frame_id: ''
twist: 
  linear: 
    x: 0.5588849441079758
    y: 0.07326282585271644
    z: 0.0
  angular: 
    x: 0.0
    y: 0.0
    z: 0.0
---
header: 
  seq: 141
  stamp: 
    secs: 1722858156
    nsecs: 606600046
  frame_id: ''
twist: 
  linear: 
    x: 0.5588916380592365
    y: 0.0733884440068721
    z: 0.0
  angular: 
    x: 0.0
    y: 0.0
    z: 0.0
---
header: 
  seq: 142
  stamp: 
    secs: 1722858156
    nsecs: 621316671
  frame_id: ''
twist: 
  linear: 
    x: 0.5588831794340665
    y: 0.07316953119748029
    z: 0.0
  angular: 
    x: 0.0
    y: 0.0
    z: 0.0
---
header: 
  seq: 143
  stamp: 
    secs: 1722858156
    nsecs: 651801109
  frame_id: ''
twist: 
  linear: 
    x: 0.5588802584288328
    y: 0.07313454379636411
    z: 0.0
  angular: 
    x: 0.0
    y: 0.0
    z: 0.0
---
header: 
  seq: 144
  stamp: 
    secs: 1722858156
    nsecs: 661506891
  frame_id: ''
twist: 
  linear: 
    x: 0.5588868363302294
    y: 0.07324728357029861
    z: 0.0
  angular: 
    x: 0.0
    y: 0.0
    z: 0.0
---
header: 
  seq: 145
  stamp: 
    secs: 1722858156
    nsecs: 683616161
  frame_id: ''
twist: 
  linear: 
    x: 0.5588985779918502
    y: 0.0734727028118943
    z: 0.0
  angular: 
    x: 0.0
    y: 0.0
    z: 0.0
---
header: 
  seq: 146
  stamp: 
    secs: 1722858156
    nsecs: 689474582
  frame_id: ''
twist: 
  linear: 
    x: 0.5589016542575665
    y: 0.07355322965775334
    z: 0.0
  angular: 
    x: 0.0
    y: 0.0
    z: 0.0
---
header: 
  seq: 147
  stamp: 
    secs: 1722858156
    nsecs: 702484130
  frame_id: ''
twist: 
  linear: 
    x: 0.5588887739682157
    y: 0.07326048432301899
    z: 0.0
  angular: 
    x: 0.0
    y: 0.0
    z: 0.0
---
header: 
  seq: 148
  stamp: 
    secs: 1722858156
    nsecs: 721436977
  frame_id: ''
twist: 
  linear: 
    x: 0.5588987891101052
    y: 0.07348071326450215
    z: 0.0
  angular: 
    x: 0.0
    y: 0.0
    z: 0.0
---
header: 
  seq: 149
  stamp: 
    secs: 1722858156
    nsecs: 739458322
  frame_id: ''
twist: 
  linear: 
    x: 0.5589026628540323
    y: 0.0735601688766067
    z: 0.0
  angular: 
    x: 0.0
    y: 0.0
    z: 0.0
---
header: 
  seq: 150
  stamp: 
    secs: 1722858156
    nsecs: 754222631
  frame_id: ''
twist: 
  linear: 
    x: 0.5588952461711614
    y: 0.07337221743687522
    z: 0.0
  angular: 
    x: 0.0
    y: 0.0
    z: 0.0
---
header: 
  seq: 151
  stamp: 
    secs: 1722858156
    nsecs: 769558191
  frame_id: ''
twist: 
  linear: 
    x: 0.5588953932632181
    y: 0.07334763789518972
    z: 0.0
  angular: 
    x: 0.0
    y: 0.0
    z: 0.0
---
header: 
  seq: 152
  stamp: 
    secs: 1722858156
    nsecs: 797208070
  frame_id: ''
twist: 
  linear: 
    x: 0.5588896471704112
    y: 0.07292542770929421
    z: 0.0
  angular: 
    x: 0.0
    y: 0.0
    z: 0.0
---
header: 
  seq: 153
  stamp: 
    secs: 1722858156
    nsecs: 807850122
  frame_id: ''
twist: 
  linear: 
    x: 0.5589015926483537
    y: 0.07317616699072568
    z: 0.0
  angular: 
    x: 0.0
    y: 0.0
    z: 0.0
---
header: 
  seq: 154
  stamp: 
    secs: 1722858156
    nsecs: 825174093
  frame_id: ''
twist: 
  linear: 
    x: 0.558893643831267
    y: 0.07300270730149284
    z: 0.0
  angular: 
    x: 0.0
    y: 0.0
    z: 0.0
---
header: 
  seq: 155
  stamp: 
    secs: 1722858156
    nsecs: 841627359
  frame_id: ''
twist: 
  linear: 
    x: 0.5588960688876956
    y: 0.07302258747534776
    z: 0.0
  angular: 
    x: 0.0
    y: 0.0
    z: 0.0
---
header: 
  seq: 156
  stamp: 
    secs: 1722858156
    nsecs: 865611553
  frame_id: ''
twist: 
  linear: 
    x: 0.5588939750332264
    y: 0.07296709131590279
    z: 0.0
  angular: 
    x: 0.0
    y: 0.0
    z: 0.0
---
header: 
  seq: 157
  stamp: 
    secs: 1722858156
    nsecs: 877851724
  frame_id: ''
twist: 
  linear: 
    x: 0.5589007969233944
    y: 0.0731059968064713
    z: 0.0
  angular: 
    x: 0.0
    y: 0.0
    z: 0.0
---
header: 
  seq: 158
  stamp: 
    secs: 1722858156
    nsecs: 897352933
  frame_id: ''
twist: 
  linear: 
    x: 0.5589074890162484
    y: 0.07323948280240233
    z: 0.0
  angular: 
    x: 0.0
    y: 0.0
    z: 0.0
---
header: 
  seq: 159
  stamp: 
    secs: 1722858156
    nsecs: 918496608
  frame_id: ''
twist: 
  linear: 
    x: 0.5589116359881839
    y: 0.07334546005097431
    z: 0.0
  angular: 
    x: 0.0
    y: 0.0
    z: 0.0
---
header: 
  seq: 160
  stamp: 
    secs: 1722858156
    nsecs: 946431398
  frame_id: ''
twist: 
  linear: 
    x: 0.55890618919936
    y: 0.07322430708156774
    z: 0.0
  angular: 
    x: 0.0
    y: 0.0
    z: 0.0
---
header: 
  seq: 161
  stamp: 
    secs: 1722858156
    nsecs: 959288597
  frame_id: ''
twist: 
  linear: 
    x: 0.5589138926803839
    y: 0.07342068304949785
    z: 0.0
  angular: 
    x: 0.0
    y: 0.0
    z: 0.0
---
header: 
  seq: 162
  stamp: 
    secs: 1722858156
    nsecs: 981229782
  frame_id: ''
twist: 
  linear: 
    x: 0.5589072679011293
    y: 0.07313101833368245
    z: 0.0
  angular: 
    x: 0.0
    y: 0.0
    z: 0.0
---
header: 
  seq: 163
  stamp: 
    secs: 1722858157
    nsecs:   3437042
  frame_id: ''
twist: 
  linear: 
    x: 0.5589137518729175
    y: 0.07245140609271278
    z: 0.0
  angular: 
    x: 0.0
    y: 0.0
    z: 0.0
---
header: 
  seq: 164
  stamp: 
    secs: 1722858157
    nsecs:  31199693
  frame_id: ''
twist: 
  linear: 
    x: 0.5589383933064693
    y: 0.07249168408610765
    z: 0.0
  angular: 
    x: 0.0
    y: 0.0
    z: 0.0
---
header: 
  seq: 165
  stamp: 
    secs: 1722858157
    nsecs:  47863006
  frame_id: ''
twist: 
  linear: 
    x: 0.5589306216310471
    y: 0.07219070469448921
    z: 0.0
  angular: 
    x: 0.0
    y: 0.0
    z: 0.0
---
header: 
  seq: 166
  stamp: 
    secs: 1722858157
    nsecs:  60689687
  frame_id: ''
twist: 
  linear: 
    x: 0.5589392716302404
    y: 0.0724751718631059
    z: 0.0
  angular: 
    x: 0.0
    y: 0.0
    z: 0.0
---
header: 
  seq: 167
  stamp: 
    secs: 1722858157
    nsecs:  84357738
  frame_id: ''
twist: 
  linear: 
    x: 0.5589335249646814
    y: 0.07232029136717481
    z: 0.0
  angular: 
    x: 0.0
    y: 0.0
    z: 0.0
---
header: 
  seq: 168
  stamp: 
    secs: 1722858157
    nsecs: 106855630
  frame_id: ''
twist: 
  linear: 
    x: 0.5589414531770732
    y: 0.07252964133282845
    z: 0.0
  angular: 
    x: 0.0
    y: 0.0
    z: 0.0
---
header: 
  seq: 169
  stamp: 
    secs: 1722858157
    nsecs: 122542142
  frame_id: ''
twist: 
  linear: 
    x: 0.5589400562524217
    y: 0.07253698839834329
    z: 0.0
  angular: 
    x: 0.0
    y: 0.0
    z: 0.0
---
header: 
  seq: 170
  stamp: 
    secs: 1722858157
    nsecs: 138704061
  frame_id: ''
twist: 
  linear: 
    x: 0.558941517070932
    y: 0.07253481613513707
    z: 0.0
  angular: 
    x: 0.0
    y: 0.0
    z: 0.0
---
header: 
  seq: 171
  stamp: 
    secs: 1722858157
    nsecs: 151736736
  frame_id: ''
twist: 
  linear: 
    x: 0.5589331393789642
    y: 0.0722557481962326
    z: 0.0
  angular: 
    x: 0.0
    y: 0.0
    z: 0.0
---
header: 
  seq: 172
  stamp: 
    secs: 1722858157
    nsecs: 162972450
  frame_id: ''
twist: 
  linear: 
    x: 0.55894181552638
    y: 0.07254698470302347
    z: 0.0
  angular: 
    x: 0.0
    y: 0.0
    z: 0.0
---
header: 
  seq: 173
  stamp: 
    secs: 1722858157
    nsecs: 189345836
  frame_id: ''
twist: 
  linear: 
    x: 0.5589436306483253
    y: 0.07260266291954794
    z: 0.0
  angular: 
    x: 0.0
    y: 0.0
    z: 0.0
---
header: 
  seq: 174
  stamp: 
    secs: 1722858157
    nsecs: 204005718
  frame_id: ''
twist: 
  linear: 
    x: 0.5589416811756623
    y: 0.0724159017441788
    z: 0.0
  angular: 
    x: 0.0
    y: 0.0
    z: 0.0
---
header: 
  seq: 175
  stamp: 
    secs: 1722858157
    nsecs: 219711780
  frame_id: ''
twist: 
  linear: 
    x: 0.5589442692711228
    y: 0.07245382438015768
    z: 0.0
  angular: 
    x: 0.0
    y: 0.0
    z: 0.0
---
header: 
  seq: 176
  stamp: 
    secs: 1722858157
    nsecs: 224350929
  frame_id: ''
twist: 
  linear: 
    x: 0.5589434951389881
    y: 0.07247469612313145
    z: 0.0
  angular: 
    x: 0.0
    y: 0.0
    z: 0.0
---
header: 
  seq: 177
  stamp: 
    secs: 1722858157
    nsecs: 237511634
  frame_id: ''
twist: 
  linear: 
    x: 0.5589464295238467
    y: 0.07254080685010016
    z: 0.0
  angular: 
    x: 0.0
    y: 0.0
    z: 0.0
---
header: 
  seq: 178
  stamp: 
    secs: 1722858157
    nsecs: 253673076
  frame_id: ''
twist: 
  linear: 
    x: 0.5589504928631743
    y: 0.07268304214351845
    z: 0.0
  angular: 
    x: 0.0
    y: 0.0
    z: 0.0
---
header: 
  seq: 179
  stamp: 
    secs: 1722858157
    nsecs: 266563653
  frame_id: ''
twist: 
  linear: 
    x: 0.5589507016537055
    y: 0.07271278639878041
    z: 0.0
  angular: 
    x: 0.0
    y: 0.0
    z: 0.0
---
header: 
  seq: 180
  stamp: 
    secs: 1722858157
    nsecs: 278922796
  frame_id: ''
twist: 
  linear: 
    x: 0.5589491509209081
    y: 0.07266991504322358
    z: 0.0
  angular: 
    x: 0.0
    y: 0.0
    z: 0.0
---
header: 
  seq: 181
  stamp: 
    secs: 1722858157
    nsecs: 293942213
  frame_id: ''
twist: 
  linear: 
    x: 0.5589529803598291
    y: 0.0727248915512284
    z: 0.0
  angular: 
    x: 0.0
    y: 0.0
    z: 0.0
---
header: 
  seq: 182
  stamp: 
    secs: 1722858157
    nsecs: 305886745
  frame_id: ''
twist: 
  linear: 
    x: 0.5589501297254549
    y: 0.07263553713733045
    z: 0.0
  angular: 
    x: 0.0
    y: 0.0
    z: 0.0
---
header: 
  seq: 183
  stamp: 
    secs: 1722858157
    nsecs: 321871280
  frame_id: ''
twist: 
  linear: 
    x: 0.5589493696706614
    y: 0.07257704920515005
    z: 0.0
  angular: 
    x: 0.0
    y: 0.0
    z: 0.0
---
header: 
  seq: 184
  stamp: 
    secs: 1722858157
    nsecs: 375766038
  frame_id: ''
twist: 
  linear: 
    x: 0.559011315794252
    y: 0.07175405983139227
    z: 0.0
  angular: 
    x: 0.0
    y: 0.0
    z: 0.0
---
header: 
  seq: 185
  stamp: 
    secs: 1722858157
    nsecs: 403019189
  frame_id: ''
twist: 
  linear: 
    x: 0.559009991051757
    y: 0.0713305284178189
    z: 0.0
  angular: 
    x: 0.0
    y: 0.0
    z: 0.0
---
header: 
  seq: 186
  stamp: 
    secs: 1722858157
    nsecs: 410709619
  frame_id: ''
twist: 
  linear: 
    x: 0.5590234531344765
    y: 0.07163903201573416
    z: 0.0
  angular: 
    x: 0.0
    y: 0.0
    z: 0.0
---
header: 
  seq: 187
  stamp: 
    secs: 1722858157
    nsecs: 423461675
  frame_id: ''
twist: 
  linear: 
    x: 0.559019202388251
    y: 0.07151026274389084
    z: 0.0
  angular: 
    x: 0.0
    y: 0.0
    z: 0.0
---
header: 
  seq: 188
  stamp: 
    secs: 1722858157
    nsecs: 440315246
  frame_id: ''
twist: 
  linear: 
    x: 0.559017035982633
    y: 0.07132419629584885
    z: 0.0
  angular: 
    x: 0.0
    y: 0.0
    z: 0.0
---
header: 
  seq: 189
  stamp: 
    secs: 1722858157
    nsecs: 456978321
  frame_id: ''
twist: 
  linear: 
    x: 0.5590177935412299
    y: 0.07135988613888354
    z: 0.0
  angular: 
    x: 0.0
    y: 0.0
    z: 0.0
---
header: 
  seq: 190
  stamp: 
    secs: 1722858157
    nsecs: 470547676
  frame_id: ''
twist: 
  linear: 
    x: 0.5590122952680224
    y: 0.07126247290337288
    z: 0.0
  angular: 
    x: 0.0
    y: 0.0
    z: 0.0
---
header: 
  seq: 191
  stamp: 
    secs: 1722858157
    nsecs: 480333805
  frame_id: ''
twist: 
  linear: 
    x: 0.5590201921327784
    y: 0.07145720066992857
    z: 0.0
  angular: 
    x: 0.0
    y: 0.0
    z: 0.0
---
header: 
  seq: 192
  stamp: 
    secs: 1722858157
    nsecs: 489686727
  frame_id: ''
twist: 
  linear: 
    x: 0.5590161016682299
    y: 0.07136439450389513
    z: 0.0
  angular: 
    x: 0.0
    y: 0.0
    z: 0.0
---
header: 
  seq: 193
  stamp: 
    secs: 1722858157
    nsecs: 505017518
  frame_id: ''
twist: 
  linear: 
    x: 0.5590157455304363
    y: 0.07133001717695471
    z: 0.0
  angular: 
    x: 0.0
    y: 0.0
    z: 0.0
---
header: 
  seq: 194
  stamp: 
    secs: 1722858157
    nsecs: 514482259
  frame_id: ''
twist: 
  linear: 
    x: 0.5590136835314721
    y: 0.07124379613785355
    z: 0.0
  angular: 
    x: 0.0
    y: 0.0
    z: 0.0
---
header: 
  seq: 195
  stamp: 
    secs: 1722858157
    nsecs: 526766538
  frame_id: ''
twist: 
  linear: 
    x: 0.5590254302645391
    y: 0.07141392562663681
    z: 0.0
  angular: 
    x: 0.0
    y: 0.0
    z: 0.0
---
header: 
  seq: 196
  stamp: 
    secs: 1722858157
    nsecs: 538683414
  frame_id: ''
twist: 
  linear: 
    x: 0.5590197741618673
    y: 0.07130952101562404
    z: 0.0
  angular: 
    x: 0.0
    y: 0.0
    z: 0.0
---
header: 
  seq: 197
  stamp: 
    secs: 1722858157
    nsecs: 553201436
  frame_id: ''
twist: 
  linear: 
    x: 0.5590139239866638
    y: 0.07116219196146037
    z: 0.0
  angular: 
    x: 0.0
    y: 0.0
    z: 0.0
---
header: 
  seq: 198
  stamp: 
    secs: 1722858157
    nsecs: 571804523
  frame_id: ''
twist: 
  linear: 
    x: 0.5590046915647482
    y: 0.07098045844039325
    z: 0.0
  angular: 
    x: 0.0
    y: 0.0
    z: 0.0
---
header: 
  seq: 199
  stamp: 
    secs: 1722858157
    nsecs: 600827455
  frame_id: ''
twist: 
  linear: 
    x: 0.5590115661731573
    y: 0.07114154361975727
    z: 0.0
  angular: 
    x: 0.0
    y: 0.0
    z: 0.0
---
header: 
  seq: 200
  stamp: 
    secs: 1722858157
    nsecs: 613362550
  frame_id: ''
twist: 
  linear: 
    x: 0.5590138595628458
    y: 0.07116965588857804
    z: 0.0
  angular: 
    x: 0.0
    y: 0.0
    z: 0.0
---
header: 
  seq: 201
  stamp: 
    secs: 1722858157
    nsecs: 642494678
  frame_id: ''
twist: 
  linear: 
    x: 0.5590090108106449
    y: 0.0709694182411639
    z: 0.0
  angular: 
    x: 0.0
    y: 0.0
    z: 0.0
---
header: 
  seq: 202
  stamp: 
    secs: 1722858157
    nsecs: 666435956
  frame_id: ''
twist: 
  linear: 
    x: 0.5590359825574248
    y: 0.06921793100538852
    z: 0.0
  angular: 
    x: 0.0
    y: 0.0
    z: 0.0
---
header: 
  seq: 203
  stamp: 
    secs: 1722858157
    nsecs: 676969051
  frame_id: ''
twist: 
  linear: 
    x: 0.5590279828351017
    y: 0.06904282668113089
    z: 0.0
  angular: 
    x: 0.0
    y: 0.0
    z: 0.0
---
header: 
  seq: 204
  stamp: 
    secs: 1722858157
    nsecs: 683335542
  frame_id: ''
twist: 
  linear: 
    x: 0.5590281256637458
    y: 0.06905769643226181
    z: 0.0
  angular: 
    x: 0.0
    y: 0.0
    z: 0.0
---
header: 
  seq: 205
  stamp: 
    secs: 1722858157
    nsecs: 706749677
  frame_id: ''
twist: 
  linear: 
    x: 0.5590261039718682
    y: 0.06903657352658833
    z: 0.0
  angular: 
    x: 0.0
    y: 0.0
    z: 0.0
---
header: 
  seq: 206
  stamp: 
    secs: 1722858157
    nsecs: 719831228
  frame_id: ''
twist: 
  linear: 
    x: 0.559025446317646
    y: 0.06898563882736174
    z: 0.0
  angular: 
    x: 0.0
    y: 0.0
    z: 0.0
---
header: 
  seq: 207
  stamp: 
    secs: 1722858157
    nsecs: 736633300
  frame_id: ''
twist: 
  linear: 
    x: 0.5590304636897186
    y: 0.06905198479658917
    z: 0.0
  angular: 
    x: 0.0
    y: 0.0
    z: 0.0
---
header: 
  seq: 208
  stamp: 
    secs: 1722858157
    nsecs: 753894090
  frame_id: ''
twist: 
  linear: 
    x: 0.5590341290128454
    y: 0.06905541181258631
    z: 0.0
  angular: 
    x: 0.0
    y: 0.0
    z: 0.0
---
header: 
  seq: 209
  stamp: 
    secs: 1722858157
    nsecs: 766635179
  frame_id: ''
twist: 
  linear: 
    x: 0.5590295418839608
    y: 0.06896328574312854
    z: 0.0
  angular: 
    x: 0.0
    y: 0.0
    z: 0.0
---
header: 
  seq: 210
  stamp: 
    secs: 1722858157
    nsecs: 783690929
  frame_id: ''
twist: 
  linear: 
    x: 0.5590427223219566
    y: 0.0691910977950882
    z: 0.0
  angular: 
    x: 0.0
    y: 0.0
    z: 0.0
---
header: 
  seq: 211
  stamp: 
    secs: 1722858157
    nsecs: 803489446
  frame_id: ''
twist: 
  linear: 
    x: 0.5590417598571114
    y: 0.06917138392268013
    z: 0.0
  angular: 
    x: 0.0
    y: 0.0
    z: 0.0
---
header: 
  seq: 212
  stamp: 
    secs: 1722858157
    nsecs: 820363044
  frame_id: ''
twist: 
  linear: 
    x: 0.5590501858165747
    y: 0.06932563887767518
    z: 0.0
  angular: 
    x: 0.0
    y: 0.0
    z: 0.0
---
header: 
  seq: 213
  stamp: 
    secs: 1722858157
    nsecs: 838040590
  frame_id: ''
twist: 
  linear: 
    x: 0.5590411773210173
    y: 0.06914919324299584
    z: 0.0
  angular: 
    x: 0.0
    y: 0.0
    z: 0.0
---
header: 
  seq: 214
  stamp: 
    secs: 1722858157
    nsecs: 854589223
  frame_id: ''
twist: 
  linear: 
    x: 0.5590462591406613
    y: 0.06920700807078004
    z: 0.0
  angular: 
    x: 0.0
    y: 0.0
    z: 0.0
---
header: 
  seq: 215
  stamp: 
    secs: 1722858157
    nsecs: 870293140
  frame_id: ''
twist: 
  linear: 
    x: 0.559059019879155
    y: 0.06941772494676855
    z: 0.0
  angular: 
    x: 0.0
    y: 0.0
    z: 0.0
---
header: 
  seq: 216
  stamp: 
    secs: 1722858157
    nsecs: 888283967
  frame_id: ''
twist: 
  linear: 
    x: 0.5590480134120028
    y: 0.06921340018554394
    z: 0.0
  angular: 
    x: 0.0
    y: 0.0
    z: 0.0
---
header: 
  seq: 217
  stamp: 
    secs: 1722858157
    nsecs: 902959108
  frame_id: ''
twist: 
  linear: 
    x: 0.559050307788084
    y: 0.06922464584486748
    z: 0.0
  angular: 
    x: 0.0
    y: 0.0
    z: 0.0
---
header: 
  seq: 218
  stamp: 
    secs: 1722858157
    nsecs: 923506498
  frame_id: ''
twist: 
  linear: 
    x: 0.5590505685836622
    y: 0.06922738262287435
    z: 0.0
  angular: 
    x: 0.0
    y: 0.0
    z: 0.0
---
header: 
  seq: 219
  stamp: 
    secs: 1722858157
    nsecs: 937933921
  frame_id: ''
twist: 
  linear: 
    x: 0.5590433608741603
    y: 0.069093285449183
    z: 0.0
  angular: 
    x: 0.0
    y: 0.0
    z: 0.0
---
header: 
  seq: 220
  stamp: 
    secs: 1722858157
    nsecs: 958739042
  frame_id: ''
twist: 
  linear: 
    x: 0.5590523643451034
    y: 0.06925571777248363
    z: 0.0
  angular: 
    x: 0.0
    y: 0.0
    z: 0.0
---
header: 
  seq: 221
  stamp: 
    secs: 1722858157
    nsecs: 981209516
  frame_id: ''
twist: 
  linear: 
    x: 0.5590560955482957
    y: 0.06922882082925393
    z: 0.0
  angular: 
    x: 0.0
    y: 0.0
    z: 0.0
---
header: 
  seq: 222
  stamp: 
    secs: 1722858158
    nsecs:   1711845
  frame_id: ''
twist: 
  linear: 
    x: 0.5590599441652594
    y: 0.06925890508935041
    z: 0.0
  angular: 
    x: 0.0
    y: 0.0
    z: 0.0
---
header: 
  seq: 223
  stamp: 
    secs: 1722858158
    nsecs:   8812904
  frame_id: ''
twist: 
  linear: 
    x: 0.559057009619719
    y: 0.06919978125540344
    z: 0.0
  angular: 
    x: 0.0
    y: 0.0
    z: 0.0
---
header: 
  seq: 224
  stamp: 
    secs: 1722858158
    nsecs:  24743795
  frame_id: ''
twist: 
  linear: 
    x: 0.5590624298257493
    y: 0.06920501196542134
    z: 0.0
  angular: 
    x: 0.0
    y: 0.0
    z: 0.0
---
header: 
  seq: 225
  stamp: 
    secs: 1722858158
    nsecs:  38447141
  frame_id: ''
twist: 
  linear: 
    x: 0.5590691820916532
    y: 0.06931516853696276
    z: 0.0
  angular: 
    x: 0.0
    y: 0.0
    z: 0.0
---
header: 
  seq: 226
  stamp: 
    secs: 1722858158
    nsecs:  46458005
  frame_id: ''
twist: 
  linear: 
    x: 0.5590757974422353
    y: 0.06943381101734519
    z: 0.0
  angular: 
    x: 0.0
    y: 0.0
    z: 0.0
---
header: 
  seq: 227
  stamp: 
    secs: 1722858158
    nsecs:  55332660
  frame_id: ''
twist: 
  linear: 
    x: 0.5590814326830814
    y: 0.06951994761966579
    z: 0.0
  angular: 
    x: 0.0
    y: 0.0
    z: 0.0
---
header: 
  seq: 228
  stamp: 
    secs: 1722858158
    nsecs:  70662736
  frame_id: ''
twist: 
  linear: 
    x: 0.5590665021171466
    y: 0.06933745956292858
    z: 0.0
  angular: 
    x: 0.0
    y: 0.0
    z: 0.0
---
header: 
  seq: 229
  stamp: 
    secs: 1722858158
    nsecs:  83771944
  frame_id: ''
twist: 
  linear: 
    x: 0.5590786233106134
    y: 0.06933507319224042
    z: 0.0
  angular: 
    x: 0.0
    y: 0.0
    z: 0.0
---
header: 
  seq: 230
  stamp: 
    secs: 1722858158
    nsecs:  92853784
  frame_id: ''
twist: 
  linear: 
    x: 0.559084576762079
    y: 0.06940379566530068
    z: 0.0
  angular: 
    x: 0.0
    y: 0.0
    z: 0.0
---
header: 
  seq: 231
  stamp: 
    secs: 1722858158
    nsecs: 121241331
  frame_id: ''
twist: 
  linear: 
    x: 0.5590906454640208
    y: 0.06934408255154373
    z: 0.0
  angular: 
    x: 0.0
    y: 0.0
    z: 0.0
---
header: 
  seq: 232
  stamp: 
    secs: 1722858158
    nsecs: 135174036
  frame_id: ''
twist: 
  linear: 
    x: 0.5590883140289156
    y: 0.06930928189940302
    z: 0.0
  angular: 
    x: 0.0
    y: 0.0
    z: 0.0
---
header: 
  seq: 233
  stamp: 
    secs: 1722858158
    nsecs: 153022050
  frame_id: ''
twist: 
  linear: 
    x: 0.5590883983995085
    y: 0.06931719878352526
    z: 0.0
  angular: 
    x: 0.0
    y: 0.0
    z: 0.0
---
header: 
  seq: 234
  stamp: 
    secs: 1722858158
    nsecs: 163881301
  frame_id: ''
twist: 
  linear: 
    x: 0.5590799593198117
    y: 0.06919908895598413
    z: 0.0
  angular: 
    x: 0.0
    y: 0.0
    z: 0.0
---
header: 
  seq: 235
  stamp: 
    secs: 1722858158
    nsecs: 220779418
  frame_id: ''
twist: 
  linear: 
    x: 0.5590795108215278
    y: 0.06916586825648222
    z: 0.0
  angular: 
    x: 0.0
    y: 0.0
    z: 0.0
---
header: 
  seq: 236
  stamp: 
    secs: 1722858158
    nsecs: 238837242
  frame_id: ''
twist: 
  linear: 
    x: 0.5590940702297397
    y: 0.06936463246313682
    z: 0.0
  angular: 
    x: 0.0
    y: 0.0
    z: 0.0
---
header: 
  seq: 237
  stamp: 
    secs: 1722858158
    nsecs: 249561786
  frame_id: ''
twist: 
  linear: 
    x: 0.5590787558144922
    y: 0.06914372167478246
    z: 0.0
  angular: 
    x: 0.0
    y: 0.0
    z: 0.0
---
header: 
  seq: 238
  stamp: 
    secs: 1722858158
    nsecs: 260190963
  frame_id: ''
twist: 
  linear: 
    x: 0.5590964906749665
    y: 0.0693768726741266
    z: 0.0
  angular: 
    x: 0.0
    y: 0.0
    z: 0.0
---
header: 
  seq: 239
  stamp: 
    secs: 1722858158
    nsecs: 277308702
  frame_id: ''
twist: 
  linear: 
    x: 0.5590894966579361
    y: 0.06928960098096335
    z: 0.0
  angular: 
    x: 0.0
    y: 0.0
    z: 0.0
---
header: 
  seq: 240
  stamp: 
    secs: 1722858158
    nsecs: 289220571
  frame_id: ''
twist: 
  linear: 
    x: 0.5590878076875972
    y: 0.06927543121363086
    z: 0.0
  angular: 
    x: 0.0
    y: 0.0
    z: 0.0
---
header: 
  seq: 241
  stamp: 
    secs: 1722858158
    nsecs: 314804315
  frame_id: ''
twist: 
  linear: 
    x: 0.5590964213665308
    y: 0.0693955704300371
    z: 0.0
  angular: 
    x: 0.0
    y: 0.0
    z: 0.0
---
header: 
  seq: 242
  stamp: 
    secs: 1722858158
    nsecs: 341570138
  frame_id: ''
twist: 
  linear: 
    x: 0.5590803047529234
    y: 0.06837406692809225
    z: 0.0
  angular: 
    x: 0.0
    y: 0.0
    z: 0.0
---
header: 
  seq: 243
  stamp: 
    secs: 1722858158
    nsecs: 360195398
  frame_id: ''
twist: 
  linear: 
    x: 0.5590408663714143
    y: 0.06780479122315244
    z: 0.0
  angular: 
    x: 0.0
    y: 0.0
    z: 0.0
---
header: 
  seq: 244
  stamp: 
    secs: 1722858158
    nsecs: 373106956
  frame_id: ''
twist: 
  linear: 
    x: 0.5591116997928802
    y: 0.06876400958898858
    z: 0.0
  angular: 
    x: 0.0
    y: 0.0
    z: 0.0
---
header: 
  seq: 245
  stamp: 
    secs: 1722858158
    nsecs: 383186578
  frame_id: ''
twist: 
  linear: 
    x: 0.5590550782122855
    y: 0.06802417615798353
    z: 0.0
  angular: 
    x: 0.0
    y: 0.0
    z: 0.0
---
header: 
  seq: 246
  stamp: 
    secs: 1722858158
    nsecs: 434594154
  frame_id: ''
twist: 
  linear: 
    x: 0.5591453093610913
    y: 0.0666861164552455
    z: 0.0
  angular: 
    x: 0.0
    y: 0.0
    z: 0.0
---
header: 
  seq: 247
  stamp: 
    secs: 1722858158
    nsecs: 442126989
  frame_id: ''
twist: 
  linear: 
    x: 0.5591786400738498
    y: 0.06700482509367954
    z: 0.0
  angular: 
    x: 0.0
    y: 0.0
    z: 0.0
---
header: 
  seq: 248
  stamp: 
    secs: 1722858158
    nsecs: 450694322
  frame_id: ''
twist: 
  linear: 
    x: 0.5591617917404734
    y: 0.06685037494762047
    z: 0.0
  angular: 
    x: 0.0
    y: 0.0
    z: 0.0
---
header: 
  seq: 249
  stamp: 
    secs: 1722858158
    nsecs: 458538055
  frame_id: ''
twist: 
  linear: 
    x: 0.5591732949906648
    y: 0.06693585041339582
    z: 0.0
  angular: 
    x: 0.0
    y: 0.0
    z: 0.0
---
header: 
  seq: 250
  stamp: 
    secs: 1722858158
    nsecs: 472910881
  frame_id: ''
twist: 
  linear: 
    x: 0.5591898155695809
    y: 0.06707204646961888
    z: 0.0
  angular: 
    x: 0.0
    y: 0.0
    z: 0.0
---
header: 
  seq: 251
  stamp: 
    secs: 1722858158
    nsecs: 491337060
  frame_id: ''
twist: 
  linear: 
    x: 0.5591772045405249
    y: 0.06697026151738367
    z: 0.0
  angular: 
    x: 0.0
    y: 0.0
    z: 0.0
---
header: 
  seq: 252
  stamp: 
    secs: 1722858158
    nsecs: 503563165
  frame_id: ''
twist: 
  linear: 
    x: 0.5591771213654444
    y: 0.06694256984516331
    z: 0.0
  angular: 
    x: 0.0
    y: 0.0
    z: 0.0
---
header: 
  seq: 253
  stamp: 
    secs: 1722858158
    nsecs: 509831666
  frame_id: ''
twist: 
  linear: 
    x: 0.5591681116265039
    y: 0.0668231944312267
    z: 0.0
  angular: 
    x: 0.0
    y: 0.0
    z: 0.0
---
header: 
  seq: 254
  stamp: 
    secs: 1722858158
    nsecs: 521258354
  frame_id: ''
twist: 
  linear: 
    x: 0.5591749232447769
    y: 0.06687451026199337
    z: 0.0
  angular: 
    x: 0.0
    y: 0.0
    z: 0.0
---
header: 
  seq: 255
  stamp: 
    secs: 1722858158
    nsecs: 530061721
  frame_id: ''
twist: 
  linear: 
    x: 0.5591563120318989
    y: 0.06668014894675928
    z: 0.0
  angular: 
    x: 0.0
    y: 0.0
    z: 0.0
---
header: 
  seq: 256
  stamp: 
    secs: 1722858158
    nsecs: 543298721
  frame_id: ''
twist: 
  linear: 
    x: 0.559218039848262
    y: 0.0672330582478264
    z: 0.0
  angular: 
    x: 0.0
    y: 0.0
    z: 0.0
---
header: 
  seq: 257
  stamp: 
    secs: 1722858158
    nsecs: 557601451
  frame_id: ''
twist: 
  linear: 
    x: 0.5591854416335622
    y: 0.06690893868104911
    z: 0.0
  angular: 
    x: 0.0
    y: 0.0
    z: 0.0
---
header: 
  seq: 258
  stamp: 
    secs: 1722858158
    nsecs: 570941448
  frame_id: ''
twist: 
  linear: 
    x: 0.5591887267960975
    y: 0.06692257852394659
    z: 0.0
  angular: 
    x: 0.0
    y: 0.0
    z: 0.0
---
header: 
  seq: 259
  stamp: 
    secs: 1722858158
    nsecs: 584910154
  frame_id: ''
twist: 
  linear: 
    x: 0.5592167953971852
    y: 0.06714469872356647
    z: 0.0
  angular: 
    x: 0.0
    y: 0.0
    z: 0.0
---
header: 
  seq: 260
  stamp: 
    secs: 1722858158
    nsecs: 593606472
  frame_id: ''
twist: 
  linear: 
    x: 0.5591901844789047
    y: 0.06692570894444043
    z: 0.0
  angular: 
    x: 0.0
    y: 0.0
    z: 0.0
---
header: 
  seq: 261
  stamp: 
    secs: 1722858158
    nsecs: 624556064
  frame_id: ''
twist: 
  linear: 
    x: 0.5592262490837243
    y: 0.06721722839707385
    z: 0.0
  angular: 
    x: 0.0
    y: 0.0
    z: 0.0
---
header: 
  seq: 262
  stamp: 
    secs: 1722858158
    nsecs: 647180080
  frame_id: ''
twist: 
  linear: 
    x: 0.5592207415256087
    y: 0.06711381560535579
    z: 0.0
  angular: 
    x: 0.0
    y: 0.0
    z: 0.0
---
header: 
  seq: 263
  stamp: 
    secs: 1722858158
    nsecs: 657813072
  frame_id: ''
twist: 
  linear: 
    x: 0.5592050297610733
    y: 0.06698870617109674
    z: 0.0
  angular: 
    x: 0.0
    y: 0.0
    z: 0.0
---
header: 
  seq: 264
  stamp: 
    secs: 1722858158
    nsecs: 671002149
  frame_id: ''
twist: 
  linear: 
    x: 0.559214346468518
    y: 0.0670517396896826
    z: 0.0
  angular: 
    x: 0.0
    y: 0.0
    z: 0.0
---
header: 
  seq: 265
  stamp: 
    secs: 1722858158
    nsecs: 694425582
  frame_id: ''
twist: 
  linear: 
    x: 0.5592487118563738
    y: 0.06704280763173641
    z: 0.0
  angular: 
    x: 0.0
    y: 0.0
    z: 0.0
---
header: 
  seq: 266
  stamp: 
    secs: 1722858158
    nsecs: 707386732
  frame_id: ''
twist: 
  linear: 
    x: 0.5592027626998903
    y: 0.06665608285617633
    z: 0.0
  angular: 
    x: 0.0
    y: 0.0
    z: 0.0
---
header: 
  seq: 267
  stamp: 
    secs: 1722858158
    nsecs: 720499038
  frame_id: ''
twist: 
  linear: 
    x: 0.5592145974469189
    y: 0.06675756764933317
    z: 0.0
  angular: 
    x: 0.0
    y: 0.0
    z: 0.0
---
header: 
  seq: 268
  stamp: 
    secs: 1722858158
    nsecs: 736545085
  frame_id: ''
twist: 
  linear: 
    x: 0.5592161589785054
    y: 0.06674281909594046
    z: 0.0
  angular: 
    x: 0.0
    y: 0.0
    z: 0.0
---
header: 
  seq: 269
  stamp: 
    secs: 1722858158
    nsecs: 755564451
  frame_id: ''
twist: 
  linear: 
    x: 0.5592371817921057
    y: 0.066922107103431
    z: 0.0
  angular: 
    x: 0.0
    y: 0.0
    z: 0.0
---
header: 
  seq: 270
  stamp: 
    secs: 1722858158
    nsecs: 760733842
  frame_id: ''
twist: 
  linear: 
    x: 0.5592326008197236
    y: 0.0668701910518119
    z: 0.0
  angular: 
    x: 0.0
    y: 0.0
    z: 0.0
---
header: 
  seq: 271
  stamp: 
    secs: 1722858158
    nsecs: 778662681
  frame_id: ''
twist: 
  linear: 
    x: 0.5592403900059045
    y: 0.06692332673638902
    z: 0.0
  angular: 
    x: 0.0
    y: 0.0
    z: 0.0
---
header: 
  seq: 272
  stamp: 
    secs: 1722858158
    nsecs: 791907310
  frame_id: ''
twist: 
  linear: 
    x: 0.5592422524256685
    y: 0.06694472970461646
    z: 0.0
  angular: 
    x: 0.0
    y: 0.0
    z: 0.0
---
header: 
  seq: 273
  stamp: 
    secs: 1722858158
    nsecs: 801003694
  frame_id: ''
twist: 
  linear: 
    x: 0.5592286907428824
    y: 0.06681444485296052
    z: 0.0
  angular: 
    x: 0.0
    y: 0.0
    z: 0.0
---
header: 
  seq: 274
  stamp: 
    secs: 1722858158
    nsecs: 811813116
  frame_id: ''
twist: 
  linear: 
    x: 0.5592499857594512
    y: 0.06696374799396229
    z: 0.0
  angular: 
    x: 0.0
    y: 0.0
    z: 0.0
---
header: 
  seq: 275
  stamp: 
    secs: 1722858158
    nsecs: 822200775
  frame_id: ''
twist: 
  linear: 
    x: 0.5592164657399862
    y: 0.06671129387668581
    z: 0.0
