header: 
  seq: 1700241
  stamp: 
    secs: 1722858458
    nsecs: 990873147
  frame_id: ''
magnetic_x: -9977.9677734375
magnetic_y: 5173.2236328125
magnetic_z: 16039.5283203125
---
header: 
  seq: 1700242
  stamp: 
    secs: 1722858458
    nsecs: 996873147
  frame_id: ''
magnetic_x: -9968.9521484375
magnetic_y: 5169.3037109375
magnetic_z: 16038.896484375
---
header: 
  seq: 1700243
  stamp: 
    secs: 1722858459
    nsecs:   2873147
  frame_id: ''
magnetic_x: -9979.927734375
magnetic_y: 5180.671875
magnetic_z: 16048.376953125
---
header: 
  seq: 1700244
  stamp: 
    secs: 1722858459
    nsecs:   9873147
  frame_id: ''
magnetic_x: -9972.8720703125
magnetic_y: 5172.0478515625
magnetic_z: 16059.12109375
---
header: 
  seq: 1700245
  stamp: 
    secs: 1722858459
    nsecs:  15873147
  frame_id: ''
magnetic_x: -9972.087890625
magnetic_y: 5176.35986328125
magnetic_z: 16056.5927734375
---
header: 
  seq: 1700246
  stamp: 
    secs: 1722858459
    nsecs:  21873147
  frame_id: ''
magnetic_x: -9973.6552734375
magnetic_y: 5169.69580078125
magnetic_z: 16057.224609375
---
header: 
  seq: 1700247
  stamp: 
    secs: 1722858459
    nsecs:  27873147
  frame_id: ''
magnetic_x: -9980.7119140625
magnetic_y: 5174.7919921875
magnetic_z: 16042.056640625
---
header: 
  seq: 1700248
  stamp: 
    secs: 1722858459
    nsecs:  33873147
  frame_id: ''
magnetic_x: -9976.7919921875
magnetic_y: 5169.3037109375
magnetic_z: 16042.6884765625
---
header: 
  seq: 1700249
  stamp: 
    secs: 1722858459
    nsecs:  39873147
  frame_id: ''
magnetic_x: -9974.0478515625
magnetic_y: 5157.93603515625
magnetic_z: 16050.2724609375
---
header: 
  seq: 1700250
  stamp: 
    secs: 1722858459
    nsecs:  45873147
  frame_id: ''
magnetic_x: -9976.7919921875
magnetic_y: 5175.18408203125
magnetic_z: 16046.48046875
---
header: 
  seq: 1700251
  stamp: 
    secs: 1722858459
    nsecs:  52873147
  frame_id: ''
magnetic_x: -9976.3994140625
magnetic_y: 5172.43994140625
magnetic_z: 16051.537109375
---
header: 
  seq: 1700252
  stamp: 
    secs: 1722858459
    nsecs:  58873147
  frame_id: ''
magnetic_x: -9977.9677734375
magnetic_y: 5177.14404296875
magnetic_z: 16058.48828125
---
header: 
  seq: 1700253
  stamp: 
    secs: 1722858459
    nsecs:  64873147
  frame_id: ''
magnetic_x: -9980.3193359375
magnetic_y: 5172.43994140625
magnetic_z: 16063.544921875
---
header: 
  seq: 1700254
  stamp: 
    secs: 1722858459
    nsecs:  70873147
  frame_id: ''
magnetic_x: -9982.279296875
magnetic_y: 5168.52001953125
magnetic_z: 16044.5849609375
---
header: 
  seq: 1700255
  stamp: 
    secs: 1722858459
    nsecs:  76873147
  frame_id: ''
magnetic_x: -9972.087890625
magnetic_y: 5187.3359375
magnetic_z: 16040.79296875
---
header: 
  seq: 1700256
  stamp: 
    secs: 1722858459
    nsecs:  82873147
  frame_id: ''
magnetic_x: -9974.0478515625
magnetic_y: 5171.65576171875
magnetic_z: 16032.5771484375
---
header: 
  seq: 1700257
  stamp: 
    secs: 1722858459
    nsecs:  88873147
  frame_id: ''
magnetic_x: -9979.1435546875
magnetic_y: 5176.35986328125
magnetic_z: 16042.6884765625
---
header: 
  seq: 1700258
  stamp: 
    secs: 1722858459
    nsecs:  95873147
  frame_id: ''
magnetic_x: -9985.416015625
magnetic_y: 5176.751953125
magnetic_z: 16057.224609375
---
header: 
  seq: 1700259
  stamp: 
    secs: 1722858459
    nsecs: 101873147
  frame_id: ''
magnetic_x: -9977.18359375
magnetic_y: 5170.087890625
magnetic_z: 16053.4326171875
---
header: 
  seq: 1700260
  stamp: 
    secs: 1722858459
    nsecs: 107873147
  frame_id: ''
magnetic_x: -9974.83203125
magnetic_y: 5168.52001953125
magnetic_z: 16040.1611328125
---
header: 
  seq: 1700261
  stamp: 
    secs: 1722858459
    nsecs: 113873147
  frame_id: ''
magnetic_x: -9975.2236328125
magnetic_y: 5170.087890625
magnetic_z: 16047.7451171875
---
header: 
  seq: 1700262
  stamp: 
    secs: 1722858459
    nsecs: 119873147
  frame_id: ''
magnetic_x: -9975.6162109375
magnetic_y: 5171.65576171875
magnetic_z: 16059.7529296875
---
header: 
  seq: 1700263
  stamp: 
    secs: 1722858459
    nsecs: 125873147
  frame_id: ''
magnetic_x: -9969.7353515625
magnetic_y: 5176.751953125
magnetic_z: 16047.7451171875
---
header: 
  seq: 1700264
  stamp: 
    secs: 1722858459
    nsecs: 131873147
  frame_id: ''
magnetic_x: -9981.49609375
magnetic_y: 5174.7919921875
magnetic_z: 16038.896484375
---
header: 
  seq: 1700265
  stamp: 
    secs: 1722858459
    nsecs: 138873147
  frame_id: ''
magnetic_x: -9985.416015625
magnetic_y: 5167.73583984375
magnetic_z: 16047.1123046875
---
header: 
  seq: 1700266
  stamp: 
    secs: 1722858459
    nsecs: 144873147
  frame_id: ''
magnetic_x: -9982.671875
magnetic_y: 5171.65576171875
magnetic_z: 16053.4326171875
---
header: 
  seq: 1700267
  stamp: 
    secs: 1722858459
    nsecs: 150873147
  frame_id: ''
magnetic_x: -9966.9921875
magnetic_y: 5168.91162109375
magnetic_z: 16061.0166015625
---
header: 
  seq: 1700268
  stamp: 
    secs: 1722858459
    nsecs: 156873147
  frame_id: ''
magnetic_x: -9978.751953125
magnetic_y: 5177.53564453125
magnetic_z: 16046.48046875
---
header: 
  seq: 1700269
  stamp: 
    secs: 1722858459
    nsecs: 162873147
  frame_id: ''
magnetic_x: -9974.83203125
magnetic_y: 5168.1279296875
magnetic_z: 16058.48828125
---
header: 
  seq: 1700270
  stamp: 
    secs: 1722858459
    nsecs: 168873147
  frame_id: ''
magnetic_x: -9975.2236328125
magnetic_y: 5177.927734375
magnetic_z: 16044.5849609375
---
header: 
  seq: 1700271
  stamp: 
    secs: 1722858459
    nsecs: 174873147
  frame_id: ''
magnetic_x: -9975.6162109375
magnetic_y: 5177.927734375
magnetic_z: 16048.376953125
---
header: 
  seq: 1700272
  stamp: 
    secs: 1722858459
    nsecs: 181873147
  frame_id: ''
magnetic_x: -9972.4794921875
magnetic_y: 5169.3037109375
magnetic_z: 16036.369140625
---
header: 
  seq: 1700273
  stamp: 
    secs: 1722858459
    nsecs: 187873147
  frame_id: ''
magnetic_x: -9976.7919921875
magnetic_y: 5173.61572265625
magnetic_z: 16076.1845703125
---
header: 
  seq: 1700274
  stamp: 
    secs: 1722858459
    nsecs: 193873147
  frame_id: ''
magnetic_x: -9983.84765625
magnetic_y: 5177.927734375
magnetic_z: 16058.48828125
---
header: 
  seq: 1700275
  stamp: 
    secs: 1722858459
    nsecs: 199873147
  frame_id: ''
magnetic_x: -9978.751953125
magnetic_y: 5168.91162109375
magnetic_z: 16049.0087890625
---
header: 
  seq: 1700276
  stamp: 
    secs: 1722858459
    nsecs: 205873147
  frame_id: ''
magnetic_x: -9975.6162109375
magnetic_y: 5174.7919921875
magnetic_z: 16042.056640625
---
header: 
  seq: 1700277
  stamp: 
    secs: 1722858459
    nsecs: 210873147
  frame_id: ''
magnetic_x: -9983.84765625
magnetic_y: 5177.14404296875
magnetic_z: 16053.4326171875
---
header: 
  seq: 1700278
  stamp: 
    secs: 1722858459
    nsecs: 216873147
  frame_id: ''
magnetic_x: -9971.6953125
magnetic_y: 5174.0078125
magnetic_z: 16054.064453125
---
header: 
  seq: 1700279
  stamp: 
    secs: 1722858459
    nsecs: 223873147
  frame_id: ''
magnetic_x: -9979.927734375
magnetic_y: 5170.47998046875
magnetic_z: 16044.5849609375
---
header: 
  seq: 1700280
  stamp: 
    secs: 1722858459
    nsecs: 229873147
  frame_id: ''
magnetic_x: -9971.6953125
magnetic_y: 5169.3037109375
magnetic_z: 16061.6484375
---
header: 
  seq: 1700281
  stamp: 
    secs: 1722858459
    nsecs: 235873147
  frame_id: ''
magnetic_x: -9974.0478515625
magnetic_y: 5164.99169921875
magnetic_z: 16054.064453125
---
header: 
  seq: 1700282
  stamp: 
    secs: 1722858459
    nsecs: 241873147
  frame_id: ''
magnetic_x: -9981.103515625
magnetic_y: 5170.087890625
magnetic_z: 16044.5849609375
---
header: 
  seq: 1700283
  stamp: 
    secs: 1722858459
    nsecs: 247873147
  frame_id: ''
magnetic_x: -9970.912109375
magnetic_y: 5172.0478515625
magnetic_z: 16049.640625
---
header: 
  seq: 1700284
  stamp: 
    secs: 1722858459
    nsecs: 253873147
  frame_id: ''
magnetic_x: -9973.263671875
magnetic_y: 5173.61572265625
magnetic_z: 16043.3203125
---
header: 
  seq: 1700285
  stamp: 
    secs: 1722858459
    nsecs: 259873147
  frame_id: ''
magnetic_x: -9976.3994140625
magnetic_y: 5174.0078125
magnetic_z: 16036.369140625
---
header: 
  seq: 1700286
  stamp: 
    secs: 1722858459
    nsecs: 266873147
  frame_id: ''
magnetic_x: -9971.6953125
magnetic_y: 5174.0078125
magnetic_z: 16045.216796875
---
header: 
  seq: 1700287
  stamp: 
    secs: 1722858459
    nsecs: 272873147
  frame_id: ''
magnetic_x: -9968.16796875
magnetic_y: 5176.35986328125
magnetic_z: 16046.48046875
---
header: 
  seq: 1700288
  stamp: 
    secs: 1722858459
    nsecs: 278873147
  frame_id: ''
magnetic_x: -9985.416015625
magnetic_y: 5176.35986328125
magnetic_z: 16068.6005859375
---
header: 
  seq: 1700289
  stamp: 
    secs: 1722858459
    nsecs: 284873147
  frame_id: ''
magnetic_x: -9978.359375
magnetic_y: 5171.263671875
magnetic_z: 16040.79296875
---
header: 
  seq: 1700290
  stamp: 
    secs: 1722858459
    nsecs: 290873147
  frame_id: ''
magnetic_x: -9975.2236328125
magnetic_y: 5174.39990234375
magnetic_z: 16044.5849609375
---
header: 
  seq: 1700291
  stamp: 
    secs: 1722858459
    nsecs: 296873147
  frame_id: ''
magnetic_x: -9974.0478515625
magnetic_y: 5174.7919921875
magnetic_z: 16050.2724609375
---
header: 
  seq: 1700292
  stamp: 
    secs: 1722858459
    nsecs: 302873147
  frame_id: ''
magnetic_x: -9974.83203125
magnetic_y: 5177.927734375
magnetic_z: 16056.5927734375
---
header: 
  seq: 1700293
  stamp: 
    secs: 1722858459
    nsecs: 309873147
  frame_id: ''
magnetic_x: -9975.6162109375
magnetic_y: 5178.31982421875
magnetic_z: 16049.0087890625
---
header: 
  seq: 1700294
  stamp: 
    secs: 1722858459
    nsecs: 315873147
  frame_id: ''
magnetic_x: -9990.9033203125
magnetic_y: 5177.14404296875
magnetic_z: 16057.8564453125
---
header: 
  seq: 1700295
  stamp: 
    secs: 1722858459
    nsecs: 321873147
  frame_id: ''
magnetic_x: -9970.51953125
magnetic_y: 5168.1279296875
magnetic_z: 16047.7451171875
---
header: 
  seq: 1700296
  stamp: 
    secs: 1722858459
    nsecs: 327873147
  frame_id: ''
magnetic_x: -9972.4794921875
magnetic_y: 5174.7919921875
magnetic_z: 16052.1689453125
---
header: 
  seq: 1700297
  stamp: 
    secs: 1722858459
    nsecs: 333873147
  frame_id: ''
magnetic_x: -9975.6162109375
magnetic_y: 5174.39990234375
magnetic_z: 16059.7529296875
---
header: 
  seq: 1700298
  stamp: 
    secs: 1722858459
    nsecs: 339873147
  frame_id: ''
magnetic_x: -9977.9677734375
magnetic_y: 5169.69580078125
magnetic_z: 16047.1123046875
---
header: 
  seq: 1700299
  stamp: 
    secs: 1722858459
    nsecs: 345873147
  frame_id: ''
magnetic_x: -9980.3193359375
magnetic_y: 5165.77587890625
magnetic_z: 16053.4326171875
---
header: 
  seq: 1700300
  stamp: 
    secs: 1722858459
    nsecs: 352873147
  frame_id: ''
magnetic_x: -9979.5361328125
magnetic_y: 5177.53564453125
magnetic_z: 16042.056640625
---
header: 
  seq: 1700301
  stamp: 
    secs: 1722858459
    nsecs: 358873147
  frame_id: ''
magnetic_x: -9984.2392578125
magnetic_y: 5173.61572265625
magnetic_z: 16034.47265625
---
header: 
  seq: 1700302
  stamp: 
    secs: 1722858459
    nsecs: 364873147
  frame_id: ''
magnetic_x: -9970.912109375
magnetic_y: 5177.927734375
magnetic_z: 16052.80078125
---
header: 
  seq: 1700303
  stamp: 
    secs: 1722858459
    nsecs: 370873147
  frame_id: ''
magnetic_x: -9982.671875
magnetic_y: 5174.7919921875
magnetic_z: 16042.6884765625
---
header: 
  seq: 1700304
  stamp: 
    secs: 1722858459
    nsecs: 376873147
  frame_id: ''
magnetic_x: -9972.8720703125
magnetic_y: 5170.47998046875
magnetic_z: 16051.537109375
---
header: 
  seq: 1700305
  stamp: 
    secs: 1722858459
    nsecs: 382873147
  frame_id: ''
magnetic_x: -9971.3037109375
magnetic_y: 5178.7119140625
magnetic_z: 16053.4326171875
---
header: 
  seq: 1700306
  stamp: 
    secs: 1722858459
    nsecs: 388873147
  frame_id: ''
magnetic_x: -9976.7919921875
magnetic_y: 5170.087890625
magnetic_z: 16044.5849609375
---
header: 
  seq: 1700307
  stamp: 
    secs: 1722858459
    nsecs: 395873147
  frame_id: ''
magnetic_x: -9983.84765625
magnetic_y: 5164.60009765625
magnetic_z: 16069.232421875
---
header: 
  seq: 1700308
  stamp: 
    secs: 1722858459
    nsecs: 401873147
  frame_id: ''
magnetic_x: -9977.576171875
magnetic_y: 5175.57568359375
magnetic_z: 16066.072265625
---
header: 
  seq: 1700309
  stamp: 
    secs: 1722858459
    nsecs: 407873147
  frame_id: ''
magnetic_x: -9974.0478515625
magnetic_y: 5176.35986328125
magnetic_z: 16055.3291015625
---
header: 
  seq: 1700310
  stamp: 
    secs: 1722858459
    nsecs: 413873147
  frame_id: ''
magnetic_x: -9975.2236328125
magnetic_y: 5179.10400390625
magnetic_z: 16061.0166015625
---
header: 
  seq: 1700311
  stamp: 
    secs: 1722858459
    nsecs: 419873147
  frame_id: ''
magnetic_x: -9977.9677734375
magnetic_y: 5170.47998046875
magnetic_z: 16057.8564453125
---
header: 
  seq: 1700312
  stamp: 
    secs: 1722858459
    nsecs: 425873147
  frame_id: ''
magnetic_x: -9983.0634765625
magnetic_y: 5183.02392578125
magnetic_z: 16057.224609375
---
header: 
  seq: 1700313
  stamp: 
    secs: 1722858459
    nsecs: 431873147
  frame_id: ''
magnetic_x: -9976.0078125
magnetic_y: 5167.34375
magnetic_z: 16042.6884765625
---
header: 
  seq: 1700314
  stamp: 
    secs: 1722858459
    nsecs: 438873147
  frame_id: ''
magnetic_x: -9978.751953125
magnetic_y: 5177.14404296875
magnetic_z: 16045.8486328125
---
header: 
  seq: 1700315
  stamp: 
    secs: 1722858459
    nsecs: 444873147
  frame_id: ''
magnetic_x: -9980.3193359375
magnetic_y: 5178.7119140625
magnetic_z: 16035.1044921875
---
header: 
  seq: 1700316
  stamp: 
    secs: 1722858459
    nsecs: 450873147
  frame_id: ''
magnetic_x: -9971.6953125
magnetic_y: 5171.263671875
magnetic_z: 16049.640625
---
header: 
  seq: 1700317
  stamp: 
    secs: 1722858459
    nsecs: 456873147
  frame_id: ''
magnetic_x: -9988.16015625
magnetic_y: 5179.49609375
magnetic_z: 16057.8564453125
---
header: 
  seq: 1700318
  stamp: 
    secs: 1722858459
    nsecs: 462873147
  frame_id: ''
magnetic_x: -9974.439453125
magnetic_y: 5174.39990234375
magnetic_z: 16047.7451171875
---
header: 
  seq: 1700319
  stamp: 
    secs: 1722858459
    nsecs: 467873147
  frame_id: ''
magnetic_x: -9966.9921875
magnetic_y: 5180.27978515625
magnetic_z: 16048.376953125
---
header: 
  seq: 1700320
  stamp: 
    secs: 1722858459
    nsecs: 473873147
  frame_id: ''
magnetic_x: -9974.439453125
magnetic_y: 5170.8720703125
magnetic_z: 16055.9609375
---
header: 
  seq: 1700321
  stamp: 
    secs: 1722858459
    nsecs: 480873147
  frame_id: ''
magnetic_x: -9977.9677734375
magnetic_y: 5180.27978515625
magnetic_z: 16052.80078125
---
header: 
  seq: 1700322
  stamp: 
    secs: 1722858459
    nsecs: 486873147
  frame_id: ''
magnetic_x: -9970.51953125
magnetic_y: 5172.43994140625
magnetic_z: 16054.6962890625
---
header: 
  seq: 1700323
  stamp: 
    secs: 1722858459
    nsecs: 492873147
  frame_id: ''
magnetic_x: -9970.1279296875
magnetic_y: 5172.43994140625
magnetic_z: 16056.5927734375
---
header: 
  seq: 1700324
  stamp: 
    secs: 1722858459
    nsecs: 498873147
  frame_id: ''
magnetic_x: -9983.4560546875
magnetic_y: 5168.52001953125
magnetic_z: 16055.9609375
---
header: 
  seq: 1700325
  stamp: 
    secs: 1722858459
    nsecs: 504873147
  frame_id: ''
magnetic_x: -9977.576171875
magnetic_y: 5171.65576171875
magnetic_z: 16036.369140625
---
header: 
  seq: 1700326
  stamp: 
    secs: 1722858459
    nsecs: 510873147
  frame_id: ''
magnetic_x: -9983.84765625
magnetic_y: 5174.7919921875
magnetic_z: 16045.8486328125
---
header: 
  seq: 1700327
  stamp: 
    secs: 1722858459
    nsecs: 516873147
  frame_id: ''
magnetic_x: -9979.1435546875
magnetic_y: 5168.52001953125
magnetic_z: 16040.79296875
---
header: 
  seq: 1700328
  stamp: 
    secs: 1722858459
    nsecs: 523873147
  frame_id: ''
magnetic_x: -9972.087890625
magnetic_y: 5168.52001953125
magnetic_z: 16049.0087890625
---
header: 
  seq: 1700329
  stamp: 
    secs: 1722858459
    nsecs: 529873147
  frame_id: ''
magnetic_x: -9968.9521484375
magnetic_y: 5168.1279296875
magnetic_z: 16059.7529296875
---
header: 
  seq: 1700330
  stamp: 
    secs: 1722858459
    nsecs: 535873147
  frame_id: ''
magnetic_x: -9983.0634765625
magnetic_y: 5175.18408203125
magnetic_z: 16054.6962890625
---
header: 
  seq: 1700331
  stamp: 
    secs: 1722858459
    nsecs: 541873147
  frame_id: ''
magnetic_x: -9986.9833984375
magnetic_y: 5174.0078125
magnetic_z: 16066.072265625
---
header: 
  seq: 1700332
  stamp: 
    secs: 1722858459
    nsecs: 547873147
  frame_id: ''
magnetic_x: -9981.103515625
magnetic_y: 5169.3037109375
magnetic_z: 16040.1611328125
---
header: 
  seq: 1700333
  stamp: 
    secs: 1722858459
    nsecs: 553873147
  frame_id: ''
magnetic_x: -9984.6318359375
magnetic_y: 5168.52001953125
magnetic_z: 16056.5927734375
---
header: 
  seq: 1700334
  stamp: 
    secs: 1722858459
    nsecs: 559873147
  frame_id: ''
magnetic_x: -9974.83203125
magnetic_y: 5166.95166015625
magnetic_z: 16044.5849609375
---
header: 
  seq: 1700335
  stamp: 
    secs: 1722858459
    nsecs: 566873147
  frame_id: ''
magnetic_x: -9981.103515625
magnetic_y: 5174.0078125
magnetic_z: 16050.904296875
---
header: 
  seq: 1700336
  stamp: 
    secs: 1722858459
    nsecs: 572873147
  frame_id: ''
magnetic_x: -9971.3037109375
magnetic_y: 5173.2236328125
magnetic_z: 16037.0009765625
---
header: 
  seq: 1700337
  stamp: 
    secs: 1722858459
    nsecs: 578873147
  frame_id: ''
magnetic_x: -9969.7353515625
magnetic_y: 5163.423828125
magnetic_z: 16047.7451171875
---
header: 
  seq: 1700338
  stamp: 
    secs: 1722858459
    nsecs: 584873147
  frame_id: ''
magnetic_x: -9972.4794921875
magnetic_y: 5175.18408203125
magnetic_z: 16055.3291015625
---
header: 
  seq: 1700339
  stamp: 
    secs: 1722858459
    nsecs: 590873147
  frame_id: ''
magnetic_x: -9981.103515625
magnetic_y: 5179.10400390625
magnetic_z: 16053.4326171875
---
header: 
  seq: 1700340
  stamp: 
    secs: 1722858459
    nsecs: 596873147
  frame_id: ''
magnetic_x: -9969.7353515625
magnetic_y: 5176.35986328125
magnetic_z: 16057.224609375
---
header: 
  seq: 1700341
  stamp: 
    secs: 1722858459
    nsecs: 602873147
  frame_id: ''
magnetic_x: -9983.84765625
magnetic_y: 5168.1279296875
magnetic_z: 16055.3291015625
---
header: 
  seq: 1700342
  stamp: 
    secs: 1722858459
    nsecs: 609873147
  frame_id: ''
magnetic_x: -9975.2236328125
magnetic_y: 5166.95166015625
magnetic_z: 16040.79296875
---
header: 
  seq: 1700343
  stamp: 
    secs: 1722858459
    nsecs: 615873147
  frame_id: ''
magnetic_x: -9980.7119140625
magnetic_y: 5175.57568359375
magnetic_z: 16050.2724609375
---
header: 
  seq: 1700344
  stamp: 
    secs: 1722858459
    nsecs: 621873147
  frame_id: ''
magnetic_x: -9981.49609375
magnetic_y: 5166.56005859375
magnetic_z: 16037.0009765625
---
header: 
  seq: 1700345
  stamp: 
    secs: 1722858459
    nsecs: 627873147
  frame_id: ''
magnetic_x: -9969.34375
magnetic_y: 5180.27978515625
magnetic_z: 16047.1123046875
---
header: 
  seq: 1700346
  stamp: 
    secs: 1722858459
    nsecs: 633873147
  frame_id: ''
magnetic_x: -9981.8876953125
magnetic_y: 5174.39990234375
magnetic_z: 16035.1044921875
---
header: 
  seq: 1700347
  stamp: 
    secs: 1722858459
    nsecs: 639873147
  frame_id: ''
magnetic_x: -9972.8720703125
magnetic_y: 5171.263671875
magnetic_z: 16054.064453125
---
header: 
  seq: 1700348
  stamp: 
    secs: 1722858459
    nsecs: 645873147
  frame_id: ''
magnetic_x: -9970.912109375
magnetic_y: 5167.34375
magnetic_z: 16052.80078125
---
header: 
  seq: 1700349
  stamp: 
    secs: 1722858459
    nsecs: 652873147
  frame_id: ''
magnetic_x: -9981.49609375
magnetic_y: 5165.77587890625
magnetic_z: 16043.953125
---
header: 
  seq: 1700350
  stamp: 
    secs: 1722858459
    nsecs: 658873147
  frame_id: ''
magnetic_x: -9981.103515625
magnetic_y: 5175.9677734375
magnetic_z: 16045.8486328125
---
header: 
  seq: 1700351
  stamp: 
    secs: 1722858459
    nsecs: 664873147
  frame_id: ''
magnetic_x: -9964.6396484375
magnetic_y: 5164.2080078125
magnetic_z: 16047.1123046875
---
header: 
  seq: 1700352
  stamp: 
    secs: 1722858459
    nsecs: 670873147
  frame_id: ''
magnetic_x: -9971.3037109375
magnetic_y: 5174.7919921875
magnetic_z: 16052.80078125
---
header: 
  seq: 1700353
  stamp: 
    secs: 1722858459
    nsecs: 676873147
  frame_id: ''
magnetic_x: -9983.4560546875
magnetic_y: 5171.65576171875
magnetic_z: 16042.056640625
---
header: 
  seq: 1700354
  stamp: 
    secs: 1722858459
    nsecs: 682873147
  frame_id: ''
magnetic_x: -9977.576171875
magnetic_y: 5175.9677734375
magnetic_z: 16038.896484375
---
header: 
  seq: 1700355
  stamp: 
    secs: 1722858459
    nsecs: 688873147
  frame_id: ''
magnetic_x: -9976.7919921875
magnetic_y: 5176.751953125
magnetic_z: 16043.953125
---
header: 
  seq: 1700356
  stamp: 
    secs: 1722858459
    nsecs: 695873147
  frame_id: ''
magnetic_x: -9972.4794921875
magnetic_y: 5169.69580078125
magnetic_z: 16056.5927734375
---
header: 
  seq: 1700357
  stamp: 
    secs: 1722858459
    nsecs: 701873147
  frame_id: ''
magnetic_x: -9981.8876953125
magnetic_y: 5173.61572265625
magnetic_z: 16043.953125
---
header: 
  seq: 1700358
  stamp: 
    secs: 1722858459
    nsecs: 707873147
  frame_id: ''
magnetic_x: -9981.103515625
magnetic_y: 5174.39990234375
magnetic_z: 16051.537109375
---
header: 
  seq: 1700359
  stamp: 
    secs: 1722858459
    nsecs: 713873147
  frame_id: ''
magnetic_x: -9982.671875
magnetic_y: 5172.83203125
magnetic_z: 16049.0087890625
---
header: 
  seq: 1700360
  stamp: 
    secs: 1722858459
    nsecs: 719873147
  frame_id: ''
magnetic_x: -9981.103515625
magnetic_y: 5168.52001953125
magnetic_z: 16058.48828125
---
header: 
  seq: 1700361
  stamp: 
    secs: 1722858459
    nsecs: 725873147
  frame_id: ''
magnetic_x: -9973.6552734375
magnetic_y: 5170.47998046875
magnetic_z: 16057.8564453125
---
header: 
  seq: 1700362
  stamp: 
    secs: 1722858459
    nsecs: 730873147
  frame_id: ''
magnetic_x: -9978.359375
magnetic_y: 5173.2236328125
magnetic_z: 16042.6884765625
---
header: 
  seq: 1700363
  stamp: 
    secs: 1722858459
    nsecs: 737873147
  frame_id: ''
magnetic_x: -9971.6953125
magnetic_y: 5162.6396484375
magnetic_z: 16057.224609375
---
header: 
  seq: 1700364
  stamp: 
    secs: 1722858459
    nsecs: 743873147
  frame_id: ''
magnetic_x: -9972.4794921875
magnetic_y: 5171.263671875
magnetic_z: 16064.1767578125
---
header: 
  seq: 1700365
  stamp: 
    secs: 1722858459
    nsecs: 749873147
  frame_id: ''
magnetic_x: -9978.751953125
magnetic_y: 5165.3837890625
magnetic_z: 16055.9609375
---
header: 
  seq: 1700366
  stamp: 
    secs: 1722858459
    nsecs: 755873147
  frame_id: ''
magnetic_x: -9983.84765625
magnetic_y: 5170.087890625
magnetic_z: 16045.216796875
---
header: 
  seq: 1700367
  stamp: 
    secs: 1722858459
    nsecs: 761873147
  frame_id: ''
magnetic_x: -9974.0478515625
magnetic_y: 5168.91162109375
magnetic_z: 16048.376953125
---
header: 
  seq: 1700368
  stamp: 
    secs: 1722858459
    nsecs: 767873147
  frame_id: ''
magnetic_x: -9965.8154296875
magnetic_y: 5170.47998046875
magnetic_z: 16052.80078125
---
header: 
  seq: 1700369
  stamp: 
    secs: 1722858459
    nsecs: 773873147
  frame_id: ''
magnetic_x: -9972.4794921875
magnetic_y: 5169.3037109375
magnetic_z: 16057.8564453125
---
header: 
  seq: 1700370
  stamp: 
    secs: 1722858459
    nsecs: 780873147
  frame_id: ''
magnetic_x: -9976.3994140625
magnetic_y: 5174.7919921875
magnetic_z: 16060.384765625
---
header: 
  seq: 1700371
  stamp: 
    secs: 1722858459
    nsecs: 786873147
  frame_id: ''
magnetic_x: -9962.6796875
magnetic_y: 5177.53564453125
magnetic_z: 16048.376953125
---
header: 
  seq: 1700372
  stamp: 
    secs: 1722858459
    nsecs: 792873147
  frame_id: ''
magnetic_x: -9982.279296875
magnetic_y: 5175.57568359375
magnetic_z: 16051.537109375
---
header: 
  seq: 1700373
  stamp: 
    secs: 1722858459
    nsecs: 798873147
  frame_id: ''
magnetic_x: -9981.8876953125
magnetic_y: 5170.087890625
magnetic_z: 16064.1767578125
---
header: 
  seq: 1700374
  stamp: 
    secs: 1722858459
    nsecs: 804873147
  frame_id: ''
magnetic_x: -9976.3994140625
magnetic_y: 5170.47998046875
magnetic_z: 16054.064453125
---
header: 
  seq: 1700375
  stamp: 
    secs: 1722858459
    nsecs: 810873147
  frame_id: ''
magnetic_x: -9981.8876953125
magnetic_y: 5175.9677734375
magnetic_z: 16054.6962890625
---
header: 
  seq: 1700376
  stamp: 
    secs: 1722858459
    nsecs: 816873147
  frame_id: ''
magnetic_x: -9972.4794921875
magnetic_y: 5173.61572265625
magnetic_z: 16051.537109375
---
header: 
  seq: 1700377
  stamp: 
    secs: 1722858459
    nsecs: 823873147
  frame_id: ''
magnetic_x: -9976.7919921875
magnetic_y: 5171.263671875
magnetic_z: 16035.736328125
---
header: 
  seq: 1700378
  stamp: 
    secs: 1722858459
    nsecs: 829873147
  frame_id: ''
magnetic_x: -9974.0478515625
magnetic_y: 5166.16796875
magnetic_z: 16043.3203125
---
header: 
  seq: 1700379
  stamp: 
    secs: 1722858459
    nsecs: 835873147
  frame_id: ''
magnetic_x: -9970.912109375
magnetic_y: 5173.61572265625
magnetic_z: 16042.6884765625
---
header: 
  seq: 1700380
  stamp: 
    secs: 1722858459
    nsecs: 841873147
  frame_id: ''
magnetic_x: -9985.8076171875
magnetic_y: 5172.43994140625
magnetic_z: 16041.4248046875
---
header: 
  seq: 1700381
  stamp: 
    secs: 1722858459
    nsecs: 847873147
  frame_id: ''
magnetic_x: -9980.7119140625
magnetic_y: 5163.423828125
magnetic_z: 16035.736328125
---
header: 
  seq: 1700382
  stamp: 
    secs: 1722858459
    nsecs: 853873147
  frame_id: ''
magnetic_x: -9970.51953125
magnetic_y: 5173.2236328125
magnetic_z: 16064.80859375
---
header: 
  seq: 1700383
  stamp: 
    secs: 1722858459
    nsecs: 859873147
  frame_id: ''
magnetic_x: -9981.103515625
magnetic_y: 5175.57568359375
magnetic_z: 16046.48046875
---
header: 
  seq: 1700384
  stamp: 
    secs: 1722858459
    nsecs: 866873147
  frame_id: ''
magnetic_x: -9975.2236328125
magnetic_y: 5168.1279296875
magnetic_z: 16061.0166015625
---
header: 
  seq: 1700385
  stamp: 
    secs: 1722858459
    nsecs: 872873147
  frame_id: ''
magnetic_x: -9986.9833984375
magnetic_y: 5172.83203125
magnetic_z: 16050.904296875
---
header: 
  seq: 1700386
  stamp: 
    secs: 1722858459
    nsecs: 878873147
  frame_id: ''
magnetic_x: -9990.51171875
magnetic_y: 5174.7919921875
magnetic_z: 16054.6962890625
---
header: 
  seq: 1700387
  stamp: 
    secs: 1722858459
    nsecs: 884873147
  frame_id: ''
magnetic_x: -9961.8955078125
magnetic_y: 5174.39990234375
magnetic_z: 16062.9130859375
---
header: 
  seq: 1700388
  stamp: 
    secs: 1722858459
    nsecs: 890873147
  frame_id: ''
magnetic_x: -9976.3994140625
magnetic_y: 5177.14404296875
magnetic_z: 16052.80078125
---
header: 
  seq: 1700389
  stamp: 
    secs: 1722858459
    nsecs: 896873147
  frame_id: ''
magnetic_x: -9968.9521484375
magnetic_y: 5174.39990234375
magnetic_z: 16045.216796875
---
header: 
  seq: 1700390
  stamp: 
    secs: 1722858459
    nsecs: 903873147
  frame_id: ''
magnetic_x: -9969.7353515625
magnetic_y: 5174.7919921875
magnetic_z: 16061.0166015625
---
header: 
  seq: 1700391
  stamp: 
    secs: 1722858459
    nsecs: 909873147
  frame_id: ''
magnetic_x: -9976.3994140625
magnetic_y: 5170.47998046875
magnetic_z: 16063.544921875
---
header: 
  seq: 1700392
  stamp: 
    secs: 1722858459
    nsecs: 915873147
  frame_id: ''
magnetic_x: -9980.3193359375
magnetic_y: 5175.18408203125
magnetic_z: 16047.7451171875
---
header: 
  seq: 1700393
  stamp: 
    secs: 1722858459
    nsecs: 921873147
  frame_id: ''
magnetic_x: -9977.9677734375
magnetic_y: 5174.7919921875
magnetic_z: 16062.9130859375
---
header: 
  seq: 1700394
  stamp: 
    secs: 1722858459
    nsecs: 927873147
  frame_id: ''
magnetic_x: -9974.83203125
magnetic_y: 5166.16796875
magnetic_z: 16054.6962890625
---
header: 
  seq: 1700395
  stamp: 
    secs: 1722858459
    nsecs: 933873147
  frame_id: ''
magnetic_x: -9984.2392578125
magnetic_y: 5165.77587890625
magnetic_z: 16052.80078125
---
header: 
  seq: 1700396
  stamp: 
    secs: 1722858459
    nsecs: 939873147
  frame_id: ''
magnetic_x: -9975.2236328125
magnetic_y: 5182.23974609375
magnetic_z: 16044.5849609375
---
header: 
  seq: 1700397
  stamp: 
    secs: 1722858459
    nsecs: 946873147
  frame_id: ''
magnetic_x: -9979.927734375
magnetic_y: 5169.69580078125
magnetic_z: 16040.79296875
---
header: 
  seq: 1700398
  stamp: 
    secs: 1722858459
    nsecs: 952873147
  frame_id: ''
magnetic_x: -9980.7119140625
magnetic_y: 5175.9677734375
magnetic_z: 16052.80078125
---
header: 
  seq: 1700399
  stamp: 
    secs: 1722858459
    nsecs: 958873147
  frame_id: ''
magnetic_x: -9988.943359375
magnetic_y: 5166.95166015625
magnetic_z: 16061.0166015625
---
header: 
  seq: 1700400
  stamp: 
    secs: 1722858459
    nsecs: 964873147
  frame_id: ''
magnetic_x: -9979.927734375
magnetic_y: 5169.3037109375
magnetic_z: 16047.1123046875
---
header: 
  seq: 1700401
  stamp: 
    secs: 1722858459
    nsecs: 970873147
  frame_id: ''
magnetic_x: -9970.912109375
magnetic_y: 5177.927734375
magnetic_z: 16061.0166015625
---
header: 
  seq: 1700402
  stamp: 
    secs: 1722858459
    nsecs: 976873147
  frame_id: ''
magnetic_x: -9973.263671875
magnetic_y: 5163.423828125
magnetic_z: 16050.2724609375
---
header: 
  seq: 1700403
  stamp: 
    secs: 1722858459
    nsecs: 982873147
  frame_id: ''
magnetic_x: -9979.5361328125
magnetic_y: 5173.2236328125
magnetic_z: 16049.0087890625
---
header: 
  seq: 1700404
  stamp: 
    secs: 1722858459
    nsecs: 989873147
  frame_id: ''
magnetic_x: -9980.3193359375
magnetic_y: 5176.35986328125
magnetic_z: 16050.904296875
---
header: 
  seq: 1700405
  stamp: 
    secs: 1722858459
    nsecs: 994873147
  frame_id: ''
magnetic_x: -9977.9677734375
magnetic_y: 5172.43994140625
magnetic_z: 16041.4248046875
---
header: 
  seq: 1700406
  stamp: 
    secs: 1722858460
    nsecs:    873147
  frame_id: ''
magnetic_x: -9979.5361328125
magnetic_y: 5179.49609375
magnetic_z: 16064.80859375
---
header: 
  seq: 1700407
  stamp: 
    secs: 1722858460
    nsecs:   6873147
  frame_id: ''
magnetic_x: -9983.84765625
magnetic_y: 5177.53564453125
magnetic_z: 16037.0009765625
---
header: 
  seq: 1700408
  stamp: 
    secs: 1722858460
    nsecs:  12873147
  frame_id: ''
magnetic_x: -9973.263671875
magnetic_y: 5175.18408203125
magnetic_z: 16041.4248046875
---
header: 
  seq: 1700409
  stamp: 
    secs: 1722858460
    nsecs:  18873147
  frame_id: ''
magnetic_x: -9969.7353515625
magnetic_y: 5168.91162109375
magnetic_z: 16052.1689453125
---
header: 
  seq: 1700410
  stamp: 
    secs: 1722858460
    nsecs:  24873147
  frame_id: ''
magnetic_x: -9968.5595703125
magnetic_y: 5169.69580078125
magnetic_z: 16046.48046875
---
header: 
  seq: 1700411
  stamp: 
    secs: 1722858460
    nsecs:  31873147
  frame_id: ''
magnetic_x: -9978.359375
magnetic_y: 5163.423828125
magnetic_z: 16049.640625
---
header: 
  seq: 1700412
  stamp: 
    secs: 1722858460
    nsecs:  37873147
  frame_id: ''
magnetic_x: -9983.0634765625
magnetic_y: 5172.0478515625
magnetic_z: 16040.79296875
---
header: 
  seq: 1700413
  stamp: 
    secs: 1722858460
    nsecs:  43873147
  frame_id: ''
magnetic_x: -9981.49609375
magnetic_y: 5168.52001953125
magnetic_z: 16065.4404296875
---
header: 
  seq: 1700414
  stamp: 
    secs: 1722858460
    nsecs:  49873147
  frame_id: ''
magnetic_x: -9977.9677734375
magnetic_y: 5175.9677734375
magnetic_z: 16047.1123046875
---
header: 
  seq: 1700415
  stamp: 
    secs: 1722858460
    nsecs:  55873147
  frame_id: ''
magnetic_x: -9974.83203125
magnetic_y: 5177.927734375
magnetic_z: 16064.80859375
---
header: 
  seq: 1700416
  stamp: 
    secs: 1722858460
    nsecs:  61873147
  frame_id: ''
magnetic_x: -9981.103515625
magnetic_y: 5170.8720703125
magnetic_z: 16038.896484375
---
header: 
  seq: 1700417
  stamp: 
    secs: 1722858460
    nsecs:  67873147
  frame_id: ''
magnetic_x: -9976.3994140625
magnetic_y: 5161.4638671875
magnetic_z: 16043.3203125
---
header: 
  seq: 1700418
  stamp: 
    secs: 1722858460
    nsecs:  74873147
  frame_id: ''
magnetic_x: -9987.3759765625
magnetic_y: 5178.31982421875
magnetic_z: 16054.064453125
---
header: 
  seq: 1700419
  stamp: 
    secs: 1722858460
    nsecs:  80873147
  frame_id: ''
magnetic_x: -9962.2880859375
magnetic_y: 5177.14404296875
magnetic_z: 16041.4248046875
---
header: 
  seq: 1700420
  stamp: 
    secs: 1722858460
    nsecs:  86873147
  frame_id: ''
magnetic_x: -9981.8876953125
magnetic_y: 5182.6318359375
magnetic_z: 16042.056640625
---
header: 
  seq: 1700421
  stamp: 
    secs: 1722858460
    nsecs:  92873147
  frame_id: ''
magnetic_x: -9977.9677734375
magnetic_y: 5172.43994140625
magnetic_z: 16047.7451171875
---
header: 
  seq: 1700422
  stamp: 
    secs: 1722858460
    nsecs:  98873147
  frame_id: ''
magnetic_x: -9980.3193359375
magnetic_y: 5181.4560546875
magnetic_z: 16038.2646484375
---
header: 
  seq: 1700423
  stamp: 
    secs: 1722858460
    nsecs: 104873147
  frame_id: ''
magnetic_x: -9968.5595703125
magnetic_y: 5169.3037109375
magnetic_z: 16047.1123046875
---
header: 
  seq: 1700424
  stamp: 
    secs: 1722858460
    nsecs: 110873147
  frame_id: ''
magnetic_x: -9968.5595703125
magnetic_y: 5172.43994140625
magnetic_z: 16045.216796875
---
header: 
  seq: 1700425
  stamp: 
    secs: 1722858460
    nsecs: 117873147
  frame_id: ''
magnetic_x: -9974.0478515625
magnetic_y: 5171.65576171875
magnetic_z: 16057.8564453125
---
header: 
  seq: 1700426
  stamp: 
    secs: 1722858460
    nsecs: 123873147
  frame_id: ''
magnetic_x: -9980.3193359375
magnetic_y: 5172.0478515625
magnetic_z: 16043.953125
---
header: 
  seq: 1700427
  stamp: 
    secs: 1722858460
    nsecs: 129873147
  frame_id: ''
magnetic_x: -9977.576171875
magnetic_y: 5173.2236328125
magnetic_z: 16045.216796875
---
header: 
  seq: 1700428
  stamp: 
    secs: 1722858460
    nsecs: 135873147
  frame_id: ''
magnetic_x: -9972.8720703125
magnetic_y: 5172.83203125
magnetic_z: 16062.2802734375
---
header: 
  seq: 1700429
  stamp: 
    secs: 1722858460
    nsecs: 141873147
  frame_id: ''
magnetic_x: -9981.8876953125
magnetic_y: 5170.47998046875
magnetic_z: 16034.47265625
---
header: 
  seq: 1700430
  stamp: 
    secs: 1722858460
    nsecs: 147873147
  frame_id: ''
magnetic_x: -9972.087890625
magnetic_y: 5179.8876953125
magnetic_z: 16043.953125
---
header: 
  seq: 1700431
  stamp: 
    secs: 1722858460
    nsecs: 153873147
  frame_id: ''
magnetic_x: -9981.49609375
magnetic_y: 5167.34375
magnetic_z: 16043.3203125
---
header: 
  seq: 1700432
  stamp: 
    secs: 1722858460
    nsecs: 160873147
  frame_id: ''
magnetic_x: -9979.1435546875
magnetic_y: 5174.0078125
magnetic_z: 16051.537109375
---
header: 
  seq: 1700433
  stamp: 
    secs: 1722858460
    nsecs: 166873147
  frame_id: ''
magnetic_x: -9975.6162109375
magnetic_y: 5169.69580078125
magnetic_z: 16054.064453125
---
header: 
  seq: 1700434
  stamp: 
    secs: 1722858460
    nsecs: 172873147
  frame_id: ''
magnetic_x: -9984.2392578125
magnetic_y: 5173.61572265625
magnetic_z: 16059.7529296875
---
header: 
  seq: 1700435
  stamp: 
    secs: 1722858460
    nsecs: 178873147
  frame_id: ''
magnetic_x: -9967.775390625
magnetic_y: 5174.39990234375
magnetic_z: 16052.80078125
---
header: 
  seq: 1700436
  stamp: 
    secs: 1722858460
    nsecs: 184873147
  frame_id: ''
magnetic_x: -9973.6552734375
magnetic_y: 5163.81591796875
magnetic_z: 16053.4326171875
---
header: 
  seq: 1700437
  stamp: 
    secs: 1722858460
    nsecs: 190873147
  frame_id: ''
magnetic_x: -9972.4794921875
magnetic_y: 5169.69580078125
magnetic_z: 16049.0087890625
---
header: 
  seq: 1700438
  stamp: 
    secs: 1722858460
    nsecs: 196873147
  frame_id: ''
magnetic_x: -9977.18359375
magnetic_y: 5167.34375
magnetic_z: 16044.5849609375
---
header: 
  seq: 1700439
  stamp: 
    secs: 1722858460
    nsecs: 203873147
  frame_id: ''
magnetic_x: -9982.279296875
magnetic_y: 5174.0078125
magnetic_z: 16047.1123046875
---
header: 
  seq: 1700440
  stamp: 
    secs: 1722858460
    nsecs: 209873147
  frame_id: ''
magnetic_x: -9978.359375
magnetic_y: 5171.65576171875
magnetic_z: 16047.1123046875
---
header: 
  seq: 1700441
  stamp: 
    secs: 1722858460
    nsecs: 215873147
  frame_id: ''
magnetic_x: -9977.576171875
magnetic_y: 5171.263671875
magnetic_z: 16050.904296875
---
header: 
  seq: 1700442
  stamp: 
    secs: 1722858460
    nsecs: 221873147
  frame_id: ''
magnetic_x: -9973.6552734375
magnetic_y: 5169.69580078125
magnetic_z: 16062.9130859375
---
header: 
  seq: 1700443
  stamp: 
    secs: 1722858460
    nsecs: 227873147
  frame_id: ''
magnetic_x: -9975.2236328125
magnetic_y: 5169.69580078125
magnetic_z: 16066.072265625
---
header: 
  seq: 1700444
  stamp: 
    secs: 1722858460
    nsecs: 233873147
  frame_id: ''
magnetic_x: -9978.751953125
magnetic_y: 5173.2236328125
magnetic_z: 16032.5771484375
---
header: 
  seq: 1700445
  stamp: 
    secs: 1722858460
    nsecs: 239873147
  frame_id: ''
magnetic_x: -9981.103515625
magnetic_y: 5179.49609375
magnetic_z: 16042.6884765625
---
header: 
  seq: 1700446
  stamp: 
    secs: 1722858460
    nsecs: 246873147
  frame_id: ''
magnetic_x: -9975.6162109375
magnetic_y: 5180.671875
magnetic_z: 16040.1611328125
---
header: 
  seq: 1700447
  stamp: 
    secs: 1722858460
    nsecs: 251873147
  frame_id: ''
magnetic_x: -9978.359375
magnetic_y: 5173.2236328125
magnetic_z: 16050.2724609375
---
header: 
  seq: 1700448
  stamp: 
    secs: 1722858460
    nsecs: 257873147
  frame_id: ''
magnetic_x: -9989.3359375
magnetic_y: 5166.16796875
magnetic_z: 16055.9609375
---
header: 
  seq: 1700449
  stamp: 
    secs: 1722858460
    nsecs: 263873147
  frame_id: ''
magnetic_x: -9963.4638671875
magnetic_y: 5178.31982421875
magnetic_z: 16067.3369140625
---
header: 
  seq: 1700450
  stamp: 
    secs: 1722858460
    nsecs: 269873147
  frame_id: ''
magnetic_x: -9982.671875
magnetic_y: 5164.99169921875
magnetic_z: 16038.896484375
---
header: 
  seq: 1700451
  stamp: 
    secs: 1722858460
    nsecs: 275873147
  frame_id: ''
magnetic_x: -9978.751953125
magnetic_y: 5177.927734375
magnetic_z: 16067.3369140625
---
header: 
  seq: 1700452
  stamp: 
    secs: 1722858460
    nsecs: 281873147
  frame_id: ''
magnetic_x: -9966.599609375
magnetic_y: 5164.60009765625
magnetic_z: 16047.1123046875
---
header: 
  seq: 1700453
  stamp: 
    secs: 1722858460
    nsecs: 288873147
  frame_id: ''
magnetic_x: -9979.1435546875
magnetic_y: 5164.60009765625
magnetic_z: 16049.640625
---
header: 
  seq: 1700454
  stamp: 
    secs: 1722858460
    nsecs: 294873147
  frame_id: ''
magnetic_x: -9987.3759765625
magnetic_y: 5171.263671875
magnetic_z: 16032.5771484375
---
header: 
  seq: 1700455
  stamp: 
    secs: 1722858460
    nsecs: 300873147
  frame_id: ''
magnetic_x: -9981.8876953125
magnetic_y: 5172.83203125
magnetic_z: 16055.9609375
---
header: 
  seq: 1700456
  stamp: 
    secs: 1722858460
    nsecs: 306873147
  frame_id: ''
magnetic_x: -9969.7353515625
magnetic_y: 5174.39990234375
magnetic_z: 16036.369140625
---
header: 
  seq: 1700457
  stamp: 
    secs: 1722858460
    nsecs: 312873147
  frame_id: ''
magnetic_x: -9973.263671875
magnetic_y: 5178.7119140625
magnetic_z: 16045.8486328125
---
header: 
  seq: 1700458
  stamp: 
    secs: 1722858460
    nsecs: 318873147
  frame_id: ''
magnetic_x: -9972.087890625
magnetic_y: 5169.3037109375
magnetic_z: 16047.1123046875
---
header: 
  seq: 1700459
  stamp: 
    secs: 1722858460
    nsecs: 324873147
  frame_id: ''
magnetic_x: -9983.4560546875
magnetic_y: 5174.7919921875
magnetic_z: 16039.5283203125
---
header: 
  seq: 1700460
  stamp: 
    secs: 1722858460
    nsecs: 331873147
  frame_id: ''
magnetic_x: -9983.84765625
magnetic_y: 5175.9677734375
magnetic_z: 16051.537109375
---
header: 
  seq: 1700461
  stamp: 
    secs: 1722858460
    nsecs: 337873147
  frame_id: ''
magnetic_x: -9972.087890625
magnetic_y: 5180.671875
magnetic_z: 16058.48828125
---
header: 
  seq: 1700462
  stamp: 
    secs: 1722858460
    nsecs: 343873147
  frame_id: ''
magnetic_x: -9981.49609375
magnetic_y: 5175.18408203125
magnetic_z: 16047.1123046875
---
header: 
  seq: 1700463
  stamp: 
    secs: 1722858460
    nsecs: 349873147
  frame_id: ''
magnetic_x: -9968.5595703125
magnetic_y: 5164.99169921875
magnetic_z: 16057.224609375
---
header: 
  seq: 1700464
  stamp: 
    secs: 1722858460
    nsecs: 355873147
  frame_id: ''
magnetic_x: -9987.767578125
magnetic_y: 5177.53564453125
magnetic_z: 16051.537109375
---
header: 
  seq: 1700465
  stamp: 
    secs: 1722858460
    nsecs: 361873147
  frame_id: ''
magnetic_x: -9973.6552734375
magnetic_y: 5174.0078125
magnetic_z: 16046.48046875
---
header: 
  seq: 1700466
  stamp: 
    secs: 1722858460
    nsecs: 367873147
  frame_id: ''
magnetic_x: -9977.9677734375
magnetic_y: 5182.6318359375
magnetic_z: 16050.2724609375
---
header: 
  seq: 1700467
  stamp: 
    secs: 1722858460
    nsecs: 374873147
  frame_id: ''
magnetic_x: -9978.751953125
magnetic_y: 5173.61572265625
magnetic_z: 16042.6884765625
---
header: 
  seq: 1700468
  stamp: 
    secs: 1722858460
    nsecs: 380873147
  frame_id: ''
magnetic_x: -9981.49609375
magnetic_y: 5178.31982421875
magnetic_z: 16070.4970703125
---
header: 
  seq: 1700469
  stamp: 
    secs: 1722858460
    nsecs: 386873147
  frame_id: ''
magnetic_x: -9975.2236328125
magnetic_y: 5176.751953125
magnetic_z: 16066.072265625
---
header: 
  seq: 1700470
  stamp: 
    secs: 1722858460
    nsecs: 392873147
  frame_id: ''
magnetic_x: -9979.927734375
magnetic_y: 5177.927734375
magnetic_z: 16042.6884765625
---
header: 
  seq: 1700471
  stamp: 
    secs: 1722858460
    nsecs: 398873147
  frame_id: ''
magnetic_x: -9980.7119140625
magnetic_y: 5168.52001953125
magnetic_z: 16042.6884765625
---
header: 
  seq: 1700472
  stamp: 
    secs: 1722858460
    nsecs: 404873147
  frame_id: ''
magnetic_x: -9972.8720703125
magnetic_y: 5176.751953125
magnetic_z: 16051.537109375
---
header: 
  seq: 1700473
  stamp: 
    secs: 1722858460
    nsecs: 410873147
  frame_id: ''
magnetic_x: -9974.83203125
magnetic_y: 5168.1279296875
magnetic_z: 16050.904296875
---
header: 
  seq: 1700474
  stamp: 
    secs: 1722858460
    nsecs: 417873147
  frame_id: ''
magnetic_x: -9980.7119140625
magnetic_y: 5179.8876953125
magnetic_z: 16064.80859375
---
header: 
  seq: 1700475
  stamp: 
    secs: 1722858460
    nsecs: 423873147
  frame_id: ''
magnetic_x: -9974.439453125
magnetic_y: 5181.4560546875
magnetic_z: 16061.0166015625
---
header: 
  seq: 1700476
  stamp: 
    secs: 1722858460
    nsecs: 429873147
  frame_id: ''
magnetic_x: -9976.3994140625
magnetic_y: 5176.751953125
magnetic_z: 16056.5927734375
---
header: 
  seq: 1700477
  stamp: 
    secs: 1722858460
    nsecs: 435873147
  frame_id: ''
magnetic_x: -9981.103515625
magnetic_y: 5174.0078125
magnetic_z: 16047.7451171875
---
header: 
  seq: 1700478
  stamp: 
    secs: 1722858460
    nsecs: 441873147
  frame_id: ''
magnetic_x: -9994.431640625
magnetic_y: 5171.65576171875
magnetic_z: 16054.6962890625
---
header: 
  seq: 1700479
  stamp: 
    secs: 1722858460
    nsecs: 447873147
  frame_id: ''
magnetic_x: -9974.0478515625
magnetic_y: 5174.39990234375
magnetic_z: 16051.537109375
---
header: 
  seq: 1700480
  stamp: 
    secs: 1722858460
    nsecs: 453873147
  frame_id: ''
magnetic_x: -9975.6162109375
magnetic_y: 5170.47998046875
magnetic_z: 16042.6884765625
---
header: 
  seq: 1700481
  stamp: 
    secs: 1722858460
    nsecs: 460873147
  frame_id: ''
magnetic_x: -9983.0634765625
magnetic_y: 5175.57568359375
magnetic_z: 16056.5927734375
---
header: 
  seq: 1700482
  stamp: 
    secs: 1722858460
    nsecs: 466873147
  frame_id: ''
magnetic_x: -9973.263671875
magnetic_y: 5174.0078125
magnetic_z: 16037.6328125
---
header: 
  seq: 1700483
  stamp: 
    secs: 1722858460
    nsecs: 472873147
  frame_id: ''
magnetic_x: -9979.1435546875
magnetic_y: 5173.61572265625
magnetic_z: 16053.4326171875
---
header: 
  seq: 1700484
  stamp: 
    secs: 1722858460
    nsecs: 478873147
  frame_id: ''
magnetic_x: -9983.4560546875
magnetic_y: 5173.2236328125
magnetic_z: 16057.224609375
---
header: 
  seq: 1700485
  stamp: 
    secs: 1722858460
    nsecs: 484873147
  frame_id: ''
magnetic_x: -9980.7119140625
magnetic_y: 5179.10400390625
magnetic_z: 16049.640625
---
header: 
  seq: 1700486
  stamp: 
    secs: 1722858460
    nsecs: 490873147
  frame_id: ''
magnetic_x: -9977.9677734375
magnetic_y: 5176.35986328125
magnetic_z: 16048.376953125
---
header: 
  seq: 1700487
  stamp: 
    secs: 1722858460
    nsecs: 496873147
  frame_id: ''
magnetic_x: -9973.6552734375
magnetic_y: 5172.43994140625
magnetic_z: 16050.904296875
---
header: 
  seq: 1700488
  stamp: 
    secs: 1722858460
    nsecs: 503873147
  frame_id: ''
magnetic_x: -9978.359375
magnetic_y: 5168.52001953125
magnetic_z: 16053.4326171875
---
header: 
  seq: 1700489
  stamp: 
    secs: 1722858460
    nsecs: 509873147
  frame_id: ''
magnetic_x: -9985.8076171875
magnetic_y: 5175.18408203125
magnetic_z: 16042.6884765625
---
header: 
  seq: 1700490
  stamp: 
    secs: 1722858460
    nsecs: 514873147
  frame_id: ''
magnetic_x: -9968.9521484375
magnetic_y: 5170.47998046875
magnetic_z: 16047.7451171875
---
header: 
  seq: 1700491
  stamp: 
    secs: 1722858460
    nsecs: 520873147
  frame_id: ''
magnetic_x: -9970.912109375
magnetic_y: 5167.34375
magnetic_z: 16039.5283203125
---
header: 
  seq: 1700492
  stamp: 
    secs: 1722858460
    nsecs: 526873147
  frame_id: ''
magnetic_x: -9969.7353515625
magnetic_y: 5167.34375
magnetic_z: 16043.3203125
---
header: 
  seq: 1700493
  stamp: 
    secs: 1722858460
    nsecs: 532873147
  frame_id: ''
magnetic_x: -9970.912109375
magnetic_y: 5171.263671875
magnetic_z: 16045.216796875
---
header: 
  seq: 1700494
  stamp: 
    secs: 1722858460
    nsecs: 538873147
  frame_id: ''
magnetic_x: -9972.087890625
magnetic_y: 5173.2236328125
magnetic_z: 16039.5283203125
---
header: 
  seq: 1700495
  stamp: 
    secs: 1722858460
    nsecs: 545873147
  frame_id: ''
magnetic_x: -9977.9677734375
magnetic_y: 5172.43994140625
magnetic_z: 16036.369140625
---
header: 
  seq: 1700496
  stamp: 
    secs: 1722858460
    nsecs: 551873147
  frame_id: ''
magnetic_x: -9977.18359375
magnetic_y: 5170.47998046875
magnetic_z: 16060.384765625
---
header: 
  seq: 1700497
  stamp: 
    secs: 1722858460
    nsecs: 557873147
  frame_id: ''
magnetic_x: -9986.591796875
magnetic_y: 5168.1279296875
magnetic_z: 16062.9130859375
---
header: 
  seq: 1700498
  stamp: 
    secs: 1722858460
    nsecs: 563873147
  frame_id: ''
magnetic_x: -9981.8876953125
magnetic_y: 5183.02392578125
magnetic_z: 16055.3291015625
---
header: 
  seq: 1700499
  stamp: 
    secs: 1722858460
    nsecs: 569873147
  frame_id: ''
magnetic_x: -9966.9921875
magnetic_y: 5165.77587890625
magnetic_z: 16040.1611328125
---
header: 
  seq: 1700500
  stamp: 
    secs: 1722858460
    nsecs: 575873147
  frame_id: ''
magnetic_x: -9975.6162109375
magnetic_y: 5159.50390625
magnetic_z: 16050.904296875
---
header: 
  seq: 1700501
  stamp: 
    secs: 1722858460
    nsecs: 581873147
  frame_id: ''
magnetic_x: -9969.34375
magnetic_y: 5169.3037109375
magnetic_z: 16050.2724609375
---
header: 
  seq: 1700502
  stamp: 
    secs: 1722858460
    nsecs: 588873147
  frame_id: ''
magnetic_x: -9976.7919921875
magnetic_y: 5167.73583984375
magnetic_z: 16057.8564453125
---
header: 
  seq: 1700503
  stamp: 
    secs: 1722858460
    nsecs: 594873147
  frame_id: ''
magnetic_x: -9976.3994140625
magnetic_y: 5174.7919921875
magnetic_z: 16052.1689453125
---
header: 
  seq: 1700504
  stamp: 
    secs: 1722858460
    nsecs: 600873147
  frame_id: ''
magnetic_x: -9968.5595703125
magnetic_y: 5170.087890625
magnetic_z: 16054.6962890625
---
header: 
  seq: 1700505
  stamp: 
    secs: 1722858460
    nsecs: 606873147
  frame_id: ''
magnetic_x: -9983.4560546875
magnetic_y: 5171.65576171875
magnetic_z: 16054.6962890625
---
header: 
  seq: 1700506
  stamp: 
    secs: 1722858460
    nsecs: 612873147
  frame_id: ''
magnetic_x: -9969.34375
magnetic_y: 5169.69580078125
magnetic_z: 16049.0087890625
---
header: 
  seq: 1700507
  stamp: 
    secs: 1722858460
    nsecs: 618873147
  frame_id: ''
magnetic_x: -9980.3193359375
magnetic_y: 5161.85595703125
magnetic_z: 16043.3203125
---
header: 
  seq: 1700508
  stamp: 
    secs: 1722858460
    nsecs: 624873147
  frame_id: ''
magnetic_x: -9978.359375
magnetic_y: 5176.751953125
magnetic_z: 16038.896484375
---
header: 
  seq: 1700509
  stamp: 
    secs: 1722858460
    nsecs: 631873147
  frame_id: ''
magnetic_x: -9971.3037109375
magnetic_y: 5181.06396484375
magnetic_z: 16048.376953125
---
header: 
  seq: 1700510
  stamp: 
    secs: 1722858460
    nsecs: 637873147
  frame_id: ''
magnetic_x: -9974.0478515625
magnetic_y: 5181.4560546875
magnetic_z: 16055.3291015625
---
header: 
  seq: 1700511
  stamp: 
    secs: 1722858460
    nsecs: 643873147
  frame_id: ''
magnetic_x: -9980.3193359375
magnetic_y: 5166.56005859375
magnetic_z: 16047.7451171875
---
header: 
  seq: 1700512
  stamp: 
    secs: 1722858460
    nsecs: 649873147
  frame_id: ''
magnetic_x: -9968.5595703125
magnetic_y: 5173.61572265625
magnetic_z: 16046.48046875
---
header: 
  seq: 1700513
  stamp: 
    secs: 1722858460
    nsecs: 655873147
  frame_id: ''
magnetic_x: -9982.671875
magnetic_y: 5165.3837890625
magnetic_z: 16054.6962890625
---
header: 
  seq: 1700514
  stamp: 
    secs: 1722858460
    nsecs: 661873147
  frame_id: ''
magnetic_x: -9974.439453125
magnetic_y: 5164.60009765625
magnetic_z: 16049.640625
---
header: 
  seq: 1700515
  stamp: 
    secs: 1722858460
    nsecs: 667873147
  frame_id: ''
magnetic_x: -9974.0478515625
magnetic_y: 5171.65576171875
magnetic_z: 16055.9609375
---
header: 
  seq: 1700516
  stamp: 
    secs: 1722858460
    nsecs: 674873147
  frame_id: ''
magnetic_x: -9972.087890625
magnetic_y: 5171.65576171875
magnetic_z: 16048.376953125
---
header: 
  seq: 1700517
  stamp: 
    secs: 1722858460
    nsecs: 680873147
  frame_id: ''
magnetic_x: -9967.775390625
magnetic_y: 5174.7919921875
magnetic_z: 16048.376953125
---
header: 
  seq: 1700518
  stamp: 
    secs: 1722858460
    nsecs: 686873147
  frame_id: ''
magnetic_x: -9977.9677734375
magnetic_y: 5176.751953125
magnetic_z: 16051.537109375
---
header: 
  seq: 1700519
  stamp: 
    secs: 1722858460
    nsecs: 692873147
  frame_id: ''
magnetic_x: -9976.0078125
magnetic_y: 5176.35986328125
magnetic_z: 16037.0009765625
---
header: 
  seq: 1700520
  stamp: 
    secs: 1722858460
    nsecs: 698873147
  frame_id: ''
magnetic_x: -9971.3037109375
magnetic_y: 5170.47998046875
magnetic_z: 16066.072265625
---
header: 
  seq: 1700521
  stamp: 
    secs: 1722858460
    nsecs: 704873147
  frame_id: ''
magnetic_x: -9981.49609375
magnetic_y: 5167.73583984375
magnetic_z: 16055.9609375
---
header: 
  seq: 1700522
  stamp: 
    secs: 1722858460
    nsecs: 710873147
  frame_id: ''
magnetic_x: -9976.7919921875
magnetic_y: 5172.0478515625
magnetic_z: 16053.4326171875
---
header: 
  seq: 1700523
  stamp: 
    secs: 1722858460
    nsecs: 717873147
  frame_id: ''
magnetic_x: -9971.3037109375
magnetic_y: 5172.83203125
magnetic_z: 16031.3125
---
header: 
  seq: 1700524
  stamp: 
    secs: 1722858460
    nsecs: 723873147
  frame_id: ''
magnetic_x: -9965.0322265625
magnetic_y: 5164.2080078125
magnetic_z: 16033.8408203125
---
header: 
  seq: 1700525
  stamp: 
    secs: 1722858460
    nsecs: 729873147
  frame_id: ''
magnetic_x: -9971.6953125
magnetic_y: 5161.85595703125
magnetic_z: 16052.1689453125
---
header: 
  seq: 1700526
  stamp: 
    secs: 1722858460
    nsecs: 735873147
  frame_id: ''
magnetic_x: -9976.0078125
magnetic_y: 5174.0078125
magnetic_z: 16048.376953125
---
header: 
  seq: 1700527
  stamp: 
    secs: 1722858460
    nsecs: 741873147
  frame_id: ''
magnetic_x: -9980.7119140625
magnetic_y: 5162.248046875
magnetic_z: 16051.537109375
---
header: 
  seq: 1700528
  stamp: 
    secs: 1722858460
    nsecs: 747873147
  frame_id: ''
magnetic_x: -9977.9677734375
magnetic_y: 5173.2236328125
magnetic_z: 16058.48828125
---
header: 
  seq: 1700529
  stamp: 
    secs: 1722858460
    nsecs: 753873147
  frame_id: ''
magnetic_x: -9973.6552734375
magnetic_y: 5164.2080078125
magnetic_z: 16047.1123046875
---
header: 
  seq: 1700530
  stamp: 
    secs: 1722858460
    nsecs: 760873147
  frame_id: ''
magnetic_x: -9976.0078125
magnetic_y: 5173.2236328125
magnetic_z: 16047.1123046875
---
header: 
  seq: 1700531
  stamp: 
    secs: 1722858460
    nsecs: 766873147
  frame_id: ''
magnetic_x: -9978.359375
magnetic_y: 5159.50390625
magnetic_z: 16052.80078125
---
header: 
  seq: 1700532
  stamp: 
    secs: 1722858460
    nsecs: 772873147
  frame_id: ''
magnetic_x: -9972.087890625
magnetic_y: 5166.95166015625
magnetic_z: 16050.904296875
---
header: 
  seq: 1700533
  stamp: 
    secs: 1722858460
    nsecs: 777873147
  frame_id: ''
magnetic_x: -9977.18359375
magnetic_y: 5160.6796875
magnetic_z: 16050.904296875
---
header: 
  seq: 1700534
  stamp: 
    secs: 1722858460
    nsecs: 783873147
  frame_id: ''
magnetic_x: -9972.8720703125
magnetic_y: 5180.671875
magnetic_z: 16058.48828125
---
header: 
  seq: 1700535
  stamp: 
    secs: 1722858460
    nsecs: 789873147
  frame_id: ''
magnetic_x: -9971.3037109375
magnetic_y: 5172.83203125
magnetic_z: 16049.0087890625
---
header: 
  seq: 1700536
  stamp: 
    secs: 1722858460
    nsecs: 795873147
  frame_id: ''
magnetic_x: -9984.6318359375
magnetic_y: 5163.81591796875
magnetic_z: 16053.4326171875
---
header: 
  seq: 1700537
  stamp: 
    secs: 1722858460
    nsecs: 802873147
  frame_id: ''
magnetic_x: -9983.84765625
magnetic_y: 5174.7919921875
magnetic_z: 16055.9609375
---
header: 
  seq: 1700538
  stamp: 
    secs: 1722858460
    nsecs: 808873147
  frame_id: ''
magnetic_x: -9971.6953125
magnetic_y: 5175.9677734375
magnetic_z: 16045.216796875
---
header: 
  seq: 1700539
  stamp: 
    secs: 1722858460
    nsecs: 814873147
  frame_id: ''
magnetic_x: -9975.6162109375
magnetic_y: 5168.91162109375
magnetic_z: 16057.224609375
---
header: 
  seq: 1700540
  stamp: 
    secs: 1722858460
    nsecs: 820873147
  frame_id: ''
magnetic_x: -9968.9521484375
magnetic_y: 5174.39990234375
magnetic_z: 16050.904296875
---
header: 
  seq: 1700541
  stamp: 
    secs: 1722858460
    nsecs: 826873147
  frame_id: ''
magnetic_x: -9977.18359375
magnetic_y: 5173.2236328125
magnetic_z: 16061.0166015625
---
header: 
  seq: 1700542
  stamp: 
    secs: 1722858460
    nsecs: 832873147
  frame_id: ''
magnetic_x: -9979.927734375
magnetic_y: 5177.927734375
magnetic_z: 16047.7451171875
---
header: 
  seq: 1700543
  stamp: 
    secs: 1722858460
    nsecs: 838873147
  frame_id: ''
magnetic_x: -9977.576171875
magnetic_y: 5169.3037109375
magnetic_z: 16045.216796875
---
header: 
  seq: 1700544
  stamp: 
    secs: 1722858460
    nsecs: 845873147
  frame_id: ''
magnetic_x: -9973.6552734375
magnetic_y: 5169.3037109375
magnetic_z: 16050.904296875
---
header: 
  seq: 1700545
  stamp: 
    secs: 1722858460
    nsecs: 851873147
  frame_id: ''
magnetic_x: -9978.359375
magnetic_y: 5163.03173828125
magnetic_z: 16035.1044921875
---
header: 
  seq: 1700546
  stamp: 
    secs: 1722858460
    nsecs: 857873147
  frame_id: ''
magnetic_x: -9981.103515625
magnetic_y: 5168.52001953125
magnetic_z: 16049.0087890625
---
header: 
  seq: 1700547
  stamp: 
    secs: 1722858460
    nsecs: 863873147
  frame_id: ''
magnetic_x: -9974.439453125
magnetic_y: 5171.263671875
magnetic_z: 16057.8564453125
---
header: 
  seq: 1700548
  stamp: 
    secs: 1722858460
    nsecs: 869873147
  frame_id: ''
magnetic_x: -9970.912109375
magnetic_y: 5171.263671875
magnetic_z: 16070.4970703125
---
header: 
  seq: 1700549
  stamp: 
    secs: 1722858460
    nsecs: 875873147
  frame_id: ''
magnetic_x: -9979.5361328125
magnetic_y: 5172.0478515625
magnetic_z: 16059.7529296875
---
header: 
  seq: 1700550
  stamp: 
    secs: 1722858460
    nsecs: 881873147
  frame_id: ''
magnetic_x: -9981.49609375
magnetic_y: 5178.31982421875
magnetic_z: 16043.3203125
---
header: 
  seq: 1700551
  stamp: 
    secs: 1722858460
    nsecs: 888873147
  frame_id: ''
magnetic_x: -9971.3037109375
magnetic_y: 5168.91162109375
magnetic_z: 16066.705078125
---
header: 
  seq: 1700552
  stamp: 
    secs: 1722858460
    nsecs: 894873147
  frame_id: ''
magnetic_x: -9979.927734375
magnetic_y: 5179.10400390625
magnetic_z: 16040.79296875
---
header: 
  seq: 1700553
  stamp: 
    secs: 1722858460
    nsecs: 900873147
  frame_id: ''
magnetic_x: -9977.9677734375
magnetic_y: 5170.47998046875
magnetic_z: 16061.6484375
---
header: 
  seq: 1700554
  stamp: 
    secs: 1722858460
    nsecs: 906873147
  frame_id: ''
magnetic_x: -9977.9677734375
magnetic_y: 5187.3359375
magnetic_z: 16040.79296875
---
header: 
  seq: 1700555
  stamp: 
    secs: 1722858460
    nsecs: 912873147
  frame_id: ''
magnetic_x: -9979.1435546875
magnetic_y: 5170.47998046875
magnetic_z: 16055.3291015625
---
header: 
  seq: 1700556
  stamp: 
    secs: 1722858460
    nsecs: 918873147
  frame_id: ''
magnetic_x: -9968.9521484375
magnetic_y: 5170.8720703125
magnetic_z: 16036.369140625
---
header: 
  seq: 1700557
  stamp: 
    secs: 1722858460
    nsecs: 924873147
  frame_id: ''
magnetic_x: -9980.7119140625
magnetic_y: 5175.18408203125
magnetic_z: 16052.80078125
---
header: 
  seq: 1700558
  stamp: 
    secs: 1722858460
    nsecs: 931873147
  frame_id: ''
magnetic_x: -9976.3994140625
magnetic_y: 5170.8720703125
magnetic_z: 16052.1689453125
---
header: 
  seq: 1700559
  stamp: 
    secs: 1722858460
    nsecs: 937873147
  frame_id: ''
magnetic_x: -9977.18359375
magnetic_y: 5177.927734375
magnetic_z: 16057.8564453125
---
header: 
  seq: 1700560
  stamp: 
    secs: 1722858460
    nsecs: 943873147
  frame_id: ''
magnetic_x: -9979.927734375
magnetic_y: 5181.4560546875
magnetic_z: 16042.056640625
---
header: 
  seq: 1700561
  stamp: 
    secs: 1722858460
    nsecs: 949873147
  frame_id: ''
magnetic_x: -9960.7197265625
magnetic_y: 5170.087890625
magnetic_z: 16049.0087890625
---
header: 
  seq: 1700562
  stamp: 
    secs: 1722858460
    nsecs: 955873147
  frame_id: ''
magnetic_x: -9986.9833984375
magnetic_y: 5170.8720703125
magnetic_z: 16054.6962890625
---
header: 
  seq: 1700563
  stamp: 
    secs: 1722858460
    nsecs: 961873147
  frame_id: ''
magnetic_x: -9983.0634765625
magnetic_y: 5172.43994140625
magnetic_z: 16041.4248046875
---
header: 
  seq: 1700564
  stamp: 
    secs: 1722858460
    nsecs: 967873147
  frame_id: ''
magnetic_x: -9977.18359375
magnetic_y: 5175.57568359375
magnetic_z: 16052.1689453125
---
header: 
  seq: 1700565
  stamp: 
    secs: 1722858460
    nsecs: 974873147
  frame_id: ''
magnetic_x: -9978.359375
magnetic_y: 5155.19189453125
magnetic_z: 16054.064453125
---
header: 
  seq: 1700566
  stamp: 
    secs: 1722858460
    nsecs: 980873147
  frame_id: ''
magnetic_x: -9981.103515625
magnetic_y: 5179.49609375
magnetic_z: 16059.7529296875
---
header: 
  seq: 1700567
  stamp: 
    secs: 1722858460
    nsecs: 986873147
  frame_id: ''
magnetic_x: -9976.0078125
magnetic_y: 5164.99169921875
magnetic_z: 16037.6328125
---
header: 
  seq: 1700568
  stamp: 
    secs: 1722858460
    nsecs: 992873147
  frame_id: ''
magnetic_x: -9977.9677734375
magnetic_y: 5173.61572265625
magnetic_z: 16043.953125
---
header: 
  seq: 1700569
  stamp: 
    secs: 1722858460
    nsecs: 998873147
  frame_id: ''
magnetic_x: -9987.3759765625
magnetic_y: 5173.2236328125
magnetic_z: 16048.376953125
---
header: 
  seq: 1700570
  stamp: 
    secs: 1722858461
    nsecs:   4873147
  frame_id: ''
magnetic_x: -9975.2236328125
magnetic_y: 5176.35986328125
magnetic_z: 16047.7451171875
---
header: 
  seq: 1700571
  stamp: 
    secs: 1722858461
    nsecs:  10873147
  frame_id: ''
magnetic_x: -9990.1201171875
magnetic_y: 5167.73583984375
magnetic_z: 16047.7451171875
---
header: 
  seq: 1700572
  stamp: 
    secs: 1722858461
    nsecs:  17873147
  frame_id: ''
magnetic_x: -9980.3193359375
magnetic_y: 5162.6396484375
magnetic_z: 16045.8486328125
---
header: 
  seq: 1700573
  stamp: 
    secs: 1722858461
    nsecs:  23873147
  frame_id: ''
magnetic_x: -9973.263671875
magnetic_y: 5174.39990234375
magnetic_z: 16046.48046875
---
header: 
  seq: 1700574
  stamp: 
    secs: 1722858461
    nsecs:  29873147
  frame_id: ''
magnetic_x: -9977.576171875
magnetic_y: 5169.69580078125
magnetic_z: 16054.6962890625
---
header: 
  seq: 1700575
  stamp: 
    secs: 1722858461
    nsecs:  34873147
  frame_id: ''
