header: 
  seq: 1
  stamp: 
    secs: 1722858476
    nsecs: 336236953
  frame_id: ''
twist: 
  linear: 
    x: 0.555530998328983
    y: 0.08150284656710485
    z: 0.0
  angular: 
    x: 0.0
    y: 0.0
    z: 0.0
---
header: 
  seq: 2
  stamp: 
    secs: 1722858476
    nsecs: 344115257
  frame_id: ''
twist: 
  linear: 
    x: 0.5555280484519368
    y: 0.08142303077895585
    z: 0.0
  angular: 
    x: 0.0
    y: 0.0
    z: 0.0
---
header: 
  seq: 3
  stamp: 
    secs: 1722858476
    nsecs: 363613843
  frame_id: ''
twist: 
  linear: 
    x: 0.5555666233872496
    y: 0.08142854770281914
    z: 0.0
  angular: 
    x: 0.0
    y: 0.0
    z: 0.0
---
header: 
  seq: 4
  stamp: 
    secs: 1722858476
    nsecs: 377517461
  frame_id: ''
twist: 
  linear: 
    x: 0.5557895161735025
    y: 0.08140749634108314
    z: 0.0
  angular: 
    x: 0.0
    y: 0.0
    z: 0.0
---
header: 
  seq: 5
  stamp: 
    secs: 1722858476
    nsecs: 389922142
  frame_id: ''
twist: 
  linear: 
    x: 0.5556450586871415
    y: 0.08114628707419785
    z: 0.0
  angular: 
    x: 0.0
    y: 0.0
    z: 0.0
---
header: 
  seq: 6
  stamp: 
    secs: 1722858476
    nsecs: 400977373
  frame_id: ''
twist: 
  linear: 
    x: 0.5558041808624662
    y: 0.08133674993797121
    z: 0.0
  angular: 
    x: 0.0
    y: 0.0
    z: 0.0
---
header: 
  seq: 7
  stamp: 
    secs: 1722858476
    nsecs: 409900188
  frame_id: ''
twist: 
  linear: 
    x: 0.5558258107777113
    y: 0.08125983333734323
    z: 0.0
  angular: 
    x: 0.0
    y: 0.0
    z: 0.0
---
header: 
  seq: 8
  stamp: 
    secs: 1722858476
    nsecs: 424938917
  frame_id: ''
twist: 
  linear: 
    x: 0.5559010726890308
    y: 0.08122173929610428
    z: 0.0
  angular: 
    x: 0.0
    y: 0.0
    z: 0.0
---
header: 
  seq: 9
  stamp: 
    secs: 1722858476
    nsecs: 443745374
  frame_id: ''
twist: 
  linear: 
    x: 0.5558914829671534
    y: 0.08115326892314693
    z: 0.0
  angular: 
    x: 0.0
    y: 0.0
    z: 0.0
---
header: 
  seq: 10
  stamp: 
    secs: 1722858476
    nsecs: 460112094
  frame_id: ''
twist: 
  linear: 
    x: 0.555793877971031
    y: 0.08095913561581593
    z: 0.0
  angular: 
    x: 0.0
    y: 0.0
    z: 0.0
---
header: 
  seq: 11
  stamp: 
    secs: 1722858476
    nsecs: 484791278
  frame_id: ''
twist: 
  linear: 
    x: 0.5559206198595487
    y: 0.08110510554382713
    z: 0.0
  angular: 
    x: 0.0
    y: 0.0
    z: 0.0
---
header: 
  seq: 12
  stamp: 
    secs: 1722858476
    nsecs: 508251190
  frame_id: ''
twist: 
  linear: 
    x: 0.5559682230027598
    y: 0.08112501811804879
    z: 0.0
  angular: 
    x: 0.0
    y: 0.0
    z: 0.0
---
header: 
  seq: 13
  stamp: 
    secs: 1722858476
    nsecs: 527196407
  frame_id: ''
twist: 
  linear: 
    x: 0.5562899065178989
    y: 0.08100214638317127
    z: 0.0
  angular: 
    x: 0.0
    y: 0.0
    z: 0.0
---
header: 
  seq: 14
  stamp: 
    secs: 1722858476
    nsecs: 553636074
  frame_id: ''
twist: 
  linear: 
    x: 0.5562918119614167
    y: 0.08096722637879315
    z: 0.0
  angular: 
    x: 0.0
    y: 0.0
    z: 0.0
---
header: 
  seq: 15
  stamp: 
    secs: 1722858476
    nsecs: 562913417
  frame_id: ''
twist: 
  linear: 
    x: 0.5562915738896155
    y: 0.08089727572911429
    z: 0.0
  angular: 
    x: 0.0
    y: 0.0
    z: 0.0
---
header: 
  seq: 16
  stamp: 
    secs: 1722858476
    nsecs: 584836959
  frame_id: ''
twist: 
  linear: 
    x: 0.5563649971442486
    y: 0.08096850007510024
    z: 0.0
  angular: 
    x: 0.0
    y: 0.0
    z: 0.0
---
header: 
  seq: 17
  stamp: 
    secs: 1722858476
    nsecs: 593052387
  frame_id: ''
twist: 
  linear: 
    x: 0.5564583837669446
    y: 0.08108155860155872
    z: 0.0
  angular: 
    x: 0.0
    y: 0.0
    z: 0.0
---
header: 
  seq: 18
  stamp: 
    secs: 1722858476
    nsecs: 606559038
  frame_id: ''
twist: 
  linear: 
    x: 0.5563340291741413
    y: 0.08082029889741504
    z: 0.0
  angular: 
    x: 0.0
    y: 0.0
    z: 0.0
---
header: 
  seq: 19
  stamp: 
    secs: 1722858476
    nsecs: 620036125
  frame_id: ''
twist: 
  linear: 
    x: 0.5564104293940412
    y: 0.08089609424390737
    z: 0.0
  angular: 
    x: 0.0
    y: 0.0
    z: 0.0
---
header: 
  seq: 20
  stamp: 
    secs: 1722858476
    nsecs: 630262851
  frame_id: ''
twist: 
  linear: 
    x: 0.5563571071137555
    y: 0.08076850598722027
    z: 0.0
  angular: 
    x: 0.0
    y: 0.0
    z: 0.0
---
header: 
  seq: 21
  stamp: 
    secs: 1722858476
    nsecs: 643259048
  frame_id: ''
twist: 
  linear: 
    x: 0.5562931642392243
    y: 0.08060396151839976
    z: 0.0
  angular: 
    x: 0.0
    y: 0.0
    z: 0.0
---
header: 
  seq: 22
  stamp: 
    secs: 1722858476
    nsecs: 660575389
  frame_id: ''
twist: 
  linear: 
    x: 0.5564338880734188
    y: 0.08077346171059946
    z: 0.0
  angular: 
    x: 0.0
    y: 0.0
    z: 0.0
---
header: 
  seq: 23
  stamp: 
    secs: 1722858476
    nsecs: 674237966
  frame_id: ''
twist: 
  linear: 
    x: 0.5564561266372396
    y: 0.08076231910098802
    z: 0.0
  angular: 
    x: 0.0
    y: 0.0
    z: 0.0
---
header: 
  seq: 24
  stamp: 
    secs: 1722858476
    nsecs: 690486431
  frame_id: ''
twist: 
  linear: 
    x: 0.5564750767885489
    y: 0.08074233023888751
    z: 0.0
  angular: 
    x: 0.0
    y: 0.0
    z: 0.0
---
header: 
  seq: 25
  stamp: 
    secs: 1722858476
    nsecs: 705974578
  frame_id: ''
twist: 
  linear: 
    x: 0.5565965758178714
    y: 0.08090264491883817
    z: 0.0
  angular: 
    x: 0.0
    y: 0.0
    z: 0.0
---
header: 
  seq: 26
  stamp: 
    secs: 1722858476
    nsecs: 722590684
  frame_id: ''
twist: 
  linear: 
    x: 0.5565450211952971
    y: 0.0802741883970953
    z: 0.0
  angular: 
    x: 0.0
    y: 0.0
    z: 0.0
---
header: 
  seq: 27
  stamp: 
    secs: 1722858476
    nsecs: 728880882
  frame_id: ''
twist: 
  linear: 
    x: 0.556531680422088
    y: 0.08024131907483095
    z: 0.0
  angular: 
    x: 0.0
    y: 0.0
    z: 0.0
---
header: 
  seq: 28
  stamp: 
    secs: 1722858476
    nsecs: 747232675
  frame_id: ''
twist: 
  linear: 
    x: 0.556508078161005
    y: 0.08009934805971643
    z: 0.0
  angular: 
    x: 0.0
    y: 0.0
    z: 0.0
---
header: 
  seq: 29
  stamp: 
    secs: 1722858476
    nsecs: 757042407
  frame_id: ''
twist: 
  linear: 
    x: 0.5566007465665317
    y: 0.08027116665441861
    z: 0.0
  angular: 
    x: 0.0
    y: 0.0
    z: 0.0
---
header: 
  seq: 30
  stamp: 
    secs: 1722858476
    nsecs: 767828226
  frame_id: ''
twist: 
  linear: 
    x: 0.5565719633021715
    y: 0.0802310060290609
    z: 0.0
  angular: 
    x: 0.0
    y: 0.0
    z: 0.0
---
header: 
  seq: 31
  stamp: 
    secs: 1722858476
    nsecs: 778602838
  frame_id: ''
twist: 
  linear: 
    x: 0.556768071463702
    y: 0.0805866857269396
    z: 0.0
  angular: 
    x: 0.0
    y: 0.0
    z: 0.0
---
header: 
  seq: 32
  stamp: 
    secs: 1722858476
    nsecs: 792744874
  frame_id: ''
twist: 
  linear: 
    x: 0.5565773073197915
    y: 0.0802514245304017
    z: 0.0
  angular: 
    x: 0.0
    y: 0.0
    z: 0.0
---
header: 
  seq: 33
  stamp: 
    secs: 1722858476
    nsecs: 815111637
  frame_id: ''
twist: 
  linear: 
    x: 0.5566467508535712
    y: 0.08039076856386475
    z: 0.0
  angular: 
    x: 0.0
    y: 0.0
    z: 0.0
---
header: 
  seq: 34
  stamp: 
    secs: 1722858476
    nsecs: 826084136
  frame_id: ''
twist: 
  linear: 
    x: 0.5567121946637691
    y: 0.08029660788877756
    z: 0.0
  angular: 
    x: 0.0
    y: 0.0
    z: 0.0
---
header: 
  seq: 35
  stamp: 
    secs: 1722858476
    nsecs: 834896564
  frame_id: ''
twist: 
  linear: 
    x: 0.5566436074236248
    y: 0.08017715385580108
    z: 0.0
  angular: 
    x: 0.0
    y: 0.0
    z: 0.0
---
header: 
  seq: 36
  stamp: 
    secs: 1722858476
    nsecs: 851152181
  frame_id: ''
twist: 
  linear: 
    x: 0.5567019539038236
    y: 0.08029370526623464
    z: 0.0
  angular: 
    x: 0.0
    y: 0.0
    z: 0.0
---
header: 
  seq: 37
  stamp: 
    secs: 1722858476
    nsecs: 871243715
  frame_id: ''
twist: 
  linear: 
    x: 0.5567614254134754
    y: 0.07897566020816617
    z: 0.0
  angular: 
    x: 0.0
    y: 0.0
    z: 0.0
---
header: 
  seq: 38
  stamp: 
    secs: 1722858476
    nsecs: 887569665
  frame_id: ''
twist: 
  linear: 
    x: 0.5567448258030843
    y: 0.07893078355828412
    z: 0.0
  angular: 
    x: 0.0
    y: 0.0
    z: 0.0
---
header: 
  seq: 39
  stamp: 
    secs: 1722858476
    nsecs: 899191141
  frame_id: ''
twist: 
  linear: 
    x: 0.5567865534988695
    y: 0.07900274295037482
    z: 0.0
  angular: 
    x: 0.0
    y: 0.0
    z: 0.0
---
header: 
  seq: 40
  stamp: 
    secs: 1722858476
    nsecs: 907182455
  frame_id: ''
twist: 
  linear: 
    x: 0.556834575754421
    y: 0.07908968711551977
    z: 0.0
  angular: 
    x: 0.0
    y: 0.0
    z: 0.0
---
header: 
  seq: 41
  stamp: 
    secs: 1722858476
    nsecs: 926872014
  frame_id: ''
twist: 
  linear: 
    x: 0.5569006718760295
    y: 0.07920666038697043
    z: 0.0
  angular: 
    x: 0.0
    y: 0.0
    z: 0.0
---
header: 
  seq: 42
  stamp: 
    secs: 1722858476
    nsecs: 953992366
  frame_id: ''
twist: 
  linear: 
    x: 0.557385989145815
    y: 0.07847155127321145
    z: 0.0
  angular: 
    x: 0.0
    y: 0.0
    z: 0.0
---
header: 
  seq: 43
  stamp: 
    secs: 1722858476
    nsecs: 970447063
  frame_id: ''
twist: 
  linear: 
    x: 0.5574758881618901
    y: 0.07867393430065826
    z: 0.0
  angular: 
    x: 0.0
    y: 0.0
    z: 0.0
---
header: 
  seq: 44
  stamp: 
    secs: 1722858476
    nsecs: 981284141
  frame_id: ''
twist: 
  linear: 
    x: 0.5574021281375179
    y: 0.07849343995264105
    z: 0.0
  angular: 
    x: 0.0
    y: 0.0
    z: 0.0
---
header: 
  seq: 45
  stamp: 
    secs: 1722858477
    nsecs:   3330230
  frame_id: ''
twist: 
  linear: 
    x: 0.5575287789542122
    y: 0.07864539772961826
    z: 0.0
  angular: 
    x: 0.0
    y: 0.0
    z: 0.0
---
header: 
  seq: 46
  stamp: 
    secs: 1722858477
    nsecs:  21653652
  frame_id: ''
twist: 
  linear: 
    x: 0.5574328177685632
    y: 0.07840068838737643
    z: 0.0
  angular: 
    x: 0.0
    y: 0.0
    z: 0.0
---
header: 
  seq: 47
  stamp: 
    secs: 1722858477
    nsecs:  33406496
  frame_id: ''
twist: 
  linear: 
    x: 0.5575561537615673
    y: 0.07869057687700193
    z: 0.0
  angular: 
    x: 0.0
    y: 0.0
    z: 0.0
---
header: 
  seq: 48
  stamp: 
    secs: 1722858477
    nsecs:  44660806
  frame_id: ''
twist: 
  linear: 
    x: 0.5575021747602342
    y: 0.07855515584055475
    z: 0.0
  angular: 
    x: 0.0
    y: 0.0
    z: 0.0
---
header: 
  seq: 49
  stamp: 
    secs: 1722858477
    nsecs:  61288118
  frame_id: ''
twist: 
  linear: 
    x: 0.5575946370411655
    y: 0.07874574506508844
    z: 0.0
  angular: 
    x: 0.0
    y: 0.0
    z: 0.0
---
header: 
  seq: 50
  stamp: 
    secs: 1722858477
    nsecs:  87324857
  frame_id: ''
twist: 
  linear: 
    x: 0.5576091184387988
    y: 0.07832507022863197
    z: 0.0
  angular: 
    x: 0.0
    y: 0.0
    z: 0.0
---
header: 
  seq: 51
  stamp: 
    secs: 1722858477
    nsecs:  94050645
  frame_id: ''
twist: 
  linear: 
    x: 0.5575623737134773
    y: 0.07819604932692543
    z: 0.0
  angular: 
    x: 0.0
    y: 0.0
    z: 0.0
---
header: 
  seq: 52
  stamp: 
    secs: 1722858477
    nsecs: 111339092
  frame_id: ''
twist: 
  linear: 
    x: 0.5576460771206938
    y: 0.07835039169155397
    z: 0.0
  angular: 
    x: 0.0
    y: 0.0
    z: 0.0
---
header: 
  seq: 53
  stamp: 
    secs: 1722858477
    nsecs: 124040126
  frame_id: ''
twist: 
  linear: 
    x: 0.5576464136289735
    y: 0.07834170488113089
    z: 0.0
  angular: 
    x: 0.0
    y: 0.0
    z: 0.0
---
header: 
  seq: 54
  stamp: 
    secs: 1722858477
    nsecs: 135209321
  frame_id: ''
twist: 
  linear: 
    x: 0.557675434093055
    y: 0.07841002012891751
    z: 0.0
  angular: 
    x: 0.0
    y: 0.0
    z: 0.0
---
header: 
  seq: 55
  stamp: 
    secs: 1722858477
    nsecs: 143369674
  frame_id: ''
twist: 
  linear: 
    x: 0.5576760296563679
    y: 0.07840308615884305
    z: 0.0
  angular: 
    x: 0.0
    y: 0.0
    z: 0.0
---
header: 
  seq: 56
  stamp: 
    secs: 1722858477
    nsecs: 156362056
  frame_id: ''
twist: 
  linear: 
    x: 0.5577642392040313
    y: 0.0784588094436811
    z: 0.0
  angular: 
    x: 0.0
    y: 0.0
    z: 0.0
---
header: 
  seq: 57
  stamp: 
    secs: 1722858477
    nsecs: 171536445
  frame_id: ''
twist: 
  linear: 
    x: 0.5576923630321146
    y: 0.0782556339646382
    z: 0.0
  angular: 
    x: 0.0
    y: 0.0
    z: 0.0
---
header: 
  seq: 58
  stamp: 
    secs: 1722858477
    nsecs: 180973529
  frame_id: ''
twist: 
  linear: 
    x: 0.5577316153295255
    y: 0.07835288252818322
    z: 0.0
  angular: 
    x: 0.0
    y: 0.0
    z: 0.0
---
header: 
  seq: 59
  stamp: 
    secs: 1722858477
    nsecs: 194982290
  frame_id: ''
twist: 
  linear: 
    x: 0.5577238123735871
    y: 0.0782456753409495
    z: 0.0
  angular: 
    x: 0.0
    y: 0.0
    z: 0.0
---
header: 
  seq: 60
  stamp: 
    secs: 1722858477
    nsecs: 210865497
  frame_id: ''
twist: 
  linear: 
    x: 0.5577476812699501
    y: 0.07822690614202295
    z: 0.0
  angular: 
    x: 0.0
    y: 0.0
    z: 0.0
---
header: 
  seq: 61
  stamp: 
    secs: 1722858477
    nsecs: 224762439
  frame_id: ''
twist: 
  linear: 
    x: 0.5577322677727649
    y: 0.07816929370606113
    z: 0.0
  angular: 
    x: 0.0
    y: 0.0
    z: 0.0
---
header: 
  seq: 62
  stamp: 
    secs: 1722858477
    nsecs: 242722988
  frame_id: ''
twist: 
  linear: 
    x: 0.5577577478808389
    y: 0.07822968880955598
    z: 0.0
  angular: 
    x: 0.0
    y: 0.0
    z: 0.0
---
header: 
  seq: 63
  stamp: 
    secs: 1722858477
    nsecs: 259059429
  frame_id: ''
twist: 
  linear: 
    x: 0.5577436614816921
    y: 0.0781812603226748
    z: 0.0
  angular: 
    x: 0.0
    y: 0.0
    z: 0.0
---
header: 
  seq: 64
  stamp: 
    secs: 1722858477
    nsecs: 274423122
  frame_id: ''
twist: 
  linear: 
    x: 0.5578132643708285
    y: 0.0783773661265254
    z: 0.0
  angular: 
    x: 0.0
    y: 0.0
    z: 0.0
---
header: 
  seq: 65
  stamp: 
    secs: 1722858477
    nsecs: 292997598
  frame_id: ''
twist: 
  linear: 
    x: 0.5577244337373236
    y: 0.07811470904717488
    z: 0.0
  angular: 
    x: 0.0
    y: 0.0
    z: 0.0
---
header: 
  seq: 66
  stamp: 
    secs: 1722858477
    nsecs: 304263591
  frame_id: ''
twist: 
  linear: 
    x: 0.5577530076110725
    y: 0.07818431581379745
    z: 0.0
  angular: 
    x: 0.0
    y: 0.0
    z: 0.0
---
header: 
  seq: 67
  stamp: 
    secs: 1722858477
    nsecs: 322646617
  frame_id: ''
twist: 
  linear: 
    x: 0.5578430762779012
    y: 0.07843435200262769
    z: 0.0
  angular: 
    x: 0.0
    y: 0.0
    z: 0.0
---
header: 
  seq: 68
  stamp: 
    secs: 1722858477
    nsecs: 333972454
  frame_id: ''
twist: 
  linear: 
    x: 0.55779441680439
    y: 0.07829128429298982
    z: 0.0
  angular: 
    x: 0.0
    y: 0.0
    z: 0.0
---
header: 
  seq: 69
  stamp: 
    secs: 1722858477
    nsecs: 352947235
  frame_id: ''
twist: 
  linear: 
    x: 0.5578289803123999
    y: 0.07837934900632793
    z: 0.0
  angular: 
    x: 0.0
    y: 0.0
    z: 0.0
---
header: 
  seq: 70
  stamp: 
    secs: 1722858477
    nsecs: 375519037
  frame_id: ''
twist: 
  linear: 
    x: 0.5577951295004304
    y: 0.07826709106815759
    z: 0.0
  angular: 
    x: 0.0
    y: 0.0
    z: 0.0
---
header: 
  seq: 71
  stamp: 
    secs: 1722858477
    nsecs: 392243623
  frame_id: ''
twist: 
  linear: 
    x: 0.5578577239798296
    y: 0.0784452464969283
    z: 0.0
  angular: 
    x: 0.0
    y: 0.0
    z: 0.0
---
header: 
  seq: 72
  stamp: 
    secs: 1722858477
    nsecs: 426212787
  frame_id: ''
twist: 
  linear: 
    x: 0.5582725216374507
    y: 0.07872068607511495
    z: 0.0
  angular: 
    x: 0.0
    y: 0.0
    z: 0.0
---
header: 
  seq: 73
  stamp: 
    secs: 1722858477
    nsecs: 437988758
  frame_id: ''
twist: 
  linear: 
    x: 0.5582965757028603
    y: 0.07874782181240553
    z: 0.0
  angular: 
    x: 0.0
    y: 0.0
    z: 0.0
---
header: 
  seq: 74
  stamp: 
    secs: 1722858477
    nsecs: 457571744
  frame_id: ''
twist: 
  linear: 
    x: 0.5583016629119912
    y: 0.07870868032866656
    z: 0.0
  angular: 
    x: 0.0
    y: 0.0
    z: 0.0
---
header: 
  seq: 75
  stamp: 
    secs: 1722858477
    nsecs: 470215082
  frame_id: ''
twist: 
  linear: 
    x: 0.558285272703145
    y: 0.07858451068008895
    z: 0.0
  angular: 
    x: 0.0
    y: 0.0
    z: 0.0
---
header: 
  seq: 76
  stamp: 
    secs: 1722858477
    nsecs: 488876819
  frame_id: ''
twist: 
  linear: 
    x: 0.5583114160156661
    y: 0.07847897956344796
    z: 0.0
  angular: 
    x: 0.0
    y: 0.0
    z: 0.0
---
header: 
  seq: 77
  stamp: 
    secs: 1722858477
    nsecs: 504987239
  frame_id: ''
twist: 
  linear: 
    x: 0.5583785538583736
    y: 0.0783615309204026
    z: 0.0
  angular: 
    x: 0.0
    y: 0.0
    z: 0.0
---
header: 
  seq: 78
  stamp: 
    secs: 1722858477
    nsecs: 521963119
  frame_id: ''
twist: 
  linear: 
    x: 0.5583878575860332
    y: 0.078356971123598
    z: 0.0
  angular: 
    x: 0.0
    y: 0.0
    z: 0.0
---
header: 
  seq: 79
  stamp: 
    secs: 1722858477
    nsecs: 528788805
  frame_id: ''
twist: 
  linear: 
    x: 0.5584156779191546
    y: 0.07843571308194107
    z: 0.0
  angular: 
    x: 0.0
    y: 0.0
    z: 0.0
---
header: 
  seq: 80
  stamp: 
    secs: 1722858477
    nsecs: 543710947
  frame_id: ''
twist: 
  linear: 
    x: 0.5584208327969572
    y: 0.07838996018193226
    z: 0.0
  angular: 
    x: 0.0
    y: 0.0
    z: 0.0
---
header: 
  seq: 81
  stamp: 
    secs: 1722858477
    nsecs: 560809135
  frame_id: ''
twist: 
  linear: 
    x: 0.558422772217185
    y: 0.07835362909201492
    z: 0.0
  angular: 
    x: 0.0
    y: 0.0
    z: 0.0
---
header: 
  seq: 82
  stamp: 
    secs: 1722858477
    nsecs: 579074859
  frame_id: ''
twist: 
  linear: 
    x: 0.5584830771837695
    y: 0.07827732478153614
    z: 0.0
  angular: 
    x: 0.0
    y: 0.0
    z: 0.0
---
header: 
  seq: 83
  stamp: 
    secs: 1722858477
    nsecs: 594781398
  frame_id: ''
twist: 
  linear: 
    x: 0.5584747531412472
    y: 0.0781792009509921
    z: 0.0
  angular: 
    x: 0.0
    y: 0.0
    z: 0.0
---
header: 
  seq: 84
  stamp: 
    secs: 1722858477
    nsecs: 612923622
  frame_id: ''
twist: 
  linear: 
    x: 0.5585662132669255
    y: 0.07843797463852975
    z: 0.0
  angular: 
    x: 0.0
    y: 0.0
    z: 0.0
---
header: 
  seq: 85
  stamp: 
    secs: 1722858477
    nsecs: 631472110
  frame_id: ''
twist: 
  linear: 
    x: 0.5585747213285753
    y: 0.07842578426414683
    z: 0.0
  angular: 
    x: 0.0
    y: 0.0
    z: 0.0
---
header: 
  seq: 86
  stamp: 
    secs: 1722858477
    nsecs: 646999120
  frame_id: ''
twist: 
  linear: 
    x: 0.5585419143986798
    y: 0.0781727064436835
    z: 0.0
  angular: 
    x: 0.0
    y: 0.0
    z: 0.0
---
header: 
  seq: 87
  stamp: 
    secs: 1722858477
    nsecs: 663060188
  frame_id: ''
twist: 
  linear: 
    x: 0.5585135233115472
    y: 0.07795777443540824
    z: 0.0
  angular: 
    x: 0.0
    y: 0.0
    z: 0.0
---
header: 
  seq: 88
  stamp: 
    secs: 1722858477
    nsecs: 677733898
  frame_id: ''
twist: 
  linear: 
    x: 0.5585551272602398
    y: 0.07813093507654278
    z: 0.0
  angular: 
    x: 0.0
    y: 0.0
    z: 0.0
---
header: 
  seq: 89
  stamp: 
    secs: 1722858477
    nsecs: 698487281
  frame_id: ''
twist: 
  linear: 
    x: 0.5585465851976893
    y: 0.07802518178194078
    z: 0.0
  angular: 
    x: 0.0
    y: 0.0
    z: 0.0
---
header: 
  seq: 90
  stamp: 
    secs: 1722858477
    nsecs: 715059041
  frame_id: ''
twist: 
  linear: 
    x: 0.5586338550221763
    y: 0.07817440674159075
    z: 0.0
  angular: 
    x: 0.0
    y: 0.0
    z: 0.0
---
header: 
  seq: 91
  stamp: 
    secs: 1722858477
    nsecs: 747896432
  frame_id: ''
twist: 
  linear: 
    x: 0.5586134799492376
    y: 0.0777687710628924
    z: 0.0
  angular: 
    x: 0.0
    y: 0.0
    z: 0.0
---
header: 
  seq: 92
  stamp: 
    secs: 1722858477
    nsecs: 761099338
  frame_id: ''
twist: 
  linear: 
    x: 0.558619685794984
    y: 0.07776732831770702
    z: 0.0
  angular: 
    x: 0.0
    y: 0.0
    z: 0.0
---
header: 
  seq: 93
  stamp: 
    secs: 1722858477
    nsecs: 772317647
  frame_id: ''
twist: 
  linear: 
    x: 0.5586074828012089
    y: 0.07763153377986143
    z: 0.0
  angular: 
    x: 0.0
    y: 0.0
    z: 0.0
---
header: 
  seq: 94
  stamp: 
    secs: 1722858477
    nsecs: 779100179
  frame_id: ''
twist: 
  linear: 
    x: 0.5586115321735031
    y: 0.07761062458796975
    z: 0.0
  angular: 
    x: 0.0
    y: 0.0
    z: 0.0
---
header: 
  seq: 95
  stamp: 
    secs: 1722858477
    nsecs: 807181119
  frame_id: ''
twist: 
  linear: 
    x: 0.5586371429331205
    y: 0.07750609721738298
    z: 0.0
  angular: 
    x: 0.0
    y: 0.0
    z: 0.0
---
header: 
  seq: 96
  stamp: 
    secs: 1722858477
    nsecs: 829369783
  frame_id: ''
twist: 
  linear: 
    x: 0.5586344132770948
    y: 0.07740445693138993
    z: 0.0
  angular: 
    x: 0.0
    y: 0.0
    z: 0.0
---
header: 
  seq: 97
  stamp: 
    secs: 1722858477
    nsecs: 868230342
  frame_id: ''
twist: 
  linear: 
    x: 0.5586961415440843
    y: 0.0773851472171583
    z: 0.0
  angular: 
    x: 0.0
    y: 0.0
    z: 0.0
---
header: 
  seq: 98
  stamp: 
    secs: 1722858477
    nsecs: 876210212
  frame_id: ''
twist: 
  linear: 
    x: 0.5586879883263419
    y: 0.0772512199766282
    z: 0.0
  angular: 
    x: 0.0
    y: 0.0
    z: 0.0
---
header: 
  seq: 99
  stamp: 
    secs: 1722858477
    nsecs: 893884181
  frame_id: ''
twist: 
  linear: 
    x: 0.5587002663997926
    y: 0.07730263199027651
    z: 0.0
  angular: 
    x: 0.0
    y: 0.0
    z: 0.0
---
header: 
  seq: 100
  stamp: 
    secs: 1722858477
    nsecs: 903960943
  frame_id: ''
twist: 
  linear: 
    x: 0.5586943631134429
    y: 0.07721296031946505
    z: 0.0
  angular: 
    x: 0.0
    y: 0.0
    z: 0.0
---
header: 
  seq: 101
  stamp: 
    secs: 1722858477
    nsecs: 917171955
  frame_id: ''
twist: 
  linear: 
    x: 0.5587180935060694
    y: 0.07702596145254048
    z: 0.0
  angular: 
    x: 0.0
    y: 0.0
    z: 0.0
---
header: 
  seq: 102
  stamp: 
    secs: 1722858477
    nsecs: 938840627
  frame_id: ''
twist: 
  linear: 
    x: 0.5587370509634337
    y: 0.0771474519323462
    z: 0.0
  angular: 
    x: 0.0
    y: 0.0
    z: 0.0
---
header: 
  seq: 103
  stamp: 
    secs: 1722858477
    nsecs: 944754600
  frame_id: ''
twist: 
  linear: 
    x: 0.5587366385748256
    y: 0.07711726379212124
    z: 0.0
  angular: 
    x: 0.0
    y: 0.0
    z: 0.0
---
header: 
  seq: 104
  stamp: 
    secs: 1722858477
    nsecs: 961166143
  frame_id: ''
twist: 
  linear: 
    x: 0.5587613182085094
    y: 0.07715593369713244
    z: 0.0
  angular: 
    x: 0.0
    y: 0.0
    z: 0.0
---
header: 
  seq: 105
  stamp: 
    secs: 1722858477
    nsecs: 977166175
  frame_id: ''
twist: 
  linear: 
    x: 0.5587505075541108
    y: 0.07700817771003934
    z: 0.0
  angular: 
    x: 0.0
    y: 0.0
    z: 0.0
---
header: 
  seq: 106
  stamp: 
    secs: 1722858477
    nsecs: 995532274
  frame_id: ''
twist: 
  linear: 
    x: 0.5587673653029749
    y: 0.07713816343634759
    z: 0.0
  angular: 
    x: 0.0
    y: 0.0
    z: 0.0
---
header: 
  seq: 107
  stamp: 
    secs: 1722858478
    nsecs:  19311428
  frame_id: ''
twist: 
  linear: 
    x: 0.5587559590069573
    y: 0.07698413036806284
    z: 0.0
  angular: 
    x: 0.0
    y: 0.0
    z: 0.0
---
header: 
  seq: 108
  stamp: 
    secs: 1722858478
    nsecs:  28575420
  frame_id: ''
twist: 
  linear: 
    x: 0.5587587322946601
    y: 0.07694823376367764
    z: 0.0
  angular: 
    x: 0.0
    y: 0.0
    z: 0.0
---
header: 
  seq: 109
  stamp: 
    secs: 1722858478
    nsecs:  42871475
  frame_id: ''
twist: 
  linear: 
    x: 0.558776653438704
    y: 0.07709437621867118
    z: 0.0
  angular: 
    x: 0.0
    y: 0.0
    z: 0.0
---
header: 
  seq: 110
  stamp: 
    secs: 1722858478
    nsecs:  58195114
  frame_id: ''
twist: 
  linear: 
    x: 0.5587688113404531
    y: 0.07696709385613285
    z: 0.0
  angular: 
    x: 0.0
    y: 0.0
    z: 0.0
---
header: 
  seq: 111
  stamp: 
    secs: 1722858478
    nsecs:  65070390
  frame_id: ''
twist: 
  linear: 
    x: 0.5587527010972594
    y: 0.07676516085658822
    z: 0.0
  angular: 
    x: 0.0
    y: 0.0
    z: 0.0
---
header: 
  seq: 112
  stamp: 
    secs: 1722858478
    nsecs:  85786104
  frame_id: ''
twist: 
  linear: 
    x: 0.5587699531066002
    y: 0.07690214545823992
    z: 0.0
  angular: 
    x: 0.0
    y: 0.0
    z: 0.0
---
header: 
  seq: 113
  stamp: 
    secs: 1722858478
    nsecs:  99228858
  frame_id: ''
twist: 
  linear: 
    x: 0.5587689146660383
    y: 0.07685796331008438
    z: 0.0
  angular: 
    x: 0.0
    y: 0.0
    z: 0.0
---
header: 
  seq: 114
  stamp: 
    secs: 1722858478
    nsecs: 110568046
  frame_id: ''
twist: 
  linear: 
    x: 0.5587609353915056
    y: 0.0767614573546911
    z: 0.0
  angular: 
    x: 0.0
    y: 0.0
    z: 0.0
---
header: 
  seq: 115
  stamp: 
    secs: 1722858478
    nsecs: 123545408
  frame_id: ''
twist: 
  linear: 
    x: 0.5587853088584532
    y: 0.07700534044049187
    z: 0.0
  angular: 
    x: 0.0
    y: 0.0
    z: 0.0
---
header: 
  seq: 116
  stamp: 
    secs: 1722858478
    nsecs: 129284858
  frame_id: ''
twist: 
  linear: 
    x: 0.5587776873865776
    y: 0.07686667218109103
    z: 0.0
  angular: 
    x: 0.0
    y: 0.0
    z: 0.0
---
header: 
  seq: 117
  stamp: 
    secs: 1722858478
    nsecs: 141581058
  frame_id: ''
twist: 
  linear: 
    x: 0.5587737072032932
    y: 0.07676167143545151
    z: 0.0
  angular: 
    x: 0.0
    y: 0.0
    z: 0.0
---
header: 
  seq: 118
  stamp: 
    secs: 1722858478
    nsecs: 161747455
  frame_id: ''
twist: 
  linear: 
    x: 0.5587775930692301
    y: 0.07624154228558516
    z: 0.0
  angular: 
    x: 0.0
    y: 0.0
    z: 0.0
---
header: 
  seq: 119
  stamp: 
    secs: 1722858478
    nsecs: 178990125
  frame_id: ''
twist: 
  linear: 
    x: 0.5587942253400113
    y: 0.07645945281212362
    z: 0.0
  angular: 
    x: 0.0
    y: 0.0
    z: 0.0
---
header: 
  seq: 120
  stamp: 
    secs: 1722858478
    nsecs: 191888809
  frame_id: ''
twist: 
  linear: 
    x: 0.5587875140889722
    y: 0.07636254553329386
    z: 0.0
  angular: 
    x: 0.0
    y: 0.0
    z: 0.0
---
header: 
  seq: 121
  stamp: 
    secs: 1722858478
    nsecs: 201401948
  frame_id: ''
twist: 
  linear: 
    x: 0.5587806961779685
    y: 0.0762946708795773
    z: 0.0
  angular: 
    x: 0.0
    y: 0.0
    z: 0.0
---
header: 
  seq: 122
  stamp: 
    secs: 1722858478
    nsecs: 209160566
  frame_id: ''
twist: 
  linear: 
    x: 0.5587859063450461
    y: 0.07636858683122427
    z: 0.0
  angular: 
    x: 0.0
    y: 0.0
    z: 0.0
---
header: 
  seq: 123
  stamp: 
    secs: 1722858478
    nsecs: 225818395
  frame_id: ''
twist: 
  linear: 
    x: 0.5587921001011746
    y: 0.07643214772478409
    z: 0.0
  angular: 
    x: 0.0
    y: 0.0
    z: 0.0
---
header: 
  seq: 124
  stamp: 
    secs: 1722858478
    nsecs: 242539405
  frame_id: ''
twist: 
  linear: 
    x: 0.5587874812821239
    y: 0.07634525437494485
    z: 0.0
  angular: 
    x: 0.0
    y: 0.0
    z: 0.0
---
header: 
  seq: 125
  stamp: 
    secs: 1722858478
    nsecs: 260832786
  frame_id: ''
twist: 
  linear: 
    x: 0.5587879478064834
    y: 0.07639149411977236
    z: 0.0
  angular: 
    x: 0.0
    y: 0.0
    z: 0.0
---
header: 
  seq: 126
  stamp: 
    secs: 1722858478
    nsecs: 272673606
  frame_id: ''
twist: 
  linear: 
    x: 0.5588172066364981
    y: 0.07677203703910322
    z: 0.0
  angular: 
    x: 0.0
    y: 0.0
    z: 0.0
---
header: 
  seq: 127
  stamp: 
    secs: 1722858478
    nsecs: 290457248
  frame_id: ''
twist: 
  linear: 
    x: 0.5587997578816865
    y: 0.07655510298727827
    z: 0.0
  angular: 
    x: 0.0
    y: 0.0
    z: 0.0
---
header: 
  seq: 128
  stamp: 
    secs: 1722858478
    nsecs: 309135675
  frame_id: ''
twist: 
  linear: 
    x: 0.5587983160585117
    y: 0.07543001959671361
    z: 0.0
  angular: 
    x: 0.0
    y: 0.0
    z: 0.0
---
header: 
  seq: 129
  stamp: 
    secs: 1722858478
    nsecs: 326640844
  frame_id: ''
twist: 
  linear: 
    x: 0.5588080466087412
    y: 0.07554988620376536
    z: 0.0
  angular: 
    x: 0.0
    y: 0.0
    z: 0.0
---
header: 
  seq: 130
  stamp: 
    secs: 1722858478
    nsecs: 344047546
  frame_id: ''
twist: 
  linear: 
    x: 0.5587819254420704
    y: 0.07523507328343265
    z: 0.0
  angular: 
    x: 0.0
    y: 0.0
    z: 0.0
---
header: 
  seq: 131
  stamp: 
    secs: 1722858478
    nsecs: 367268085
  frame_id: ''
twist: 
  linear: 
    x: 0.5588060542055533
    y: 0.07549689438272827
    z: 0.0
  angular: 
    x: 0.0
    y: 0.0
    z: 0.0
---
header: 
  seq: 132
  stamp: 
    secs: 1722858478
    nsecs: 379298448
  frame_id: ''
twist: 
  linear: 
    x: 0.5588014841583512
    y: 0.07546170690421003
    z: 0.0
  angular: 
    x: 0.0
    y: 0.0
    z: 0.0
---
header: 
  seq: 133
  stamp: 
    secs: 1722858478
    nsecs: 402022600
  frame_id: ''
twist: 
  linear: 
    x: 0.5588122614553254
    y: 0.07558385625859504
    z: 0.0
  angular: 
    x: 0.0
    y: 0.0
    z: 0.0
---
header: 
  seq: 134
  stamp: 
    secs: 1722858478
    nsecs: 411624670
  frame_id: ''
twist: 
  linear: 
    x: 0.5588026805014742
    y: 0.07544105705474205
    z: 0.0
  angular: 
    x: 0.0
    y: 0.0
    z: 0.0
---
header: 
  seq: 135
  stamp: 
    secs: 1722858478
    nsecs: 424136400
  frame_id: ''
twist: 
  linear: 
    x: 0.5588049388368431
    y: 0.07548209463763125
    z: 0.0
  angular: 
    x: 0.0
    y: 0.0
    z: 0.0
---
header: 
  seq: 136
  stamp: 
    secs: 1722858478
    nsecs: 443017482
  frame_id: ''
twist: 
  linear: 
    x: 0.5588118065736702
    y: 0.07552569540716211
    z: 0.0
  angular: 
    x: 0.0
    y: 0.0
    z: 0.0
---
header: 
  seq: 137
  stamp: 
    secs: 1722858478
    nsecs: 451099634
  frame_id: ''
twist: 
  linear: 
    x: 0.5588065029234451
    y: 0.07546304966193321
    z: 0.0
  angular: 
    x: 0.0
    y: 0.0
    z: 0.0
---
header: 
  seq: 138
  stamp: 
    secs: 1722858478
    nsecs: 463766336
  frame_id: ''
twist: 
  linear: 
    x: 0.5588117992650884
    y: 0.0755206276592152
    z: 0.0
  angular: 
    x: 0.0
    y: 0.0
    z: 0.0
---
header: 
  seq: 139
  stamp: 
    secs: 1722858478
    nsecs: 477830886
  frame_id: ''
twist: 
  linear: 
    x: 0.55880738602451
    y: 0.07549637356177827
    z: 0.0
  angular: 
    x: 0.0
    y: 0.0
    z: 0.0
---
header: 
  seq: 140
  stamp: 
    secs: 1722858478
    nsecs: 512556314
  frame_id: ''
twist: 
  linear: 
    x: 0.5588815850432762
    y: 0.07383612970941959
    z: 0.0
  angular: 
    x: 0.0
    y: 0.0
    z: 0.0
---
header: 
  seq: 141
  stamp: 
    secs: 1722858478
    nsecs: 537600040
  frame_id: ''
twist: 
  linear: 
    x: 0.5588806959650892
    y: 0.07378661376828308
    z: 0.0
  angular: 
    x: 0.0
    y: 0.0
    z: 0.0
---
header: 
  seq: 142
  stamp: 
    secs: 1722858478
    nsecs: 562698841
  frame_id: ''
twist: 
  linear: 
    x: 0.558876126262247
    y: 0.07370031736779423
    z: 0.0
  angular: 
    x: 0.0
    y: 0.0
    z: 0.0
---
header: 
  seq: 143
  stamp: 
    secs: 1722858478
    nsecs: 578063011
  frame_id: ''
twist: 
  linear: 
    x: 0.5588815720942686
    y: 0.07380889176528033
    z: 0.0
  angular: 
    x: 0.0
    y: 0.0
    z: 0.0
---
header: 
  seq: 144
  stamp: 
    secs: 1722858478
    nsecs: 589224815
  frame_id: ''
twist: 
  linear: 
    x: 0.5588847985905558
    y: 0.0738683240367327
    z: 0.0
  angular: 
    x: 0.0
    y: 0.0
    z: 0.0
---
header: 
  seq: 145
  stamp: 
    secs: 1722858478
    nsecs: 598947525
  frame_id: ''
twist: 
  linear: 
    x: 0.5588923406114611
    y: 0.07408585302398704
    z: 0.0
  angular: 
    x: 0.0
    y: 0.0
    z: 0.0
---
header: 
  seq: 146
  stamp: 
    secs: 1722858478
    nsecs: 611342906
  frame_id: ''
twist: 
  linear: 
    x: 0.5588826677452592
    y: 0.07382834044376257
    z: 0.0
  angular: 
    x: 0.0
    y: 0.0
    z: 0.0
---
header: 
  seq: 147
  stamp: 
    secs: 1722858478
    nsecs: 629914522
  frame_id: ''
twist: 
  linear: 
    x: 0.5588878329211143
    y: 0.07393007796413475
    z: 0.0
  angular: 
    x: 0.0
    y: 0.0
    z: 0.0
---
header: 
  seq: 148
  stamp: 
    secs: 1722858478
    nsecs: 645530700
  frame_id: ''
twist: 
  linear: 
    x: 0.558892873794076
    y: 0.07405174827653675
    z: 0.0
  angular: 
    x: 0.0
    y: 0.0
    z: 0.0
---
header: 
  seq: 149
  stamp: 
    secs: 1722858478
    nsecs: 662357568
  frame_id: ''
twist: 
  linear: 
    x: 0.5588855933192338
    y: 0.0738290981325007
    z: 0.0
  angular: 
    x: 0.0
    y: 0.0
    z: 0.0
---
header: 
  seq: 150
  stamp: 
    secs: 1722858478
    nsecs: 677062749
  frame_id: ''
twist: 
  linear: 
    x: 0.5588944465061718
    y: 0.07402357517963977
    z: 0.0
  angular: 
    x: 0.0
    y: 0.0
    z: 0.0
---
header: 
  seq: 151
  stamp: 
    secs: 1722858478
    nsecs: 690167665
  frame_id: ''
twist: 
  linear: 
    x: 0.5588953325136718
    y: 0.07409122884651537
    z: 0.0
  angular: 
    x: 0.0
    y: 0.0
    z: 0.0
---
header: 
  seq: 152
  stamp: 
    secs: 1722858478
    nsecs: 698059797
  frame_id: ''
twist: 
  linear: 
    x: 0.5588898288659354
    y: 0.07396443038530552
    z: 0.0
  angular: 
    x: 0.0
    y: 0.0
    z: 0.0
---
header: 
  seq: 153
  stamp: 
    secs: 1722858478
    nsecs: 710640192
  frame_id: ''
twist: 
  linear: 
    x: 0.558897522780034
    y: 0.07414037065732394
    z: 0.0
  angular: 
    x: 0.0
    y: 0.0
    z: 0.0
---
header: 
  seq: 154
  stamp: 
    secs: 1722858478
    nsecs: 724155902
  frame_id: ''
twist: 
  linear: 
    x: 0.5588889950238075
    y: 0.07388145777838812
    z: 0.0
  angular: 
    x: 0.0
    y: 0.0
    z: 0.0
---
header: 
  seq: 155
  stamp: 
    secs: 1722858478
    nsecs: 731568813
  frame_id: ''
twist: 
  linear: 
    x: 0.5588948407281179
    y: 0.07404086258370174
    z: 0.0
  angular: 
    x: 0.0
    y: 0.0
    z: 0.0
---
header: 
  seq: 156
  stamp: 
    secs: 1722858478
    nsecs: 745653152
  frame_id: ''
twist: 
  linear: 
    x: 0.55889850090203
    y: 0.07411642463230533
    z: 0.0
  angular: 
    x: 0.0
    y: 0.0
    z: 0.0
---
header: 
  seq: 157
  stamp: 
    secs: 1722858478
    nsecs: 768254041
  frame_id: ''
twist: 
  linear: 
    x: 0.5588984773729169
    y: 0.07407715374164141
    z: 0.0
  angular: 
    x: 0.0
    y: 0.0
    z: 0.0
---
header: 
  seq: 158
  stamp: 
    secs: 1722858478
    nsecs: 779697179
  frame_id: ''
twist: 
  linear: 
    x: 0.5589011747635371
    y: 0.0741674610737009
    z: 0.0
  angular: 
    x: 0.0
    y: 0.0
    z: 0.0
---
header: 
  seq: 159
  stamp: 
    secs: 1722858478
    nsecs: 802690982
  frame_id: ''
twist: 
  linear: 
    x: 0.5589001022769102
    y: 0.07410695966477929
    z: 0.0
  angular: 
    x: 0.0
    y: 0.0
    z: 0.0
---
header: 
  seq: 160
  stamp: 
    secs: 1722858478
    nsecs: 866065263
  frame_id: ''
twist: 
  linear: 
    x: 0.558898072444231
    y: 0.07404430279457436
    z: 0.0
  angular: 
    x: 0.0
    y: 0.0
    z: 0.0
---
header: 
  seq: 161
  stamp: 
    secs: 1722858478
    nsecs: 885296344
  frame_id: ''
twist: 
  linear: 
    x: 0.5588992212322109
    y: 0.07395321728617141
    z: 0.0
  angular: 
    x: 0.0
    y: 0.0
    z: 0.0
---
header: 
  seq: 162
  stamp: 
    secs: 1722858478
    nsecs: 895367622
  frame_id: ''
twist: 
  linear: 
    x: 0.558904062402972
    y: 0.07401017337383371
    z: 0.0
  angular: 
    x: 0.0
    y: 0.0
    z: 0.0
---
header: 
  seq: 163
  stamp: 
    secs: 1722858478
    nsecs: 912597417
  frame_id: ''
twist: 
  linear: 
    x: 0.5589088182060663
    y: 0.07406546316667514
    z: 0.0
  angular: 
    x: 0.0
    y: 0.0
    z: 0.0
---
header: 
  seq: 164
  stamp: 
    secs: 1722858478
    nsecs: 933852910
  frame_id: ''
twist: 
  linear: 
    x: 0.5589064113230224
    y: 0.07371671087018523
    z: 0.0
  angular: 
    x: 0.0
    y: 0.0
    z: 0.0
---
header: 
  seq: 165
  stamp: 
    secs: 1722858478
    nsecs: 952881813
  frame_id: ''
twist: 
  linear: 
    x: 0.558906506217946
    y: 0.07367490407127192
    z: 0.0
  angular: 
    x: 0.0
    y: 0.0
    z: 0.0
---
header: 
  seq: 166
  stamp: 
    secs: 1722858478
    nsecs: 960670471
  frame_id: ''
twist: 
  linear: 
    x: 0.558913996719929
    y: 0.07385654932959196
    z: 0.0
  angular: 
    x: 0.0
    y: 0.0
    z: 0.0
---
header: 
  seq: 167
  stamp: 
    secs: 1722858478
    nsecs: 983920335
  frame_id: ''
twist: 
  linear: 
    x: 0.5589092633697395
    y: 0.07375258297591848
    z: 0.0
  angular: 
    x: 0.0
    y: 0.0
    z: 0.0
---
header: 
  seq: 168
  stamp: 
    secs: 1722858478
    nsecs: 995841979
  frame_id: ''
twist: 
  linear: 
    x: 0.5589129087554772
    y: 0.07386415095389243
    z: 0.0
  angular: 
    x: 0.0
    y: 0.0
    z: 0.0
---
header: 
  seq: 169
  stamp: 
    secs: 1722858479
    nsecs:  14137268
  frame_id: ''
twist: 
  linear: 
    x: 0.558905806645629
    y: 0.07363326899524496
    z: 0.0
  angular: 
    x: 0.0
    y: 0.0
    z: 0.0
---
header: 
  seq: 170
  stamp: 
    secs: 1722858479
    nsecs:  30205965
  frame_id: ''
twist: 
  linear: 
    x: 0.5589099275173838
    y: 0.07376612063277999
    z: 0.0
  angular: 
    x: 0.0
    y: 0.0
    z: 0.0
---
header: 
  seq: 171
  stamp: 
    secs: 1722858479
    nsecs:  40952682
  frame_id: ''
twist: 
  linear: 
    x: 0.5589133864264024
    y: 0.07378786550179954
    z: 0.0
  angular: 
    x: 0.0
    y: 0.0
    z: 0.0
---
header: 
  seq: 172
  stamp: 
    secs: 1722858479
    nsecs:  52411794
  frame_id: ''
twist: 
  linear: 
    x: 0.5589161254698289
    y: 0.07388397384665402
    z: 0.0
  angular: 
    x: 0.0
    y: 0.0
    z: 0.0
---
header: 
  seq: 173
  stamp: 
    secs: 1722858479
    nsecs:  71445941
  frame_id: ''
twist: 
  linear: 
    x: 0.5589101094791867
    y: 0.07370881057140272
    z: 0.0
  angular: 
    x: 0.0
    y: 0.0
    z: 0.0
---
header: 
  seq: 174
  stamp: 
    secs: 1722858479
    nsecs: 103185176
  frame_id: ''
twist: 
  linear: 
    x: 0.558914152008603
    y: 0.07342541043013193
    z: 0.0
  angular: 
    x: 0.0
    y: 0.0
    z: 0.0
---
header: 
  seq: 175
  stamp: 
    secs: 1722858479
    nsecs: 111726522
  frame_id: ''
twist: 
  linear: 
    x: 0.5589168991254868
    y: 0.07349848199737836
    z: 0.0
  angular: 
    x: 0.0
    y: 0.0
    z: 0.0
---
header: 
  seq: 176
  stamp: 
    secs: 1722858479
    nsecs: 124654531
  frame_id: ''
twist: 
  linear: 
    x: 0.5589151430845566
    y: 0.07341950196761018
    z: 0.0
  angular: 
    x: 0.0
    y: 0.0
    z: 0.0
---
header: 
  seq: 177
  stamp: 
    secs: 1722858479
    nsecs: 141675710
  frame_id: ''
twist: 
  linear: 
    x: 0.5589213451350684
    y: 0.07354772530762732
    z: 0.0
  angular: 
    x: 0.0
    y: 0.0
    z: 0.0
---
header: 
  seq: 178
  stamp: 
    secs: 1722858479
    nsecs: 151524543
  frame_id: ''
twist: 
  linear: 
    x: 0.5589197372019843
    y: 0.07340563152992505
    z: 0.0
  angular: 
    x: 0.0
    y: 0.0
    z: 0.0
---
header: 
  seq: 179
  stamp: 
    secs: 1722858479
    nsecs: 161160230
  frame_id: ''
twist: 
  linear: 
    x: 0.5589230095522563
    y: 0.07350351588040388
    z: 0.0
  angular: 
    x: 0.0
    y: 0.0
    z: 0.0
---
header: 
  seq: 180
  stamp: 
    secs: 1722858479
    nsecs: 175587177
  frame_id: ''
twist: 
  linear: 
    x: 0.5589250751110871
    y: 0.07358088769485256
    z: 0.0
  angular: 
    x: 0.0
    y: 0.0
    z: 0.0
---
header: 
  seq: 181
  stamp: 
    secs: 1722858479
    nsecs: 193417787
  frame_id: ''
twist: 
  linear: 
    x: 0.5589184122593399
    y: 0.07328538674310478
    z: 0.0
  angular: 
    x: 0.0
    y: 0.0
    z: 0.0
---
header: 
  seq: 182
  stamp: 
    secs: 1722858479
    nsecs: 207473993
  frame_id: ''
twist: 
  linear: 
    x: 0.5589211145712846
    y: 0.07329334403402697
    z: 0.0
  angular: 
    x: 0.0
    y: 0.0
    z: 0.0
---
header: 
  seq: 183
  stamp: 
    secs: 1722858479
    nsecs: 229088783
  frame_id: ''
twist: 
  linear: 
    x: 0.5589250843202314
    y: 0.07317328855678952
    z: 0.0
  angular: 
    x: 0.0
    y: 0.0
    z: 0.0
---
header: 
  seq: 184
  stamp: 
    secs: 1722858479
    nsecs: 246759414
  frame_id: ''
twist: 
  linear: 
    x: 0.5589270193224347
    y: 0.0732224098373051
    z: 0.0
  angular: 
    x: 0.0
    y: 0.0
    z: 0.0
---
header: 
  seq: 185
  stamp: 
    secs: 1722858479
    nsecs: 268569707
  frame_id: ''
twist: 
  linear: 
    x: 0.5589279355990578
    y: 0.07326936161389852
    z: 0.0
  angular: 
    x: 0.0
    y: 0.0
    z: 0.0
---
header: 
  seq: 186
  stamp: 
    secs: 1722858479
    nsecs: 279163599
  frame_id: ''
twist: 
  linear: 
    x: 0.5589289385822203
    y: 0.07322490626498929
    z: 0.0
  angular: 
    x: 0.0
    y: 0.0
    z: 0.0
---
header: 
  seq: 187
  stamp: 
    secs: 1722858479
    nsecs: 294330835
  frame_id: ''
twist: 
  linear: 
    x: 0.5589298844703557
    y: 0.07332377292976934
    z: 0.0
  angular: 
    x: 0.0
    y: 0.0
    z: 0.0
---
header: 
  seq: 188
  stamp: 
    secs: 1722858479
    nsecs: 308970689
  frame_id: ''
twist: 
  linear: 
    x: 0.5589276618537109
    y: 0.0731436554610229
    z: 0.0
  angular: 
    x: 0.0
    y: 0.0
    z: 0.0
---
header: 
  seq: 189
  stamp: 
    secs: 1722858479
    nsecs: 328023195
  frame_id: ''
twist: 
  linear: 
    x: 0.5589272015751026
    y: 0.07314044609375853
    z: 0.0
  angular: 
    x: 0.0
    y: 0.0
    z: 0.0
---
header: 
  seq: 190
  stamp: 
    secs: 1722858479
    nsecs: 337149620
  frame_id: ''
twist: 
  linear: 
    x: 0.5589315268777006
    y: 0.07333043442987511
    z: 0.0
  angular: 
    x: 0.0
    y: 0.0
    z: 0.0
---
header: 
  seq: 191
  stamp: 
    secs: 1722858479
    nsecs: 359597682
  frame_id: ''
twist: 
  linear: 
    x: 0.5589313866355622
    y: 0.07334974862442714
    z: 0.0
  angular: 
    x: 0.0
    y: 0.0
    z: 0.0
---
header: 
  seq: 192
  stamp: 
    secs: 1722858479
    nsecs: 372226715
  frame_id: ''
twist: 
  linear: 
    x: 0.5589284411487181
    y: 0.07318233612514478
    z: 0.0
  angular: 
    x: 0.0
    y: 0.0
    z: 0.0
---
header: 
  seq: 193
  stamp: 
    secs: 1722858479
    nsecs: 385189056
  frame_id: ''
twist: 
  linear: 
    x: 0.5589326905210696
    y: 0.0733331149953079
    z: 0.0
  angular: 
    x: 0.0
    y: 0.0
    z: 0.0
---
header: 
  seq: 194
  stamp: 
    secs: 1722858479
    nsecs: 394757032
  frame_id: ''
twist: 
  linear: 
    x: 0.5589327109801223
    y: 0.07338384236693613
    z: 0.0
  angular: 
    x: 0.0
    y: 0.0
    z: 0.0
---
header: 
  seq: 195
  stamp: 
    secs: 1722858479
    nsecs: 413779258
  frame_id: ''
twist: 
  linear: 
    x: 0.5589398000504479
    y: 0.07352897278954038
    z: 0.0
  angular: 
    x: 0.0
    y: 0.0
    z: 0.0
---
header: 
  seq: 196
  stamp: 
    secs: 1722858479
    nsecs: 432235479
  frame_id: ''
twist: 
  linear: 
    x: 0.558940268837401
    y: 0.07358152210000811
    z: 0.0
  angular: 
    x: 0.0
    y: 0.0
    z: 0.0
---
header: 
  seq: 197
  stamp: 
    secs: 1722858479
    nsecs: 453198671
  frame_id: ''
twist: 
  linear: 
    x: 0.5589342054815192
    y: 0.07332831479813438
    z: 0.0
  angular: 
    x: 0.0
    y: 0.0
    z: 0.0
---
header: 
  seq: 198
  stamp: 
    secs: 1722858479
    nsecs: 462635040
  frame_id: ''
twist: 
  linear: 
    x: 0.5589348803050896
    y: 0.07334435316098417
    z: 0.0
  angular: 
    x: 0.0
    y: 0.0
    z: 0.0
---
header: 
  seq: 199
  stamp: 
    secs: 1722858479
    nsecs: 471198320
  frame_id: ''
twist: 
  linear: 
    x: 0.5589348092446228
    y: 0.07339066584898445
    z: 0.0
  angular: 
    x: 0.0
    y: 0.0
    z: 0.0
---
header: 
  seq: 200
  stamp: 
    secs: 1722858479
    nsecs: 489075183
  frame_id: ''
twist: 
  linear: 
    x: 0.5589344476670091
    y: 0.07334101574368607
    z: 0.0
  angular: 
    x: 0.0
    y: 0.0
    z: 0.0
---
header: 
  seq: 201
  stamp: 
    secs: 1722858479
    nsecs: 517893075
  frame_id: ''
twist: 
  linear: 
    x: 0.5589388404008132
    y: 0.07349634611228807
    z: 0.0
  angular: 
    x: 0.0
    y: 0.0
    z: 0.0
---
header: 
  seq: 202
  stamp: 
    secs: 1722858479
    nsecs: 527876138
  frame_id: ''
twist: 
  linear: 
    x: 0.5589409458304166
    y: 0.07355688772014944
    z: 0.0
  angular: 
    x: 0.0
    y: 0.0
    z: 0.0
---
header: 
  seq: 203
  stamp: 
    secs: 1722858479
    nsecs: 552084445
  frame_id: ''
twist: 
  linear: 
    x: 0.5589391770626942
    y: 0.07343824398854137
    z: 0.0
  angular: 
    x: 0.0
    y: 0.0
    z: 0.0
---
header: 
  seq: 204
  stamp: 
    secs: 1722858479
    nsecs: 562915325
  frame_id: ''
twist: 
  linear: 
    x: 0.5589347198386723
    y: 0.07322149627382472
    z: 0.0
  angular: 
    x: 0.0
    y: 0.0
    z: 0.0
---
header: 
  seq: 205
  stamp: 
    secs: 1722858479
    nsecs: 602685689
  frame_id: ''
twist: 
  linear: 
    x: 0.558940935122741
    y: 0.07349112336468139
    z: 0.0
  angular: 
    x: 0.0
    y: 0.0
    z: 0.0
---
header: 
  seq: 206
  stamp: 
    secs: 1722858479
    nsecs: 613286733
  frame_id: ''
twist: 
  linear: 
    x: 0.5589370335274066
    y: 0.07330890992010518
    z: 0.0
  angular: 
    x: 0.0
    y: 0.0
    z: 0.0
---
header: 
  seq: 207
  stamp: 
    secs: 1722858479
    nsecs: 622411966
  frame_id: ''
twist: 
  linear: 
    x: 0.5589433000400803
    y: 0.07359226170245975
    z: 0.0
  angular: 
    x: 0.0
    y: 0.0
    z: 0.0
---
header: 
  seq: 208
  stamp: 
    secs: 1722858479
    nsecs: 630192756
  frame_id: ''
twist: 
  linear: 
    x: 0.5589327854979901
    y: 0.07323259028094944
    z: 0.0
  angular: 
    x: 0.0
    y: 0.0
    z: 0.0
---
header: 
  seq: 209
  stamp: 
    secs: 1722858479
    nsecs: 640075206
  frame_id: ''
twist: 
  linear: 
    x: 0.558945592119599
    y: 0.07371885286647599
    z: 0.0
  angular: 
    x: 0.0
    y: 0.0
    z: 0.0
---
header: 
  seq: 210
  stamp: 
    secs: 1722858479
    nsecs: 662547826
  frame_id: ''
twist: 
  linear: 
    x: 0.5589345571197311
    y: 0.0731683734670206
    z: 0.0
  angular: 
    x: 0.0
    y: 0.0
    z: 0.0
---
header: 
  seq: 211
  stamp: 
    secs: 1722858479
    nsecs: 696112155
  frame_id: ''
twist: 
  linear: 
    x: 0.5589474215576786
    y: 0.07306329757778487
    z: 0.0
  angular: 
    x: 0.0
    y: 0.0
    z: 0.0
---
header: 
  seq: 212
  stamp: 
    secs: 1722858479
    nsecs: 713363170
  frame_id: ''
twist: 
  linear: 
    x: 0.5589547906542538
    y: 0.07328222506651787
    z: 0.0
  angular: 
    x: 0.0
    y: 0.0
    z: 0.0
---
header: 
  seq: 213
  stamp: 
    secs: 1722858479
    nsecs: 728044033
  frame_id: ''
twist: 
  linear: 
    x: 0.5589471730009338
    y: 0.07312741432899422
    z: 0.0
  angular: 
    x: 0.0
    y: 0.0
    z: 0.0
---
header: 
  seq: 214
  stamp: 
    secs: 1722858479
    nsecs: 738493442
  frame_id: ''
twist: 
  linear: 
    x: 0.55895687967633
    y: 0.0734855075572641
    z: 0.0
  angular: 
    x: 0.0
    y: 0.0
    z: 0.0
---
header: 
  seq: 215
  stamp: 
    secs: 1722858479
    nsecs: 764215469
  frame_id: ''
twist: 
  linear: 
    x: 0.5589475081202714
    y: 0.07307070225234702
    z: 0.0
  angular: 
    x: 0.0
    y: 0.0
    z: 0.0
---
header: 
  seq: 216
  stamp: 
    secs: 1722858479
    nsecs: 780679464
  frame_id: ''
twist: 
  linear: 
    x: 0.5589553543131022
    y: 0.07315840742375626
    z: 0.0
  angular: 
    x: 0.0
    y: 0.0
    z: 0.0
---
header: 
  seq: 217
  stamp: 
    secs: 1722858479
    nsecs: 792705774
  frame_id: ''
twist: 
  linear: 
    x: 0.5589499790960354
    y: 0.07290710947420606
    z: 0.0
  angular: 
    x: 0.0
    y: 0.0
    z: 0.0
---
header: 
  seq: 218
  stamp: 
    secs: 1722858479
    nsecs: 808776617
  frame_id: ''
twist: 
  linear: 
    x: 0.5589551356872564
    y: 0.07289902318246436
    z: 0.0
  angular: 
    x: 0.0
    y: 0.0
    z: 0.0
---
header: 
  seq: 219
  stamp: 
    secs: 1722858479
    nsecs: 815955162
  frame_id: ''
twist: 
  linear: 
    x: 0.5589616339991338
    y: 0.07313576897440788
    z: 0.0
  angular: 
    x: 0.0
    y: 0.0
    z: 0.0
---
header: 
  seq: 220
  stamp: 
    secs: 1722858479
    nsecs: 840051889
  frame_id: ''
twist: 
  linear: 
    x: 0.5589597606989276
    y: 0.07305708283646065
    z: 0.0
  angular: 
    x: 0.0
    y: 0.0
    z: 0.0
---
header: 
  seq: 221
  stamp: 
    secs: 1722858479
    nsecs: 859794378
  frame_id: ''
twist: 
  linear: 
    x: 0.5589559264853021
    y: 0.07289707774048347
    z: 0.0
  angular: 
    x: 0.0
    y: 0.0
    z: 0.0
---
header: 
  seq: 222
  stamp: 
    secs: 1722858479
    nsecs: 874015808
  frame_id: ''
twist: 
  linear: 
    x: 0.5589632173481042
    y: 0.0731646912689311
    z: 0.0
  angular: 
    x: 0.0
    y: 0.0
    z: 0.0
---
header: 
  seq: 223
  stamp: 
    secs: 1722858479
    nsecs: 879059791
  frame_id: ''
twist: 
  linear: 
    x: 0.5589590530139621
    y: 0.07305638006544717
    z: 0.0
  angular: 
    x: 0.0
    y: 0.0
    z: 0.0
---
header: 
  seq: 224
  stamp: 
    secs: 1722858479
    nsecs: 890403747
  frame_id: ''
twist: 
  linear: 
    x: 0.5589558985513701
    y: 0.07294862663767403
    z: 0.0
  angular: 
    x: 0.0
    y: 0.0
    z: 0.0
---
header: 
  seq: 225
  stamp: 
    secs: 1722858479
    nsecs: 905985116
  frame_id: ''
twist: 
  linear: 
    x: 0.5589542356909616
    y: 0.07257124012505951
    z: 0.0
  angular: 
    x: 0.0
    y: 0.0
    z: 0.0
---
header: 
  seq: 226
  stamp: 
    secs: 1722858479
    nsecs: 912330389
  frame_id: ''
twist: 
  linear: 
    x: 0.5589555590098056
    y: 0.07259605224471016
    z: 0.0
  angular: 
    x: 0.0
    y: 0.0
    z: 0.0
---
header: 
  seq: 227
  stamp: 
    secs: 1722858479
    nsecs: 922495841
  frame_id: ''
twist: 
  linear: 
    x: 0.5589549289797703
    y: 0.07256053888037105
    z: 0.0
  angular: 
    x: 0.0
    y: 0.0
    z: 0.0
---
header: 
  seq: 228
  stamp: 
    secs: 1722858479
    nsecs: 937716245
  frame_id: ''
twist: 
  linear: 
    x: 0.5589594863253686
    y: 0.07273976945835159
    z: 0.0
  angular: 
    x: 0.0
    y: 0.0
    z: 0.0
---
header: 
  seq: 229
  stamp: 
    secs: 1722858479
    nsecs: 946741819
  frame_id: ''
twist: 
  linear: 
    x: 0.5589612036606569
    y: 0.07277727274972981
    z: 0.0
  angular: 
    x: 0.0
    y: 0.0
    z: 0.0
---
header: 
  seq: 230
  stamp: 
    secs: 1722858479
    nsecs: 960598945
  frame_id: ''
twist: 
  linear: 
    x: 0.5589594300741235
    y: 0.0727517232148185
    z: 0.0
  angular: 
    x: 0.0
    y: 0.0
    z: 0.0
---
header: 
  seq: 231
  stamp: 
    secs: 1722858480
    nsecs:   1822948
  frame_id: ''
twist: 
  linear: 
    x: 0.5589648495222056
    y: 0.07199614582712718
    z: 0.0
  angular: 
    x: 0.0
    y: 0.0
    z: 0.0
---
header: 
  seq: 232
  stamp: 
    secs: 1722858480
    nsecs:  13923168
  frame_id: ''
twist: 
  linear: 
    x: 0.5589675477189053
    y: 0.07209588798770375
    z: 0.0
  angular: 
    x: 0.0
    y: 0.0
    z: 0.0
---
header: 
  seq: 233
  stamp: 
    secs: 1722858480
    nsecs:  36365032
  frame_id: ''
twist: 
  linear: 
    x: 0.5589615404946863
    y: 0.0719250702232512
    z: 0.0
  angular: 
    x: 0.0
    y: 0.0
    z: 0.0
---
header: 
  seq: 234
  stamp: 
    secs: 1722858480
    nsecs:  50960302
  frame_id: ''
twist: 
  linear: 
    x: 0.5589678315477413
    y: 0.0721361706821842
    z: 0.0
  angular: 
    x: 0.0
    y: 0.0
    z: 0.0
---
header: 
  seq: 235
  stamp: 
    secs: 1722858480
    nsecs:  61283349
  frame_id: ''
twist: 
  linear: 
    x: 0.5589642297172792
    y: 0.0720069048886648
    z: 0.0
  angular: 
    x: 0.0
    y: 0.0
    z: 0.0
---
header: 
  seq: 236
  stamp: 
    secs: 1722858480
    nsecs:  81102132
  frame_id: ''
twist: 
  linear: 
    x: 0.558967151163822
    y: 0.0721643322147012
    z: 0.0
  angular: 
    x: 0.0
    y: 0.0
    z: 0.0
---
header: 
  seq: 237
  stamp: 
    secs: 1722858480
    nsecs: 104617118
  frame_id: ''
twist: 
  linear: 
    x: 0.558963912476271
    y: 0.07204253504967467
    z: 0.0
  angular: 
    x: 0.0
    y: 0.0
    z: 0.0
---
header: 
  seq: 238
  stamp: 
    secs: 1722858480
    nsecs: 113022089
  frame_id: ''
twist: 
  linear: 
    x: 0.5589642497374471
    y: 0.07200549291097567
    z: 0.0
  angular: 
    x: 0.0
    y: 0.0
    z: 0.0
---
header: 
  seq: 239
  stamp: 
    secs: 1722858480
    nsecs: 122822761
  frame_id: ''
twist: 
  linear: 
    x: 0.5589722643703072
    y: 0.07231311238439274
    z: 0.0
  angular: 
    x: 0.0
    y: 0.0
    z: 0.0
---
header: 
  seq: 240
  stamp: 
    secs: 1722858480
    nsecs: 135905504
  frame_id: ''
twist: 
  linear: 
    x: 0.5589532656908143
    y: 0.07156157993041617
    z: 0.0
  angular: 
    x: 0.0
    y: 0.0
    z: 0.0
---
header: 
  seq: 241
  stamp: 
    secs: 1722858480
    nsecs: 167059659
  frame_id: ''
twist: 
  linear: 
    x: 0.5589782159251754
    y: 0.0722327081350854
    z: 0.0
  angular: 
    x: 0.0
    y: 0.0
    z: 0.0
---
header: 
  seq: 242
  stamp: 
    secs: 1722858480
    nsecs: 179223060
  frame_id: ''
twist: 
  linear: 
    x: 0.5589798312521621
    y: 0.0722857028681446
    z: 0.0
  angular: 
    x: 0.0
    y: 0.0
    z: 0.0
---
header: 
  seq: 243
  stamp: 
    secs: 1722858480
    nsecs: 193678379
  frame_id: ''
twist: 
  linear: 
    x: 0.5589870885536805
    y: 0.07248169289002576
    z: 0.0
  angular: 
    x: 0.0
    y: 0.0
    z: 0.0
---
header: 
  seq: 244
  stamp: 
    secs: 1722858480
    nsecs: 312228918
  frame_id: ''
twist: 
  linear: 
    x: 0.5592373571657107
    y: 0.0680083139463988
    z: 0.0
  angular: 
    x: 0.0
    y: 0.0
    z: 0.0
---
header: 
  seq: 245
  stamp: 
    secs: 1722858480
    nsecs: 326202869
  frame_id: ''
twist: 
  linear: 
    x: 0.5592501257433038
    y: 0.06805314141587657
    z: 0.0
  angular: 
    x: 0.0
    y: 0.0
    z: 0.0
---
header: 
  seq: 246
  stamp: 
    secs: 1722858480
    nsecs: 351168870
  frame_id: ''
twist: 
  linear: 
    x: 0.5592884901572184
    y: 0.06788344430374753
    z: 0.0
  angular: 
    x: 0.0
    y: 0.0
    z: 0.0
---
header: 
  seq: 247
  stamp: 
    secs: 1722858480
    nsecs: 364243268
  frame_id: ''
twist: 
  linear: 
    x: 0.5592700364334052
    y: 0.06754824276453379
    z: 0.0
  angular: 
    x: 0.0
    y: 0.0
    z: 0.0
---
header: 
  seq: 248
  stamp: 
    secs: 1722858480
    nsecs: 390205621
  frame_id: ''
twist: 
  linear: 
    x: 0.5593084290926584
    y: 0.06763399232914767
    z: 0.0
  angular: 
    x: 0.0
    y: 0.0
    z: 0.0
---
header: 
  seq: 249
  stamp: 
    secs: 1722858480
    nsecs: 398158788
  frame_id: ''
twist: 
  linear: 
    x: 0.5593175142169194
    y: 0.06765440185345237
    z: 0.0
  angular: 
    x: 0.0
    y: 0.0
    z: 0.0
---
header: 
  seq: 250
  stamp: 
    secs: 1722858480
    nsecs: 411192893
  frame_id: ''
twist: 
  linear: 
    x: 0.5593159612433808
    y: 0.0675771683976056
    z: 0.0
  angular: 
    x: 0.0
    y: 0.0
    z: 0.0
---
header: 
  seq: 251
  stamp: 
    secs: 1722858480
    nsecs: 460008144
  frame_id: ''
twist: 
  linear: 
    x: 0.5593225883918481
    y: 0.06757605720650216
    z: 0.0
  angular: 
    x: 0.0
    y: 0.0
    z: 0.0
---
header: 
  seq: 252
  stamp: 
    secs: 1722858480
    nsecs: 476206302
  frame_id: ''
twist: 
  linear: 
    x: 0.5593190564757524
    y: 0.06750299388641416
    z: 0.0
  angular: 
    x: 0.0
    y: 0.0
    z: 0.0
---
header: 
  seq: 253
  stamp: 
    secs: 1722858480
    nsecs: 504669189
  frame_id: ''
twist: 
  linear: 
    x: 0.5594158905897173
    y: 0.06731642159956998
    z: 0.0
  angular: 
    x: 0.0
    y: 0.0
    z: 0.0
---
header: 
  seq: 254
  stamp: 
    secs: 1722858480
    nsecs: 513637065
  frame_id: ''
twist: 
  linear: 
    x: 0.5593737940626575
    y: 0.06701746550307397
    z: 0.0
  angular: 
    x: 0.0
    y: 0.0
    z: 0.0
---
header: 
  seq: 255
  stamp: 
    secs: 1722858480
    nsecs: 529881715
  frame_id: ''
twist: 
  linear: 
    x: 0.5594271363873385
    y: 0.06724152570603961
    z: 0.0
  angular: 
    x: 0.0
    y: 0.0
    z: 0.0
---
header: 
  seq: 256
  stamp: 
    secs: 1722858480
    nsecs: 545869112
  frame_id: ''
twist: 
  linear: 
    x: 0.559371677231853
    y: 0.06686192996095984
    z: 0.0
  angular: 
    x: 0.0
    y: 0.0
    z: 0.0
---
header: 
  seq: 257
  stamp: 
    secs: 1722858480
    nsecs: 558676719
  frame_id: ''
twist: 
  linear: 
    x: 0.5594195448230956
    y: 0.0670935919224725
    z: 0.0
  angular: 
    x: 0.0
    y: 0.0
    z: 0.0
---
header: 
  seq: 258
  stamp: 
    secs: 1722858480
    nsecs: 581595182
  frame_id: ''
twist: 
  linear: 
    x: 0.5594056978958348
    y: 0.06695481539524556
    z: 0.0
  angular: 
    x: 0.0
    y: 0.0
    z: 0.0
---
header: 
  seq: 259
  stamp: 
    secs: 1722858480
    nsecs: 596020936
  frame_id: ''
twist: 
  linear: 
    x: 0.5593975385982087
    y: 0.06683909211699302
    z: 0.0
  angular: 
    x: 0.0
    y: 0.0
    z: 0.0
---
header: 
  seq: 260
  stamp: 
    secs: 1722858480
    nsecs: 612195014
  frame_id: ''
twist: 
  linear: 
    x: 0.559377240954863
    y: 0.0666560361644252
    z: 0.0
  angular: 
    x: 0.0
    y: 0.0
    z: 0.0
---
header: 
  seq: 261
  stamp: 
    secs: 1722858480
    nsecs: 628906011
  frame_id: ''
twist: 
  linear: 
    x: 0.5593773366442207
    y: 0.0666102276643535
    z: 0.0
  angular: 
    x: 0.0
    y: 0.0
    z: 0.0
---
header: 
  seq: 262
  stamp: 
    secs: 1722858480
    nsecs: 650924682
  frame_id: ''
twist: 
  linear: 
    x: 0.5594265941621449
    y: 0.06642859958359898
    z: 0.0
  angular: 
    x: 0.0
    y: 0.0
    z: 0.0
---
header: 
  seq: 263
  stamp: 
    secs: 1722858480
    nsecs: 662177085
  frame_id: ''
twist: 
  linear: 
    x: 0.5594783518383286
    y: 0.06666145631376669
    z: 0.0
  angular: 
    x: 0.0
    y: 0.0
    z: 0.0
---
header: 
  seq: 264
  stamp: 
    secs: 1722858480
    nsecs: 681772947
  frame_id: ''
twist: 
  linear: 
    x: 0.559438912587757
    y: 0.06633186877695095
    z: 0.0
  angular: 
    x: 0.0
    y: 0.0
    z: 0.0
---
header: 
  seq: 265
  stamp: 
    secs: 1722858480
    nsecs: 702109813
  frame_id: ''
twist: 
  linear: 
    x: 0.5595073040782457
    y: 0.06613611965717732
    z: 0.0
  angular: 
    x: 0.0
    y: 0.0
    z: 0.0
---
header: 
  seq: 266
  stamp: 
    secs: 1722858480
    nsecs: 715667247
  frame_id: ''
twist: 
  linear: 
    x: 0.5595081938054732
    y: 0.06605004235801584
    z: 0.0
  angular: 
    x: 0.0
    y: 0.0
    z: 0.0
---
header: 
  seq: 267
  stamp: 
    secs: 1722858480
    nsecs: 740883827
  frame_id: ''
twist: 
  linear: 
    x: 0.5595319147586368
    y: 0.06596008565763462
    z: 0.0
  angular: 
    x: 0.0
    y: 0.0
    z: 0.0
---
header: 
  seq: 268
  stamp: 
    secs: 1722858480
    nsecs: 756819963
  frame_id: ''
twist: 
  linear: 
    x: 0.5595027438345366
    y: 0.06576726192814045
    z: 0.0
  angular: 
    x: 0.0
    y: 0.0
    z: 0.0
---
header: 
  seq: 269
  stamp: 
    secs: 1722858480
    nsecs: 773256301
  frame_id: ''
twist: 
  linear: 
    x: 0.5595280341645401
    y: 0.06584828318951945
    z: 0.0
  angular: 
    x: 0.0
    y: 0.0
    z: 0.0
---
header: 
  seq: 270
  stamp: 
    secs: 1722858480
    nsecs: 786546945
  frame_id: ''
twist: 
  linear: 
    x: 0.5594945550235426
    y: 0.0656272965107601
    z: 0.0
  angular: 
    x: 0.0
    y: 0.0
    z: 0.0
---
header: 
  seq: 271
  stamp: 
    secs: 1722858480
    nsecs: 812264204
  frame_id: ''
twist: 
  linear: 
    x: 0.5595639226825713
    y: 0.06591220213694356
    z: 0.0
  angular: 
    x: 0.0
    y: 0.0
    z: 0.0
---
header: 
  seq: 272
  stamp: 
    secs: 1722858480
    nsecs: 840100049
  frame_id: ''
twist: 
  linear: 
    x: 0.5595939667801756
    y: 0.065622517167305
    z: 0.0
  angular: 
    x: 0.0
    y: 0.0
    z: 0.0
---
header: 
  seq: 273
  stamp: 
    secs: 1722858480
    nsecs: 855139732
  frame_id: ''
twist: 
  linear: 
    x: 0.5595911199334551
    y: 0.06557328792051736
    z: 0.0
  angular: 
    x: 0.0
    y: 0.0
    z: 0.0
---
header: 
  seq: 274
  stamp: 
    secs: 1722858480
    nsecs: 878464937
  frame_id: ''
twist: 
  linear: 
    x: 0.5595361232763281
    y: 0.06524649604826657
    z: 0.0
  angular: 
    x: 0.0
    y: 0.0
    z: 0.0
---
header: 
  seq: 275
  stamp: 
    secs: 1722858480
    nsecs: 891905069
  frame_id: ''
twist: 
  linear: 
    x: 0.5596025598324472
    y: 0.06550175462012947
    z: 0.0
  angular: 
