header: 
  seq: 1
  stamp: 
    secs: 1722857982
    nsecs: 156564474
  frame_id: ''
twist: 
  linear: 
    x: 0.5557854586522283
    y: 0.08211305508917076
    z: 0.0
  angular: 
    x: 0.0
    y: 0.0
    z: 0.0
---
header: 
  seq: 2
  stamp: 
    secs: 1722857982
    nsecs: 168795585
  frame_id: ''
twist: 
  linear: 
    x: 0.5557161068530624
    y: 0.08195223195271242
    z: 0.0
  angular: 
    x: 0.0
    y: 0.0
    z: 0.0
---
header: 
  seq: 3
  stamp: 
    secs: 1722857982
    nsecs: 183022260
  frame_id: ''
twist: 
  linear: 
    x: 0.5553383133413727
    y: 0.08121380842210146
    z: 0.0
  angular: 
    x: 0.0
    y: 0.0
    z: 0.0
---
header: 
  seq: 4
  stamp: 
    secs: 1722857982
    nsecs: 200920820
  frame_id: ''
twist: 
  linear: 
    x: 0.5551532117727336
    y: 0.08080464863538092
    z: 0.0
  angular: 
    x: 0.0
    y: 0.0
    z: 0.0
---
header: 
  seq: 5
  stamp: 
    secs: 1722857982
    nsecs: 213087558
  frame_id: ''
twist: 
  linear: 
    x: 0.5552543580137124
    y: 0.08089394120137743
    z: 0.0
  angular: 
    x: 0.0
    y: 0.0
    z: 0.0
---
header: 
  seq: 6
  stamp: 
    secs: 1722857982
    nsecs: 232598781
  frame_id: ''
twist: 
  linear: 
    x: 0.5552578170203211
    y: 0.0808439644630942
    z: 0.0
  angular: 
    x: 0.0
    y: 0.0
    z: 0.0
---
header: 
  seq: 7
  stamp: 
    secs: 1722857982
    nsecs: 253270626
  frame_id: ''
twist: 
  linear: 
    x: 0.5554011819712511
    y: 0.08098919458500066
    z: 0.0
  angular: 
    x: 0.0
    y: 0.0
    z: 0.0
---
header: 
  seq: 8
  stamp: 
    secs: 1722857982
    nsecs: 284572362
  frame_id: ''
twist: 
  linear: 
    x: 0.5554779893253264
    y: 0.08051106598589224
    z: 0.0
  angular: 
    x: 0.0
    y: 0.0
    z: 0.0
---
header: 
  seq: 9
  stamp: 
    secs: 1722857982
    nsecs: 296368837
  frame_id: ''
twist: 
  linear: 
    x: 0.5557759426830965
    y: 0.08084294432025028
    z: 0.0
  angular: 
    x: 0.0
    y: 0.0
    z: 0.0
---
header: 
  seq: 10
  stamp: 
    secs: 1722857982
    nsecs: 313642978
  frame_id: ''
twist: 
  linear: 
    x: 0.555702723907956
    y: 0.08064104487237188
    z: 0.0
  angular: 
    x: 0.0
    y: 0.0
    z: 0.0
---
header: 
  seq: 11
  stamp: 
    secs: 1722857982
    nsecs: 338391304
  frame_id: ''
twist: 
  linear: 
    x: 0.5559185361157872
    y: 0.08082501753639512
    z: 0.0
  angular: 
    x: 0.0
    y: 0.0
    z: 0.0
---
header: 
  seq: 12
  stamp: 
    secs: 1722857982
    nsecs: 354205131
  frame_id: ''
twist: 
  linear: 
    x: 0.555801958530671
    y: 0.0804017231009928
    z: 0.0
  angular: 
    x: 0.0
    y: 0.0
    z: 0.0
---
header: 
  seq: 13
  stamp: 
    secs: 1722857982
    nsecs: 370468139
  frame_id: ''
twist: 
  linear: 
    x: 0.5559384886885781
    y: 0.0805145937685843
    z: 0.0
  angular: 
    x: 0.0
    y: 0.0
    z: 0.0
---
header: 
  seq: 14
  stamp: 
    secs: 1722857982
    nsecs: 397485494
  frame_id: ''
twist: 
  linear: 
    x: 0.5560996399056048
    y: 0.08061888873651875
    z: 0.0
  angular: 
    x: 0.0
    y: 0.0
    z: 0.0
---
header: 
  seq: 15
  stamp: 
    secs: 1722857982
    nsecs: 412451505
  frame_id: ''
twist: 
  linear: 
    x: 0.5561671349427953
    y: 0.0805227750540842
    z: 0.0
  angular: 
    x: 0.0
    y: 0.0
    z: 0.0
---
header: 
  seq: 16
  stamp: 
    secs: 1722857982
    nsecs: 425233125
  frame_id: ''
twist: 
  linear: 
    x: 0.55620455957999
    y: 0.08047565816117326
    z: 0.0
  angular: 
    x: 0.0
    y: 0.0
    z: 0.0
---
header: 
  seq: 17
  stamp: 
    secs: 1722857982
    nsecs: 433118581
  frame_id: ''
twist: 
  linear: 
    x: 0.5562412515607257
    y: 0.08043024461725272
    z: 0.0
  angular: 
    x: 0.0
    y: 0.0
    z: 0.0
---
header: 
  seq: 18
  stamp: 
    secs: 1722857982
    nsecs: 463201999
  frame_id: ''
twist: 
  linear: 
    x: 0.5562255737362495
    y: 0.080359188878069
    z: 0.0
  angular: 
    x: 0.0
    y: 0.0
    z: 0.0
---
header: 
  seq: 19
  stamp: 
    secs: 1722857982
    nsecs: 482417345
  frame_id: ''
twist: 
  linear: 
    x: 0.5562878720999359
    y: 0.08041773239268662
    z: 0.0
  angular: 
    x: 0.0
    y: 0.0
    z: 0.0
---
header: 
  seq: 20
  stamp: 
    secs: 1722857982
    nsecs: 500527143
  frame_id: ''
twist: 
  linear: 
    x: 0.5563633844976545
    y: 0.08048593974880272
    z: 0.0
  angular: 
    x: 0.0
    y: 0.0
    z: 0.0
---
header: 
  seq: 21
  stamp: 
    secs: 1722857982
    nsecs: 525037050
  frame_id: ''
twist: 
  linear: 
    x: 0.5562983518058692
    y: 0.080329808051898
    z: 0.0
  angular: 
    x: 0.0
    y: 0.0
    z: 0.0
---
header: 
  seq: 22
  stamp: 
    secs: 1722857982
    nsecs: 547065496
  frame_id: ''
twist: 
  linear: 
    x: 0.5564781805801309
    y: 0.08059951045527095
    z: 0.0
  angular: 
    x: 0.0
    y: 0.0
    z: 0.0
---
header: 
  seq: 23
  stamp: 
    secs: 1722857982
    nsecs: 597508907
  frame_id: ''
twist: 
  linear: 
    x: 0.5567435127172834
    y: 0.07998844308804448
    z: 0.0
  angular: 
    x: 0.0
    y: 0.0
    z: 0.0
---
header: 
  seq: 24
  stamp: 
    secs: 1722857982
    nsecs: 610365152
  frame_id: ''
twist: 
  linear: 
    x: 0.5567330968043442
    y: 0.07992358050240618
    z: 0.0
  angular: 
    x: 0.0
    y: 0.0
    z: 0.0
---
header: 
  seq: 25
  stamp: 
    secs: 1722857982
    nsecs: 617050886
  frame_id: ''
twist: 
  linear: 
    x: 0.5567576043390461
    y: 0.07991477091508628
    z: 0.0
  angular: 
    x: 0.0
    y: 0.0
    z: 0.0
---
header: 
  seq: 26
  stamp: 
    secs: 1722857982
    nsecs: 624889135
  frame_id: ''
twist: 
  linear: 
    x: 0.5567931895368694
    y: 0.07994830405632984
    z: 0.0
  angular: 
    x: 0.0
    y: 0.0
    z: 0.0
---
header: 
  seq: 27
  stamp: 
    secs: 1722857982
    nsecs: 634541273
  frame_id: ''
twist: 
  linear: 
    x: 0.5568625552339904
    y: 0.08003487889954004
    z: 0.0
  angular: 
    x: 0.0
    y: 0.0
    z: 0.0
---
header: 
  seq: 28
  stamp: 
    secs: 1722857982
    nsecs: 658311843
  frame_id: ''
twist: 
  linear: 
    x: 0.5568331168985352
    y: 0.07993342794085584
    z: 0.0
  angular: 
    x: 0.0
    y: 0.0
    z: 0.0
---
header: 
  seq: 29
  stamp: 
    secs: 1722857982
    nsecs: 670381069
  frame_id: ''
twist: 
  linear: 
    x: 0.5569067211386631
    y: 0.0800309774066287
    z: 0.0
  angular: 
    x: 0.0
    y: 0.0
    z: 0.0
---
header: 
  seq: 30
  stamp: 
    secs: 1722857982
    nsecs: 680809020
  frame_id: ''
twist: 
  linear: 
    x: 0.5568394685680671
    y: 0.07985026822994694
    z: 0.0
  angular: 
    x: 0.0
    y: 0.0
    z: 0.0
---
header: 
  seq: 31
  stamp: 
    secs: 1722857982
    nsecs: 693364143
  frame_id: ''
twist: 
  linear: 
    x: 0.5569673716977127
    y: 0.0800623991731523
    z: 0.0
  angular: 
    x: 0.0
    y: 0.0
    z: 0.0
---
header: 
  seq: 32
  stamp: 
    secs: 1722857982
    nsecs: 698428869
  frame_id: ''
twist: 
  linear: 
    x: 0.5568987712282779
    y: 0.07986361705479146
    z: 0.0
  angular: 
    x: 0.0
    y: 0.0
    z: 0.0
---
header: 
  seq: 33
  stamp: 
    secs: 1722857982
    nsecs: 714164495
  frame_id: ''
twist: 
  linear: 
    x: 0.5569681751605994
    y: 0.07995545898207766
    z: 0.0
  angular: 
    x: 0.0
    y: 0.0
    z: 0.0
---
header: 
  seq: 34
  stamp: 
    secs: 1722857982
    nsecs: 725262165
  frame_id: ''
twist: 
  linear: 
    x: 0.5570128073732644
    y: 0.07999729621104573
    z: 0.0
  angular: 
    x: 0.0
    y: 0.0
    z: 0.0
---
header: 
  seq: 35
  stamp: 
    secs: 1722857982
    nsecs: 746175289
  frame_id: ''
twist: 
  linear: 
    x: 0.556954637160173
    y: 0.07982642479709284
    z: 0.0
  angular: 
    x: 0.0
    y: 0.0
    z: 0.0
---
header: 
  seq: 36
  stamp: 
    secs: 1722857982
    nsecs: 782147169
  frame_id: ''
twist: 
  linear: 
    x: 0.5571761717754167
    y: 0.07986145684098221
    z: 0.0
  angular: 
    x: 0.0
    y: 0.0
    z: 0.0
---
header: 
  seq: 37
  stamp: 
    secs: 1722857982
    nsecs: 797476053
  frame_id: ''
twist: 
  linear: 
    x: 0.557115226482424
    y: 0.07962997373418236
    z: 0.0
  angular: 
    x: 0.0
    y: 0.0
    z: 0.0
---
header: 
  seq: 38
  stamp: 
    secs: 1722857982
    nsecs: 818638563
  frame_id: ''
twist: 
  linear: 
    x: 0.5571079763782176
    y: 0.07955464724602539
    z: 0.0
  angular: 
    x: 0.0
    y: 0.0
    z: 0.0
---
header: 
  seq: 39
  stamp: 
    secs: 1722857982
    nsecs: 844416141
  frame_id: ''
twist: 
  linear: 
    x: 0.5574245886970677
    y: 0.07953651133860289
    z: 0.0
  angular: 
    x: 0.0
    y: 0.0
    z: 0.0
---
header: 
  seq: 40
  stamp: 
    secs: 1722857982
    nsecs: 859619379
  frame_id: ''
twist: 
  linear: 
    x: 0.5574109547563845
    y: 0.07945606091796162
    z: 0.0
  angular: 
    x: 0.0
    y: 0.0
    z: 0.0
---
header: 
  seq: 41
  stamp: 
    secs: 1722857982
    nsecs: 873458385
  frame_id: ''
twist: 
  linear: 
    x: 0.5574045405467903
    y: 0.07940404346066263
    z: 0.0
  angular: 
    x: 0.0
    y: 0.0
    z: 0.0
---
header: 
  seq: 42
  stamp: 
    secs: 1722857982
    nsecs: 887377262
  frame_id: ''
twist: 
  linear: 
    x: 0.5574200523231707
    y: 0.07939115782475986
    z: 0.0
  angular: 
    x: 0.0
    y: 0.0
    z: 0.0
---
header: 
  seq: 43
  stamp: 
    secs: 1722857982
    nsecs: 907483339
  frame_id: ''
twist: 
  linear: 
    x: 0.5574015354289882
    y: 0.07928322201658024
    z: 0.0
  angular: 
    x: 0.0
    y: 0.0
    z: 0.0
---
header: 
  seq: 44
  stamp: 
    secs: 1722857982
    nsecs: 927585601
  frame_id: ''
twist: 
  linear: 
    x: 0.5575926643207135
    y: 0.07928264028238952
    z: 0.0
  angular: 
    x: 0.0
    y: 0.0
    z: 0.0
---
header: 
  seq: 45
  stamp: 
    secs: 1722857982
    nsecs: 951893091
  frame_id: ''
twist: 
  linear: 
    x: 0.5575724090031547
    y: 0.07917526280687516
    z: 0.0
  angular: 
    x: 0.0
    y: 0.0
    z: 0.0
---
header: 
  seq: 46
  stamp: 
    secs: 1722857982
    nsecs: 962999582
  frame_id: ''
twist: 
  linear: 
    x: 0.5576383556154125
    y: 0.07929373606216292
    z: 0.0
  angular: 
    x: 0.0
    y: 0.0
    z: 0.0
---
header: 
  seq: 47
  stamp: 
    secs: 1722857982
    nsecs: 979587316
  frame_id: ''
twist: 
  linear: 
    x: 0.5575866266116852
    y: 0.0791148664843589
    z: 0.0
  angular: 
    x: 0.0
    y: 0.0
    z: 0.0
---
header: 
  seq: 48
  stamp: 
    secs: 1722857982
    nsecs: 995173692
  frame_id: ''
twist: 
  linear: 
    x: 0.5577472973516564
    y: 0.07915439547383371
    z: 0.0
  angular: 
    x: 0.0
    y: 0.0
    z: 0.0
---
header: 
  seq: 49
  stamp: 
    secs: 1722857983
    nsecs:  27910709
  frame_id: ''
twist: 
  linear: 
    x: 0.5577268267614154
    y: 0.07891189172880453
    z: 0.0
  angular: 
    x: 0.0
    y: 0.0
    z: 0.0
---
header: 
  seq: 50
  stamp: 
    secs: 1722857983
    nsecs:  42715549
  frame_id: ''
twist: 
  linear: 
    x: 0.5577659533415835
    y: 0.07896221152531696
    z: 0.0
  angular: 
    x: 0.0
    y: 0.0
    z: 0.0
---
header: 
  seq: 51
  stamp: 
    secs: 1722857983
    nsecs:  70509672
  frame_id: ''
twist: 
  linear: 
    x: 0.5578183862087633
    y: 0.0788127362996724
    z: 0.0
  angular: 
    x: 0.0
    y: 0.0
    z: 0.0
---
header: 
  seq: 52
  stamp: 
    secs: 1722857983
    nsecs:  91064214
  frame_id: ''
twist: 
  linear: 
    x: 0.5578483309729629
    y: 0.07886323210916611
    z: 0.0
  angular: 
    x: 0.0
    y: 0.0
    z: 0.0
---
header: 
  seq: 53
  stamp: 
    secs: 1722857983
    nsecs: 106427431
  frame_id: ''
twist: 
  linear: 
    x: 0.5578573696698279
    y: 0.07882763581595742
    z: 0.0
  angular: 
    x: 0.0
    y: 0.0
    z: 0.0
---
header: 
  seq: 54
  stamp: 
    secs: 1722857983
    nsecs: 119357109
  frame_id: ''
twist: 
  linear: 
    x: 0.5578961644392231
    y: 0.07879956325752649
    z: 0.0
  angular: 
    x: 0.0
    y: 0.0
    z: 0.0
---
header: 
  seq: 55
  stamp: 
    secs: 1722857983
    nsecs: 140500068
  frame_id: ''
twist: 
  linear: 
    x: 0.5579180502921682
    y: 0.07881629901538059
    z: 0.0
  angular: 
    x: 0.0
    y: 0.0
    z: 0.0
---
header: 
  seq: 56
  stamp: 
    secs: 1722857983
    nsecs: 172149658
  frame_id: ''
twist: 
  linear: 
    x: 0.5579294648000773
    y: 0.07880331922260067
    z: 0.0
  angular: 
    x: 0.0
    y: 0.0
    z: 0.0
---
header: 
  seq: 57
  stamp: 
    secs: 1722857983
    nsecs: 185486555
  frame_id: ''
twist: 
  linear: 
    x: 0.5578970191082502
    y: 0.07866084978360567
    z: 0.0
  angular: 
    x: 0.0
    y: 0.0
    z: 0.0
---
header: 
  seq: 58
  stamp: 
    secs: 1722857983
    nsecs: 209282875
  frame_id: ''
twist: 
  linear: 
    x: 0.5579853464277073
    y: 0.07888717112342616
    z: 0.0
  angular: 
    x: 0.0
    y: 0.0
    z: 0.0
---
header: 
  seq: 59
  stamp: 
    secs: 1722857983
    nsecs: 229155540
  frame_id: ''
twist: 
  linear: 
    x: 0.557914924738002
    y: 0.07861568090139011
    z: 0.0
  angular: 
    x: 0.0
    y: 0.0
    z: 0.0
---
header: 
  seq: 60
  stamp: 
    secs: 1722857983
    nsecs: 248416662
  frame_id: ''
twist: 
  linear: 
    x: 0.5579863949810262
    y: 0.07878632968418359
    z: 0.0
  angular: 
    x: 0.0
    y: 0.0
    z: 0.0
---
header: 
  seq: 61
  stamp: 
    secs: 1722857983
    nsecs: 261787176
  frame_id: ''
twist: 
  linear: 
    x: 0.5579267239388145
    y: 0.07854144753609965
    z: 0.0
  angular: 
    x: 0.0
    y: 0.0
    z: 0.0
---
header: 
  seq: 62
  stamp: 
    secs: 1722857983
    nsecs: 314999103
  frame_id: ''
twist: 
  linear: 
    x: 0.5582534065171839
    y: 0.07824445740029427
    z: 0.0
  angular: 
    x: 0.0
    y: 0.0
    z: 0.0
---
header: 
  seq: 63
  stamp: 
    secs: 1722857983
    nsecs: 331493377
  frame_id: ''
twist: 
  linear: 
    x: 0.5582140726672473
    y: 0.07803499024038188
    z: 0.0
  angular: 
    x: 0.0
    y: 0.0
    z: 0.0
---
header: 
  seq: 64
  stamp: 
    secs: 1722857983
    nsecs: 348163604
  frame_id: ''
twist: 
  linear: 
    x: 0.5582285897838382
    y: 0.07804792990339872
    z: 0.0
  angular: 
    x: 0.0
    y: 0.0
    z: 0.0
---
header: 
  seq: 65
  stamp: 
    secs: 1722857983
    nsecs: 367796897
  frame_id: ''
twist: 
  linear: 
    x: 0.5582415901973817
    y: 0.07804542135090571
    z: 0.0
  angular: 
    x: 0.0
    y: 0.0
    z: 0.0
---
header: 
  seq: 66
  stamp: 
    secs: 1722857983
    nsecs: 379460334
  frame_id: ''
twist: 
  linear: 
    x: 0.5582567009133987
    y: 0.07805349226649566
    z: 0.0
  angular: 
    x: 0.0
    y: 0.0
    z: 0.0
---
header: 
  seq: 67
  stamp: 
    secs: 1722857983
    nsecs: 396976947
  frame_id: ''
twist: 
  linear: 
    x: 0.5583107004753664
    y: 0.07823981073583622
    z: 0.0
  angular: 
    x: 0.0
    y: 0.0
    z: 0.0
---
header: 
  seq: 68
  stamp: 
    secs: 1722857983
    nsecs: 413322210
  frame_id: ''
twist: 
  linear: 
    x: 0.5582840049331628
    y: 0.07808889120440501
    z: 0.0
  angular: 
    x: 0.0
    y: 0.0
    z: 0.0
---
header: 
  seq: 69
  stamp: 
    secs: 1722857983
    nsecs: 427847146
  frame_id: ''
twist: 
  linear: 
    x: 0.558307926121461
    y: 0.07813889096222496
    z: 0.0
  angular: 
    x: 0.0
    y: 0.0
    z: 0.0
---
header: 
  seq: 70
  stamp: 
    secs: 1722857983
    nsecs: 434995889
  frame_id: ''
twist: 
  linear: 
    x: 0.5582827716170231
    y: 0.07798261586109269
    z: 0.0
  angular: 
    x: 0.0
    y: 0.0
    z: 0.0
---
header: 
  seq: 71
  stamp: 
    secs: 1722857983
    nsecs: 458214998
  frame_id: ''
twist: 
  linear: 
    x: 0.5583322308414453
    y: 0.0781515420935007
    z: 0.0
  angular: 
    x: 0.0
    y: 0.0
    z: 0.0
---
header: 
  seq: 72
  stamp: 
    secs: 1722857983
    nsecs: 466452836
  frame_id: ''
twist: 
  linear: 
    x: 0.5583168822243425
    y: 0.07801458985971964
    z: 0.0
  angular: 
    x: 0.0
    y: 0.0
    z: 0.0
---
header: 
  seq: 73
  stamp: 
    secs: 1722857983
    nsecs: 482323884
  frame_id: ''
twist: 
  linear: 
    x: 0.558364373765446
    y: 0.0779346750911714
    z: 0.0
  angular: 
    x: 0.0
    y: 0.0
    z: 0.0
---
header: 
  seq: 74
  stamp: 
    secs: 1722857983
    nsecs: 506091356
  frame_id: ''
twist: 
  linear: 
    x: 0.5584424951281622
    y: 0.07752090694351985
    z: 0.0
  angular: 
    x: 0.0
    y: 0.0
    z: 0.0
---
header: 
  seq: 75
  stamp: 
    secs: 1722857983
    nsecs: 530098438
  frame_id: ''
twist: 
  linear: 
    x: 0.5584383464073608
    y: 0.07735865695730146
    z: 0.0
  angular: 
    x: 0.0
    y: 0.0
    z: 0.0
---
header: 
  seq: 76
  stamp: 
    secs: 1722857983
    nsecs: 549855947
  frame_id: ''
twist: 
  linear: 
    x: 0.5584616774950242
    y: 0.07743562473457766
    z: 0.0
  angular: 
    x: 0.0
    y: 0.0
    z: 0.0
---
header: 
  seq: 77
  stamp: 
    secs: 1722857983
    nsecs: 567752361
  frame_id: ''
twist: 
  linear: 
    x: 0.5584755220252561
    y: 0.07746545696579016
    z: 0.0
  angular: 
    x: 0.0
    y: 0.0
    z: 0.0
---
header: 
  seq: 78
  stamp: 
    secs: 1722857983
    nsecs: 581473588
  frame_id: ''
twist: 
  linear: 
    x: 0.558436717615151
    y: 0.0772134082271563
    z: 0.0
  angular: 
    x: 0.0
    y: 0.0
    z: 0.0
---
header: 
  seq: 79
  stamp: 
    secs: 1722857983
    nsecs: 600835084
  frame_id: ''
twist: 
  linear: 
    x: 0.5584833932637444
    y: 0.0774057276035224
    z: 0.0
  angular: 
    x: 0.0
    y: 0.0
    z: 0.0
---
header: 
  seq: 80
  stamp: 
    secs: 1722857983
    nsecs: 621539592
  frame_id: ''
twist: 
  linear: 
    x: 0.5584748157253389
    y: 0.07720740458095096
    z: 0.0
  angular: 
    x: 0.0
    y: 0.0
    z: 0.0
---
header: 
  seq: 81
  stamp: 
    secs: 1722857983
    nsecs: 662330627
  frame_id: ''
twist: 
  linear: 
    x: 0.5586075281623237
    y: 0.07724708595897901
    z: 0.0
  angular: 
    x: 0.0
    y: 0.0
    z: 0.0
---
header: 
  seq: 82
  stamp: 
    secs: 1722857983
    nsecs: 684907436
  frame_id: ''
twist: 
  linear: 
    x: 0.5586022234215385
    y: 0.0770036669296111
    z: 0.0
  angular: 
    x: 0.0
    y: 0.0
    z: 0.0
---
header: 
  seq: 83
  stamp: 
    secs: 1722857983
    nsecs: 714508771
  frame_id: ''
twist: 
  linear: 
    x: 0.5585990168619771
    y: 0.07691485808033431
    z: 0.0
  angular: 
    x: 0.0
    y: 0.0
    z: 0.0
---
header: 
  seq: 84
  stamp: 
    secs: 1722857983
    nsecs: 749401569
  frame_id: ''
twist: 
  linear: 
    x: 0.5586573742061018
    y: 0.07687079227663775
    z: 0.0
  angular: 
    x: 0.0
    y: 0.0
    z: 0.0
---
header: 
  seq: 85
  stamp: 
    secs: 1722857983
    nsecs: 775751352
  frame_id: ''
twist: 
  linear: 
    x: 0.558693280814839
    y: 0.07709908302030993
    z: 0.0
  angular: 
    x: 0.0
    y: 0.0
    z: 0.0
---
header: 
  seq: 86
  stamp: 
    secs: 1722857983
    nsecs: 788514852
  frame_id: ''
twist: 
  linear: 
    x: 0.5586537492321888
    y: 0.07671755415773995
    z: 0.0
  angular: 
    x: 0.0
    y: 0.0
    z: 0.0
---
header: 
  seq: 87
  stamp: 
    secs: 1722857983
    nsecs: 807968854
  frame_id: ''
twist: 
  linear: 
    x: 0.5587084812289239
    y: 0.07709104644670932
    z: 0.0
  angular: 
    x: 0.0
    y: 0.0
    z: 0.0
---
header: 
  seq: 88
  stamp: 
    secs: 1722857983
    nsecs: 842296600
  frame_id: ''
twist: 
  linear: 
    x: 0.5587103276956324
    y: 0.07672216396677334
    z: 0.0
  angular: 
    x: 0.0
    y: 0.0
    z: 0.0
---
header: 
  seq: 89
  stamp: 
    secs: 1722857983
    nsecs: 866312265
  frame_id: ''
twist: 
  linear: 
    x: 0.5586886457552042
    y: 0.07649456830603875
    z: 0.0
  angular: 
    x: 0.0
    y: 0.0
    z: 0.0
---
header: 
  seq: 90
  stamp: 
    secs: 1722857983
    nsecs: 886467218
  frame_id: ''
twist: 
  linear: 
    x: 0.5587022168627945
    y: 0.07656589232486492
    z: 0.0
  angular: 
    x: 0.0
    y: 0.0
    z: 0.0
---
header: 
  seq: 91
  stamp: 
    secs: 1722857983
    nsecs: 913767576
  frame_id: ''
twist: 
  linear: 
    x: 0.5586807079764746
    y: 0.07631881571591581
    z: 0.0
  angular: 
    x: 0.0
    y: 0.0
    z: 0.0
---
header: 
  seq: 92
  stamp: 
    secs: 1722857983
    nsecs: 922295570
  frame_id: ''
twist: 
  linear: 
    x: 0.5587110869587678
    y: 0.0765172989955969
    z: 0.0
  angular: 
    x: 0.0
    y: 0.0
    z: 0.0
---
header: 
  seq: 93
  stamp: 
    secs: 1722857983
    nsecs: 941354990
  frame_id: ''
twist: 
  linear: 
    x: 0.55869636534751
    y: 0.07633740858273595
    z: 0.0
  angular: 
    x: 0.0
    y: 0.0
    z: 0.0
---
header: 
  seq: 94
  stamp: 
    secs: 1722857983
    nsecs: 959998369
  frame_id: ''
twist: 
  linear: 
    x: 0.5587256570983633
    y: 0.07655824925979171
    z: 0.0
  angular: 
    x: 0.0
    y: 0.0
    z: 0.0
---
header: 
  seq: 95
  stamp: 
    secs: 1722857983
    nsecs: 976398706
  frame_id: ''
twist: 
  linear: 
    x: 0.5587084482967107
    y: 0.07632927389226332
    z: 0.0
  angular: 
    x: 0.0
    y: 0.0
    z: 0.0
---
header: 
  seq: 96
  stamp: 
    secs: 1722857983
    nsecs: 998073101
  frame_id: ''
twist: 
  linear: 
    x: 0.558721899218249
    y: 0.07641280986877642
    z: 0.0
  angular: 
    x: 0.0
    y: 0.0
    z: 0.0
---
header: 
  seq: 97
  stamp: 
    secs: 1722857984
    nsecs:  25673866
  frame_id: ''
twist: 
  linear: 
    x: 0.5587173588074817
    y: 0.0762812153330274
    z: 0.0
  angular: 
    x: 0.0
    y: 0.0
    z: 0.0
---
header: 
  seq: 98
  stamp: 
    secs: 1722857984
    nsecs:  46470165
  frame_id: ''
twist: 
  linear: 
    x: 0.5587376647657049
    y: 0.07643809762558929
    z: 0.0
  angular: 
    x: 0.0
    y: 0.0
    z: 0.0
---
header: 
  seq: 99
  stamp: 
    secs: 1722857984
    nsecs:  50664901
  frame_id: ''
twist: 
  linear: 
    x: 0.558739379815707
    y: 0.07642155733102694
    z: 0.0
  angular: 
    x: 0.0
    y: 0.0
    z: 0.0
---
header: 
  seq: 100
  stamp: 
    secs: 1722857984
    nsecs:  74329614
  frame_id: ''
twist: 
  linear: 
    x: 0.5587283740604736
    y: 0.07629157870799144
    z: 0.0
  angular: 
    x: 0.0
    y: 0.0
    z: 0.0
---
header: 
  seq: 101
  stamp: 
    secs: 1722857984
    nsecs:  84456920
  frame_id: ''
twist: 
  linear: 
    x: 0.5587262545248076
    y: 0.07626340269525303
    z: 0.0
  angular: 
    x: 0.0
    y: 0.0
    z: 0.0
---
header: 
  seq: 102
  stamp: 
    secs: 1722857984
    nsecs: 128503561
  frame_id: ''
twist: 
  linear: 
    x: 0.5588014204714844
    y: 0.07559101052178199
    z: 0.0
  angular: 
    x: 0.0
    y: 0.0
    z: 0.0
---
header: 
  seq: 103
  stamp: 
    secs: 1722857984
    nsecs: 145332813
  frame_id: ''
twist: 
  linear: 
    x: 0.558801638494366
    y: 0.07550381583894811
    z: 0.0
  angular: 
    x: 0.0
    y: 0.0
    z: 0.0
---
header: 
  seq: 104
  stamp: 
    secs: 1722857984
    nsecs: 161525249
  frame_id: ''
twist: 
  linear: 
    x: 0.5588151474523987
    y: 0.075563314633119
    z: 0.0
  angular: 
    x: 0.0
    y: 0.0
    z: 0.0
---
header: 
  seq: 105
  stamp: 
    secs: 1722857984
    nsecs: 196573257
  frame_id: ''
twist: 
  linear: 
    x: 0.558815129180031
    y: 0.07541976839137916
    z: 0.0
  angular: 
    x: 0.0
    y: 0.0
    z: 0.0
---
header: 
  seq: 106
  stamp: 
    secs: 1722857984
    nsecs: 231153249
  frame_id: ''
twist: 
  linear: 
    x: 0.5588061734659207
    y: 0.07507970735260287
    z: 0.0
  angular: 
    x: 0.0
    y: 0.0
    z: 0.0
---
header: 
  seq: 107
  stamp: 
    secs: 1722857984
    nsecs: 242107629
  frame_id: ''
twist: 
  linear: 
    x: 0.5588263894573318
    y: 0.07512425676832848
    z: 0.0
  angular: 
    x: 0.0
    y: 0.0
    z: 0.0
---
header: 
  seq: 108
  stamp: 
    secs: 1722857984
    nsecs: 273522615
  frame_id: ''
twist: 
  linear: 
    x: 0.5588431616190435
    y: 0.0750516854984208
    z: 0.0
  angular: 
    x: 0.0
    y: 0.0
    z: 0.0
---
header: 
  seq: 109
  stamp: 
    secs: 1722857984
    nsecs: 292336463
  frame_id: ''
twist: 
  linear: 
    x: 0.5588419630703819
    y: 0.0747983521043303
    z: 0.0
  angular: 
    x: 0.0
    y: 0.0
    z: 0.0
---
header: 
  seq: 110
  stamp: 
    secs: 1722857984
    nsecs: 304930448
  frame_id: ''
twist: 
  linear: 
    x: 0.5588504724092105
    y: 0.0749339140178879
    z: 0.0
  angular: 
    x: 0.0
    y: 0.0
    z: 0.0
---
header: 
  seq: 111
  stamp: 
    secs: 1722857984
    nsecs: 324435472
  frame_id: ''
twist: 
  linear: 
    x: 0.5588416325543191
    y: 0.07471239345956233
    z: 0.0
  angular: 
    x: 0.0
    y: 0.0
    z: 0.0
---
header: 
  seq: 112
  stamp: 
    secs: 1722857984
    nsecs: 346755981
  frame_id: ''
twist: 
  linear: 
    x: 0.5588555083055617
    y: 0.07501316366116496
    z: 0.0
  angular: 
    x: 0.0
    y: 0.0
    z: 0.0
---
header: 
  seq: 113
  stamp: 
    secs: 1722857984
    nsecs: 367847919
  frame_id: ''
twist: 
  linear: 
    x: 0.5588770799998637
    y: 0.07479919675309081
    z: 0.0
  angular: 
    x: 0.0
    y: 0.0
    z: 0.0
---
header: 
  seq: 114
  stamp: 
    secs: 1722857984
    nsecs: 391352653
  frame_id: ''
twist: 
  linear: 
    x: 0.5588699668003315
    y: 0.07461959793537055
    z: 0.0
  angular: 
    x: 0.0
    y: 0.0
    z: 0.0
---
header: 
  seq: 115
  stamp: 
    secs: 1722857984
    nsecs: 398463010
  frame_id: ''
twist: 
  linear: 
    x: 0.5588717974044685
    y: 0.07463786813908016
    z: 0.0
  angular: 
    x: 0.0
    y: 0.0
    z: 0.0
---
header: 
  seq: 116
  stamp: 
    secs: 1722857984
    nsecs: 419496774
  frame_id: ''
twist: 
  linear: 
    x: 0.5588693733752631
    y: 0.0745180074926345
    z: 0.0
  angular: 
    x: 0.0
    y: 0.0
    z: 0.0
---
header: 
  seq: 117
  stamp: 
    secs: 1722857984
    nsecs: 438028335
  frame_id: ''
twist: 
  linear: 
    x: 0.5588680668530899
    y: 0.07442581149692565
    z: 0.0
  angular: 
    x: 0.0
    y: 0.0
    z: 0.0
---
header: 
  seq: 118
  stamp: 
    secs: 1722857984
    nsecs: 515386343
  frame_id: ''
twist: 
  linear: 
    x: 0.5588820335151041
    y: 0.07437617195909393
    z: 0.0
  angular: 
    x: 0.0
    y: 0.0
    z: 0.0
---
header: 
  seq: 119
  stamp: 
    secs: 1722857984
    nsecs: 528784275
  frame_id: ''
twist: 
  linear: 
    x: 0.5588759141341197
    y: 0.07411270350247741
    z: 0.0
  angular: 
    x: 0.0
    y: 0.0
    z: 0.0
---
header: 
  seq: 120
  stamp: 
    secs: 1722857984
    nsecs: 545983552
  frame_id: ''
twist: 
  linear: 
    x: 0.5588839455080442
    y: 0.07417529910586651
    z: 0.0
  angular: 
    x: 0.0
    y: 0.0
    z: 0.0
---
header: 
  seq: 121
  stamp: 
    secs: 1722857984
    nsecs: 562192678
  frame_id: ''
twist: 
  linear: 
    x: 0.5588925493856128
    y: 0.07409227294966267
    z: 0.0
  angular: 
    x: 0.0
    y: 0.0
    z: 0.0
---
header: 
  seq: 122
  stamp: 
    secs: 1722857984
    nsecs: 578249692
  frame_id: ''
twist: 
  linear: 
    x: 0.5589006156743651
    y: 0.07395637264131977
    z: 0.0
  angular: 
    x: 0.0
    y: 0.0
    z: 0.0
---
header: 
  seq: 123
  stamp: 
    secs: 1722857984
    nsecs: 593448638
  frame_id: ''
twist: 
  linear: 
    x: 0.5588921147907913
    y: 0.07370996179987938
    z: 0.0
  angular: 
    x: 0.0
    y: 0.0
    z: 0.0
---
header: 
  seq: 124
  stamp: 
    secs: 1722857984
    nsecs: 602041006
  frame_id: ''
twist: 
  linear: 
    x: 0.5588905189917723
    y: 0.07364196692382888
    z: 0.0
  angular: 
    x: 0.0
    y: 0.0
    z: 0.0
---
header: 
  seq: 125
  stamp: 
    secs: 1722857984
    nsecs: 617038965
  frame_id: ''
twist: 
  linear: 
    x: 0.5589117851748655
    y: 0.0738352716244418
    z: 0.0
  angular: 
    x: 0.0
    y: 0.0
    z: 0.0
---
header: 
  seq: 126
  stamp: 
    secs: 1722857984
    nsecs: 644517898
  frame_id: ''
twist: 
  linear: 
    x: 0.5589058774377992
    y: 0.07362098286639299
    z: 0.0
  angular: 
    x: 0.0
    y: 0.0
    z: 0.0
---
header: 
  seq: 127
  stamp: 
    secs: 1722857984
    nsecs: 664921760
  frame_id: ''
twist: 
  linear: 
    x: 0.5589068952524825
    y: 0.07357781634273067
    z: 0.0
  angular: 
    x: 0.0
    y: 0.0
    z: 0.0
---
header: 
  seq: 128
  stamp: 
    secs: 1722857984
    nsecs: 680416345
  frame_id: ''
twist: 
  linear: 
    x: 0.5589136822558529
    y: 0.07378002750281844
    z: 0.0
  angular: 
    x: 0.0
    y: 0.0
    z: 0.0
---
header: 
  seq: 129
  stamp: 
    secs: 1722857984
    nsecs: 695288896
  frame_id: ''
twist: 
  linear: 
    x: 0.558911749065614
    y: 0.07352455196659113
    z: 0.0
  angular: 
    x: 0.0
    y: 0.0
    z: 0.0
---
header: 
  seq: 130
  stamp: 
    secs: 1722857984
    nsecs: 716246128
  frame_id: ''
twist: 
  linear: 
    x: 0.5589194098587568
    y: 0.07367306399578405
    z: 0.0
  angular: 
    x: 0.0
    y: 0.0
    z: 0.0
---
header: 
  seq: 131
  stamp: 
    secs: 1722857984
    nsecs: 737656116
  frame_id: ''
twist: 
  linear: 
    x: 0.5589124160370457
    y: 0.07340908087932603
    z: 0.0
  angular: 
    x: 0.0
    y: 0.0
    z: 0.0
---
header: 
  seq: 132
  stamp: 
    secs: 1722857984
    nsecs: 747539997
  frame_id: ''
twist: 
  linear: 
    x: 0.5589217852332546
    y: 0.07366219963779787
    z: 0.0
  angular: 
    x: 0.0
    y: 0.0
    z: 0.0
---
header: 
  seq: 133
  stamp: 
    secs: 1722857984
    nsecs: 755549192
  frame_id: ''
twist: 
  linear: 
    x: 0.5589128436094011
    y: 0.07341449858675157
    z: 0.0
  angular: 
    x: 0.0
    y: 0.0
    z: 0.0
---
header: 
  seq: 134
  stamp: 
    secs: 1722857984
    nsecs: 773090124
  frame_id: ''
twist: 
  linear: 
    x: 0.558913494650865
    y: 0.073475292754781
    z: 0.0
  angular: 
    x: 0.0
    y: 0.0
    z: 0.0
---
header: 
  seq: 135
  stamp: 
    secs: 1722857984
    nsecs: 782907485
  frame_id: ''
twist: 
  linear: 
    x: 0.5589121558960005
    y: 0.0734581452693575
    z: 0.0
  angular: 
    x: 0.0
    y: 0.0
    z: 0.0
---
header: 
  seq: 136
  stamp: 
    secs: 1722857984
    nsecs: 813955068
  frame_id: ''
twist: 
  linear: 
    x: 0.5589210086329571
    y: 0.07258705114203368
    z: 0.0
  angular: 
    x: 0.0
    y: 0.0
    z: 0.0
---
header: 
  seq: 137
  stamp: 
    secs: 1722857984
    nsecs: 819426298
  frame_id: ''
twist: 
  linear: 
    x: 0.5589333660941523
    y: 0.07302341169430819
    z: 0.0
  angular: 
    x: 0.0
    y: 0.0
    z: 0.0
---
header: 
  seq: 138
  stamp: 
    secs: 1722857984
    nsecs: 838516235
  frame_id: ''
twist: 
  linear: 
    x: 0.5589367391361244
    y: 0.072790113526994
    z: 0.0
  angular: 
    x: 0.0
    y: 0.0
    z: 0.0
---
header: 
  seq: 139
  stamp: 
    secs: 1722857984
    nsecs: 855827093
  frame_id: ''
twist: 
  linear: 
    x: 0.5589362370614316
    y: 0.07276476856540257
    z: 0.0
  angular: 
    x: 0.0
    y: 0.0
    z: 0.0
---
header: 
  seq: 140
  stamp: 
    secs: 1722857984
    nsecs: 871266126
  frame_id: ''
twist: 
  linear: 
    x: 0.5589391286972658
    y: 0.07280496322779839
    z: 0.0
  angular: 
    x: 0.0
    y: 0.0
    z: 0.0
---
header: 
  seq: 141
  stamp: 
    secs: 1722857984
    nsecs: 891282320
  frame_id: ''
twist: 
  linear: 
    x: 0.5589336511820588
    y: 0.07257842664302631
    z: 0.0
  angular: 
    x: 0.0
    y: 0.0
    z: 0.0
---
header: 
  seq: 142
  stamp: 
    secs: 1722857984
    nsecs: 905352354
  frame_id: ''
twist: 
  linear: 
    x: 0.5589347574523783
    y: 0.07260917608378027
    z: 0.0
  angular: 
    x: 0.0
    y: 0.0
    z: 0.0
---
header: 
  seq: 143
  stamp: 
    secs: 1722857984
    nsecs: 926934480
  frame_id: ''
twist: 
  linear: 
    x: 0.5589440727821523
    y: 0.07260332917990923
    z: 0.0
  angular: 
    x: 0.0
    y: 0.0
    z: 0.0
---
header: 
  seq: 144
  stamp: 
    secs: 1722857984
    nsecs: 951414108
  frame_id: ''
twist: 
  linear: 
    x: 0.5589440800906554
    y: 0.07244572821105273
    z: 0.0
  angular: 
    x: 0.0
    y: 0.0
    z: 0.0
---
header: 
  seq: 145
  stamp: 
    secs: 1722857984
    nsecs: 976209163
  frame_id: ''
twist: 
  linear: 
    x: 0.558949692034649
    y: 0.07240027309907995
    z: 0.0
  angular: 
    x: 0.0
    y: 0.0
    z: 0.0
---
header: 
  seq: 146
  stamp: 
    secs: 1722857984
    nsecs: 991065740
  frame_id: ''
twist: 
  linear: 
    x: 0.5589526148546445
    y: 0.07242263789647965
    z: 0.0
  angular: 
    x: 0.0
    y: 0.0
    z: 0.0
---
header: 
  seq: 147
  stamp: 
    secs: 1722857985
    nsecs:   8383750
  frame_id: ''
twist: 
  linear: 
    x: 0.5589496889031047
    y: 0.0722884835381331
    z: 0.0
  angular: 
    x: 0.0
    y: 0.0
    z: 0.0
---
header: 
  seq: 148
  stamp: 
    secs: 1722857985
    nsecs:  34848213
  frame_id: ''
twist: 
  linear: 
    x: 0.5589526576474119
    y: 0.07214757033925452
    z: 0.0
  angular: 
    x: 0.0
    y: 0.0
    z: 0.0
---
header: 
  seq: 149
  stamp: 
    secs: 1722857985
    nsecs:  59111118
  frame_id: ''
twist: 
  linear: 
    x: 0.5589553125914891
    y: 0.07207488096739656
    z: 0.0
  angular: 
    x: 0.0
    y: 0.0
    z: 0.0
---
header: 
  seq: 150
  stamp: 
    secs: 1722857985
    nsecs:  83909749
  frame_id: ''
twist: 
  linear: 
    x: 0.5589577095361183
    y: 0.07207014000126666
    z: 0.0
  angular: 
    x: 0.0
    y: 0.0
    z: 0.0
---
header: 
  seq: 151
  stamp: 
    secs: 1722857985
    nsecs: 102903604
  frame_id: ''
twist: 
  linear: 
    x: 0.5589610119241751
    y: 0.07205505164532407
    z: 0.0
  angular: 
    x: 0.0
    y: 0.0
    z: 0.0
---
header: 
  seq: 152
  stamp: 
    secs: 1722857985
    nsecs: 115252256
  frame_id: ''
twist: 
  linear: 
    x: 0.5589628163746254
    y: 0.0720853665287533
    z: 0.0
  angular: 
    x: 0.0
    y: 0.0
    z: 0.0
---
header: 
  seq: 153
  stamp: 
    secs: 1722857985
    nsecs: 130916357
  frame_id: ''
twist: 
  linear: 
    x: 0.558962772404982
    y: 0.07181017364168049
    z: 0.0
  angular: 
    x: 0.0
    y: 0.0
    z: 0.0
---
header: 
  seq: 154
  stamp: 
    secs: 1722857985
    nsecs: 158025264
  frame_id: ''
twist: 
  linear: 
    x: 0.5589750254777281
    y: 0.07206593751053511
    z: 0.0
  angular: 
    x: 0.0
    y: 0.0
    z: 0.0
---
header: 
  seq: 155
  stamp: 
    secs: 1722857985
    nsecs: 173259496
  frame_id: ''
twist: 
  linear: 
    x: 0.5589719156712287
    y: 0.0718402704528813
    z: 0.0
  angular: 
    x: 0.0
    y: 0.0
    z: 0.0
---
header: 
  seq: 156
  stamp: 
    secs: 1722857985
    nsecs: 197387456
  frame_id: ''
twist: 
  linear: 
    x: 0.5589768084995116
    y: 0.0718339341383217
    z: 0.0
  angular: 
    x: 0.0
    y: 0.0
    z: 0.0
---
header: 
  seq: 157
  stamp: 
    secs: 1722857985
    nsecs: 225824356
  frame_id: ''
twist: 
  linear: 
    x: 0.5589703465668676
    y: 0.07159771952658675
    z: 0.0
  angular: 
    x: 0.0
    y: 0.0
    z: 0.0
---
header: 
  seq: 158
  stamp: 
    secs: 1722857985
    nsecs: 244732141
  frame_id: ''
twist: 
  linear: 
    x: 0.5589835594031827
    y: 0.0718474882824517
    z: 0.0
  angular: 
    x: 0.0
    y: 0.0
    z: 0.0
---
header: 
  seq: 159
  stamp: 
    secs: 1722857985
    nsecs: 284928083
  frame_id: ''
twist: 
  linear: 
    x: 0.5589894624648271
    y: 0.07190086159049333
    z: 0.0
  angular: 
    x: 0.0
    y: 0.0
    z: 0.0
---
header: 
  seq: 160
  stamp: 
    secs: 1722857985
    nsecs: 328267335
  frame_id: ''
twist: 
  linear: 
    x: 0.5589822569005496
    y: 0.07102465589503704
    z: 0.0
  angular: 
    x: 0.0
    y: 0.0
    z: 0.0
---
header: 
  seq: 161
  stamp: 
    secs: 1722857985
    nsecs: 333979368
  frame_id: ''
twist: 
  linear: 
    x: 0.55897765042575
    y: 0.07095764368160352
    z: 0.0
  angular: 
    x: 0.0
    y: 0.0
    z: 0.0
---
header: 
  seq: 162
  stamp: 
    secs: 1722857985
    nsecs: 349342823
  frame_id: ''
twist: 
  linear: 
    x: 0.5589798365535354
    y: 0.07099456004096584
    z: 0.0
  angular: 
    x: 0.0
    y: 0.0
    z: 0.0
---
header: 
  seq: 163
  stamp: 
    secs: 1722857985
    nsecs: 361309528
  frame_id: ''
twist: 
  linear: 
    x: 0.5589749168806595
    y: 0.07084086768523165
    z: 0.0
  angular: 
    x: 0.0
    y: 0.0
    z: 0.0
---
header: 
  seq: 164
  stamp: 
    secs: 1722857985
    nsecs: 372972011
  frame_id: ''
twist: 
  linear: 
    x: 0.5589717911689692
    y: 0.07078983613583027
    z: 0.0
  angular: 
    x: 0.0
    y: 0.0
    z: 0.0
---
header: 
  seq: 165
  stamp: 
    secs: 1722857985
    nsecs: 386106014
  frame_id: ''
twist: 
  linear: 
    x: 0.5589820080093917
    y: 0.07093686728965551
    z: 0.0
  angular: 
    x: 0.0
    y: 0.0
    z: 0.0
---
header: 
  seq: 166
  stamp: 
    secs: 1722857985
    nsecs: 398656845
  frame_id: ''
twist: 
  linear: 
    x: 0.558980817194199
    y: 0.07085662321214999
    z: 0.0
  angular: 
    x: 0.0
    y: 0.0
    z: 0.0
---
header: 
  seq: 167
  stamp: 
    secs: 1722857985
    nsecs: 415447950
  frame_id: ''
twist: 
  linear: 
    x: 0.5589820801742572
    y: 0.07077133622634416
    z: 0.0
  angular: 
    x: 0.0
    y: 0.0
    z: 0.0
---
header: 
  seq: 168
  stamp: 
    secs: 1722857985
    nsecs: 446329832
  frame_id: ''
twist: 
  linear: 
    x: 0.5589855082368776
    y: 0.0705768581301228
    z: 0.0
  angular: 
    x: 0.0
    y: 0.0
    z: 0.0
---
header: 
  seq: 169
  stamp: 
    secs: 1722857985
    nsecs: 458520650
  frame_id: ''
twist: 
  linear: 
    x: 0.5589879176964386
    y: 0.0705952322303367
    z: 0.0
  angular: 
    x: 0.0
    y: 0.0
    z: 0.0
---
header: 
  seq: 170
  stamp: 
    secs: 1722857985
    nsecs: 474158048
  frame_id: ''
twist: 
  linear: 
    x: 0.5589980659258754
    y: 0.07069814805238687
    z: 0.0
  angular: 
    x: 0.0
    y: 0.0
    z: 0.0
---
header: 
  seq: 171
  stamp: 
    secs: 1722857985
    nsecs: 488804101
  frame_id: ''
twist: 
  linear: 
    x: 0.5589966170385597
    y: 0.07057997741502618
    z: 0.0
  angular: 
    x: 0.0
    y: 0.0
    z: 0.0
---
header: 
  seq: 172
  stamp: 
    secs: 1722857985
    nsecs: 499671697
  frame_id: ''
twist: 
  linear: 
    x: 0.5590025853884215
    y: 0.07061437770967732
    z: 0.0
  angular: 
    x: 0.0
    y: 0.0
    z: 0.0
---
header: 
  seq: 173
  stamp: 
    secs: 1722857985
    nsecs: 528048038
  frame_id: ''
twist: 
  linear: 
    x: 0.5590172251287139
    y: 0.0702430600021683
    z: 0.0
  angular: 
    x: 0.0
    y: 0.0
    z: 0.0
---
header: 
  seq: 174
  stamp: 
    secs: 1722857985
    nsecs: 543483972
  frame_id: ''
twist: 
  linear: 
    x: 0.5590174715277448
    y: 0.07021275242859937
    z: 0.0
  angular: 
    x: 0.0
    y: 0.0
    z: 0.0
---
header: 
  seq: 175
  stamp: 
    secs: 1722857985
    nsecs: 558169841
  frame_id: ''
twist: 
  linear: 
    x: 0.5590096991847622
    y: 0.07004748648669382
    z: 0.0
  angular: 
    x: 0.0
    y: 0.0
    z: 0.0
---
header: 
  seq: 176
  stamp: 
    secs: 1722857985
    nsecs: 583159446
  frame_id: ''
twist: 
  linear: 
    x: 0.5590178839650475
    y: 0.07001599210037143
    z: 0.0
  angular: 
    x: 0.0
    y: 0.0
    z: 0.0
---
header: 
  seq: 177
  stamp: 
    secs: 1722857985
    nsecs: 594544410
  frame_id: ''
twist: 
  linear: 
    x: 0.559023099101553
    y: 0.06992934925116104
    z: 0.0
  angular: 
    x: 0.0
    y: 0.0
    z: 0.0
---
header: 
  seq: 178
  stamp: 
    secs: 1722857985
    nsecs: 603218078
  frame_id: ''
twist: 
  linear: 
    x: 0.5590268046472098
    y: 0.06996008539637294
    z: 0.0
  angular: 
    x: 0.0
    y: 0.0
    z: 0.0
---
header: 
  seq: 179
  stamp: 
    secs: 1722857985
    nsecs: 610940694
  frame_id: ''
twist: 
  linear: 
    x: 0.5590250082013286
    y: 0.0698583583474989
    z: 0.0
  angular: 
    x: 0.0
    y: 0.0
    z: 0.0
---
header: 
  seq: 180
  stamp: 
    secs: 1722857985
    nsecs: 632044792
  frame_id: ''
twist: 
  linear: 
    x: 0.5590284575771493
    y: 0.06990178550482319
    z: 0.0
  angular: 
    x: 0.0
    y: 0.0
    z: 0.0
---
header: 
  seq: 181
  stamp: 
    secs: 1722857985
    nsecs: 648473024
  frame_id: ''
twist: 
  linear: 
    x: 0.5590327604012639
    y: 0.06961798672478645
    z: 0.0
  angular: 
    x: 0.0
    y: 0.0
    z: 0.0
---
header: 
  seq: 182
  stamp: 
    secs: 1722857985
    nsecs: 661589622
  frame_id: ''
twist: 
  linear: 
    x: 0.5590456749413051
    y: 0.06982953247368394
    z: 0.0
  angular: 
    x: 0.0
    y: 0.0
    z: 0.0
---
header: 
  seq: 183
  stamp: 
    secs: 1722857985
    nsecs: 682161331
  frame_id: ''
twist: 
  linear: 
    x: 0.5590504167894128
    y: 0.06976241590473964
    z: 0.0
  angular: 
    x: 0.0
    y: 0.0
    z: 0.0
---
header: 
  seq: 184
  stamp: 
    secs: 1722857985
    nsecs: 691107034
  frame_id: ''
twist: 
  linear: 
    x: 0.5590551192080393
    y: 0.06978701865014394
    z: 0.0
  angular: 
    x: 0.0
    y: 0.0
    z: 0.0
---
header: 
  seq: 185
  stamp: 
    secs: 1722857985
    nsecs: 702261686
  frame_id: ''
twist: 
  linear: 
    x: 0.5590407637659103
    y: 0.06955842672066359
    z: 0.0
  angular: 
    x: 0.0
    y: 0.0
    z: 0.0
---
header: 
  seq: 186
  stamp: 
    secs: 1722857985
    nsecs: 718459367
  frame_id: ''
twist: 
  linear: 
    x: 0.559047649974314
    y: 0.06956429467195839
    z: 0.0
  angular: 
    x: 0.0
    y: 0.0
    z: 0.0
---
header: 
  seq: 187
  stamp: 
    secs: 1722857985
    nsecs: 729969263
  frame_id: ''
twist: 
  linear: 
    x: 0.5590424594169723
    y: 0.06942454232054122
    z: 0.0
  angular: 
    x: 0.0
    y: 0.0
    z: 0.0
---
header: 
  seq: 188
  stamp: 
    secs: 1722857985
    nsecs: 756626844
  frame_id: ''
twist: 
  linear: 
    x: 0.5590548419391976
    y: 0.06952269778450623
    z: 0.0
  angular: 
    x: 0.0
    y: 0.0
    z: 0.0
---
header: 
  seq: 189
  stamp: 
    secs: 1722857985
    nsecs: 769417524
  frame_id: ''
twist: 
  linear: 
    x: 0.5590830259081971
    y: 0.06980407685648947
    z: 0.0
  angular: 
    x: 0.0
    y: 0.0
    z: 0.0
---
header: 
  seq: 190
  stamp: 
    secs: 1722857985
    nsecs: 794316530
  frame_id: ''
twist: 
  linear: 
    x: 0.559067386919317
    y: 0.06922413353425176
    z: 0.0
  angular: 
    x: 0.0
    y: 0.0
    z: 0.0
---
header: 
  seq: 191
  stamp: 
    secs: 1722857985
    nsecs: 812871694
  frame_id: ''
twist: 
  linear: 
    x: 0.5590774000175947
    y: 0.06931489916329842
    z: 0.0
  angular: 
    x: 0.0
    y: 0.0
    z: 0.0
---
header: 
  seq: 192
  stamp: 
    secs: 1722857985
    nsecs: 818321943
  frame_id: ''
twist: 
  linear: 
    x: 0.5590755608066162
    y: 0.06924765106964248
    z: 0.0
  angular: 
    x: 0.0
    y: 0.0
    z: 0.0
---
header: 
  seq: 193
  stamp: 
    secs: 1722857985
    nsecs: 831525564
  frame_id: ''
twist: 
  linear: 
    x: 0.5590744365714839
    y: 0.06916823624636895
    z: 0.0
  angular: 
    x: 0.0
    y: 0.0
    z: 0.0
---
header: 
  seq: 194
  stamp: 
    secs: 1722857985
    nsecs: 850273609
  frame_id: ''
twist: 
  linear: 
    x: 0.5590727481116812
    y: 0.06903138982732523
    z: 0.0
  angular: 
    x: 0.0
    y: 0.0
    z: 0.0
---
header: 
  seq: 195
  stamp: 
    secs: 1722857985
    nsecs: 867264986
  frame_id: ''
twist: 
  linear: 
    x: 0.5590721708842967
    y: 0.06897036829680216
    z: 0.0
  angular: 
    x: 0.0
    y: 0.0
    z: 0.0
---
header: 
  seq: 196
  stamp: 
    secs: 1722857985
    nsecs: 884560108
  frame_id: ''
twist: 
  linear: 
    x: 0.5590675835131531
    y: 0.06884437518736404
    z: 0.0
  angular: 
    x: 0.0
    y: 0.0
    z: 0.0
---
header: 
  seq: 197
  stamp: 
    secs: 1722857985
    nsecs: 917283535
  frame_id: ''
twist: 
  linear: 
    x: 0.5591146718777609
    y: 0.06879697436085741
    z: 0.0
  angular: 
    x: 0.0
    y: 0.0
    z: 0.0
---
header: 
  seq: 198
  stamp: 
    secs: 1722857985
    nsecs: 947360277
  frame_id: ''
twist: 
  linear: 
    x: 0.5591177010602758
    y: 0.06848023185756566
    z: 0.0
  angular: 
    x: 0.0
    y: 0.0
    z: 0.0
---
header: 
  seq: 199
  stamp: 
    secs: 1722857985
    nsecs: 967971801
  frame_id: ''
twist: 
  linear: 
    x: 0.5591365773353459
    y: 0.06861386054129669
    z: 0.0
  angular: 
    x: 0.0
    y: 0.0
    z: 0.0
---
header: 
  seq: 200
  stamp: 
    secs: 1722857985
    nsecs: 982277154
  frame_id: ''
twist: 
  linear: 
    x: 0.5591363520784373
    y: 0.06855993602304335
    z: 0.0
  angular: 
    x: 0.0
    y: 0.0
    z: 0.0
---
header: 
  seq: 201
  stamp: 
    secs: 1722857986
    nsecs:  12961626
  frame_id: ''
twist: 
  linear: 
    x: 0.5591365410374929
    y: 0.06851468218156266
    z: 0.0
  angular: 
    x: 0.0
    y: 0.0
    z: 0.0
---
header: 
  seq: 202
  stamp: 
    secs: 1722857986
    nsecs:  44185161
  frame_id: ''
twist: 
  linear: 
    x: 0.5591629263174366
    y: 0.06813600747289535
    z: 0.0
  angular: 
    x: 0.0
    y: 0.0
    z: 0.0
---
header: 
  seq: 203
  stamp: 
    secs: 1722857986
    nsecs:  67028045
  frame_id: ''
twist: 
  linear: 
    x: 0.5591487213765808
    y: 0.06794441998577413
    z: 0.0
  angular: 
    x: 0.0
    y: 0.0
    z: 0.0
---
header: 
  seq: 204
  stamp: 
    secs: 1722857986
    nsecs:  82559585
  frame_id: ''
twist: 
  linear: 
    x: 0.559167719719188
    y: 0.06807007410700122
    z: 0.0
  angular: 
    x: 0.0
    y: 0.0
    z: 0.0
---
header: 
  seq: 205
  stamp: 
    secs: 1722857986
    nsecs: 111471414
  frame_id: ''
twist: 
  linear: 
    x: 0.5591840195174484
    y: 0.06784130772447206
    z: 0.0
  angular: 
    x: 0.0
    y: 0.0
    z: 0.0
---
header: 
  seq: 206
  stamp: 
    secs: 1722857986
    nsecs: 143042087
  frame_id: ''
twist: 
  linear: 
    x: 0.5591813825605865
    y: 0.06777282835361668
    z: 0.0
  angular: 
    x: 0.0
    y: 0.0
    z: 0.0
---
header: 
  seq: 207
  stamp: 
    secs: 1722857986
    nsecs: 156028985
  frame_id: ''
twist: 
  linear: 
    x: 0.5591640116399759
    y: 0.06741680356341892
    z: 0.0
  angular: 
    x: 0.0
    y: 0.0
    z: 0.0
---
header: 
  seq: 208
  stamp: 
    secs: 1722857986
    nsecs: 169121026
  frame_id: ''
twist: 
  linear: 
    x: 0.5591800233278175
    y: 0.06750579362902631
    z: 0.0
  angular: 
    x: 0.0
    y: 0.0
    z: 0.0
---
header: 
  seq: 209
  stamp: 
    secs: 1722857986
    nsecs: 190591812
  frame_id: ''
twist: 
  linear: 
    x: 0.5592228929155678
    y: 0.06778715171838971
    z: 0.0
  angular: 
    x: 0.0
    y: 0.0
    z: 0.0
---
header: 
  seq: 210
  stamp: 
    secs: 1722857986
    nsecs: 208032608
  frame_id: ''
twist: 
  linear: 
    x: 0.5592133328439561
    y: 0.06762800958468686
    z: 0.0
  angular: 
    x: 0.0
    y: 0.0
    z: 0.0
---
header: 
  seq: 211
  stamp: 
    secs: 1722857986
    nsecs: 224559307
  frame_id: ''
twist: 
  linear: 
    x: 0.5592117690890946
    y: 0.0675906982317498
    z: 0.0
  angular: 
    x: 0.0
    y: 0.0
    z: 0.0
---
header: 
  seq: 212
  stamp: 
    secs: 1722857986
    nsecs: 236844539
  frame_id: ''
twist: 
  linear: 
    x: 0.5592221368572469
    y: 0.06761507912930129
    z: 0.0
  angular: 
    x: 0.0
    y: 0.0
    z: 0.0
---
header: 
  seq: 213
  stamp: 
    secs: 1722857986
    nsecs: 253189802
  frame_id: ''
twist: 
  linear: 
    x: 0.5591911237012807
    y: 0.06730665367413538
    z: 0.0
  angular: 
    x: 0.0
    y: 0.0
    z: 0.0
---
header: 
  seq: 214
  stamp: 
    secs: 1722857986
    nsecs: 269854068
  frame_id: ''
twist: 
  linear: 
    x: 0.5592281298969621
    y: 0.06745358144996709
    z: 0.0
  angular: 
    x: 0.0
    y: 0.0
    z: 0.0
---
header: 
  seq: 215
  stamp: 
    secs: 1722857986
    nsecs: 279131174
  frame_id: ''
twist: 
  linear: 
    x: 0.5592076122078605
    y: 0.06725381766332778
    z: 0.0
  angular: 
    x: 0.0
    y: 0.0
    z: 0.0
---
header: 
  seq: 216
  stamp: 
    secs: 1722857986
    nsecs: 293660402
  frame_id: ''
twist: 
  linear: 
    x: 0.5592087633960073
    y: 0.06722337585119789
    z: 0.0
  angular: 
    x: 0.0
    y: 0.0
    z: 0.0
---
header: 
  seq: 217
  stamp: 
    secs: 1722857986
    nsecs: 307156562
  frame_id: ''
twist: 
  linear: 
    x: 0.559194409177733
    y: 0.06705824281796244
    z: 0.0
  angular: 
    x: 0.0
    y: 0.0
    z: 0.0
---
header: 
  seq: 218
  stamp: 
    secs: 1722857986
    nsecs: 323494911
  frame_id: ''
twist: 
  linear: 
    x: 0.5592278521351498
    y: 0.06714915362427412
    z: 0.0
  angular: 
    x: 0.0
    y: 0.0
    z: 0.0
---
header: 
  seq: 219
  stamp: 
    secs: 1722857986
    nsecs: 394144296
  frame_id: ''
twist: 
  linear: 
    x: 0.5593072948571491
    y: 0.06647635982608989
    z: 0.0
  angular: 
    x: 0.0
    y: 0.0
    z: 0.0
---
header: 
  seq: 220
  stamp: 
    secs: 1722857986
    nsecs: 411340713
  frame_id: ''
twist: 
  linear: 
    x: 0.5592966627403028
    y: 0.0663574480335121
    z: 0.0
  angular: 
    x: 0.0
    y: 0.0
    z: 0.0
---
header: 
  seq: 221
  stamp: 
    secs: 1722857986
    nsecs: 432451009
  frame_id: ''
twist: 
  linear: 
    x: 0.5593182602249505
    y: 0.06632832306645138
    z: 0.0
  angular: 
    x: 0.0
    y: 0.0
    z: 0.0
---
header: 
  seq: 222
  stamp: 
    secs: 1722857986
    nsecs: 443169116
  frame_id: ''
twist: 
  linear: 
    x: 0.5593290758912723
    y: 0.06635256816356833
    z: 0.0
  angular: 
    x: 0.0
    y: 0.0
    z: 0.0
---
header: 
  seq: 223
  stamp: 
    secs: 1722857986
    nsecs: 450503110
  frame_id: ''
twist: 
  linear: 
    x: 0.5593043898013856
    y: 0.06613658184875418
    z: 0.0
  angular: 
    x: 0.0
    y: 0.0
    z: 0.0
---
header: 
  seq: 224
  stamp: 
    secs: 1722857986
    nsecs: 458465337
  frame_id: ''
twist: 
  linear: 
    x: 0.5593249645978747
    y: 0.06618287330563069
    z: 0.0
  angular: 
    x: 0.0
    y: 0.0
    z: 0.0
---
header: 
  seq: 225
  stamp: 
    secs: 1722857986
    nsecs: 466548919
  frame_id: ''
twist: 
  linear: 
    x: 0.5593280177280094
    y: 0.06614796183868372
    z: 0.0
  angular: 
    x: 0.0
    y: 0.0
    z: 0.0
---
header: 
  seq: 226
  stamp: 
    secs: 1722857986
    nsecs: 484768152
  frame_id: ''
twist: 
  linear: 
    x: 0.5593424099244435
    y: 0.06618725514142612
    z: 0.0
  angular: 
    x: 0.0
    y: 0.0
    z: 0.0
---
header: 
  seq: 227
  stamp: 
    secs: 1722857986
    nsecs: 502996206
  frame_id: ''
twist: 
  linear: 
    x: 0.5593397763748772
    y: 0.06611779015975056
    z: 0.0
  angular: 
    x: 0.0
    y: 0.0
    z: 0.0
---
header: 
  seq: 228
  stamp: 
    secs: 1722857986
    nsecs: 524529695
  frame_id: ''
twist: 
  linear: 
    x: 0.5593515960749681
    y: 0.06612439462459539
    z: 0.0
  angular: 
    x: 0.0
    y: 0.0
    z: 0.0
---
header: 
  seq: 229
  stamp: 
    secs: 1722857986
    nsecs: 548015356
  frame_id: ''
twist: 
  linear: 
    x: 0.5593528147018421
    y: 0.06609450782185626
    z: 0.0
  angular: 
    x: 0.0
    y: 0.0
    z: 0.0
---
header: 
  seq: 230
  stamp: 
    secs: 1722857986
    nsecs: 569435119
  frame_id: ''
twist: 
  linear: 
    x: 0.5593572129196114
    y: 0.06606420166052583
    z: 0.0
  angular: 
    x: 0.0
    y: 0.0
    z: 0.0
---
header: 
  seq: 231
  stamp: 
    secs: 1722857986
    nsecs: 601706743
  frame_id: ''
twist: 
  linear: 
    x: 0.5593435292628577
    y: 0.06593291010405165
    z: 0.0
  angular: 
    x: 0.0
    y: 0.0
    z: 0.0
---
header: 
  seq: 232
  stamp: 
    secs: 1722857986
    nsecs: 617718696
  frame_id: ''
twist: 
  linear: 
    x: 0.5593716289221965
    y: 0.06605973315450574
    z: 0.0
  angular: 
    x: 0.0
    y: 0.0
    z: 0.0
---
header: 
  seq: 233
  stamp: 
    secs: 1722857986
    nsecs: 637167215
  frame_id: ''
twist: 
  linear: 
    x: 0.5593877423961485
    y: 0.06609745126461103
    z: 0.0
  angular: 
    x: 0.0
    y: 0.0
    z: 0.0
---
header: 
  seq: 234
  stamp: 
    secs: 1722857986
    nsecs: 661955595
  frame_id: ''
twist: 
  linear: 
    x: 0.5593680177496879
    y: 0.06594453205438319
    z: 0.0
  angular: 
    x: 0.0
    y: 0.0
    z: 0.0
---
header: 
  seq: 235
  stamp: 
    secs: 1722857986
    nsecs: 686060190
  frame_id: ''
twist: 
  linear: 
    x: 0.5593954318931313
    y: 0.06557697486479859
    z: 0.0
  angular: 
    x: 0.0
    y: 0.0
    z: 0.0
---
header: 
  seq: 236
  stamp: 
    secs: 1722857986
    nsecs: 692645072
  frame_id: ''
twist: 
  linear: 
    x: 0.5593380843853831
    y: 0.06524235943579458
    z: 0.0
  angular: 
    x: 0.0
    y: 0.0
    z: 0.0
---
header: 
  seq: 237
  stamp: 
    secs: 1722857986
    nsecs: 701298952
  frame_id: ''
twist: 
  linear: 
    x: 0.5594070114538119
    y: 0.06566194963017326
    z: 0.0
  angular: 
    x: 0.0
    y: 0.0
    z: 0.0
---
header: 
  seq: 238
  stamp: 
    secs: 1722857986
    nsecs: 707323074
  frame_id: ''
twist: 
  linear: 
    x: 0.5593808525843542
    y: 0.06552173887982284
    z: 0.0
  angular: 
    x: 0.0
    y: 0.0
    z: 0.0
---
header: 
  seq: 239
  stamp: 
    secs: 1722857986
    nsecs: 725808143
  frame_id: ''
twist: 
  linear: 
    x: 0.5594175129515245
    y: 0.06574694212358975
    z: 0.0
  angular: 
    x: 0.0
    y: 0.0
    z: 0.0
---
header: 
  seq: 240
  stamp: 
    secs: 1722857986
    nsecs: 730881452
  frame_id: ''
twist: 
  linear: 
    x: 0.5594075575336043
    y: 0.06569188338257509
    z: 0.0
  angular: 
    x: 0.0
    y: 0.0
    z: 0.0
---
header: 
  seq: 241
  stamp: 
    secs: 1722857986
    nsecs: 741544485
  frame_id: ''
twist: 
  linear: 
    x: 0.5594239979609311
    y: 0.06581112306916351
    z: 0.0
  angular: 
    x: 0.0
    y: 0.0
    z: 0.0
---
header: 
  seq: 242
  stamp: 
    secs: 1722857986
    nsecs: 752252101
  frame_id: ''
twist: 
  linear: 
    x: 0.5594023139649267
    y: 0.0656987912815662
    z: 0.0
  angular: 
    x: 0.0
    y: 0.0
    z: 0.0
---
header: 
  seq: 243
  stamp: 
    secs: 1722857986
    nsecs: 760761260
  frame_id: ''
twist: 
  linear: 
    x: 0.5593752333250045
    y: 0.06554534052612171
    z: 0.0
  angular: 
    x: 0.0
    y: 0.0
    z: 0.0
---
header: 
  seq: 244
  stamp: 
    secs: 1722857986
    nsecs: 822993755
  frame_id: ''
twist: 
  linear: 
    x: 0.5595675658377197
    y: 0.06433527958539553
    z: 0.0
  angular: 
    x: 0.0
    y: 0.0
    z: 0.0
---
header: 
  seq: 245
  stamp: 
    secs: 1722857986
    nsecs: 843497276
  frame_id: ''
twist: 
  linear: 
    x: 0.55958633332214
    y: 0.0642478940903281
    z: 0.0
  angular: 
    x: 0.0
    y: 0.0
    z: 0.0
---
header: 
  seq: 246
  stamp: 
    secs: 1722857986
    nsecs: 867855548
  frame_id: ''
twist: 
  linear: 
    x: 0.5596496016465894
    y: 0.06435997531344455
    z: 0.0
  angular: 
    x: 0.0
    y: 0.0
    z: 0.0
---
header: 
  seq: 247
  stamp: 
    secs: 1722857986
    nsecs: 890007257
  frame_id: ''
twist: 
  linear: 
    x: 0.5596125988118126
    y: 0.06414976038867076
    z: 0.0
  angular: 
    x: 0.0
    y: 0.0
    z: 0.0
---
header: 
  seq: 248
  stamp: 
    secs: 1722857986
    nsecs: 918203830
  frame_id: ''
twist: 
  linear: 
    x: 0.559623061372855
    y: 0.06382830645269694
    z: 0.0
  angular: 
    x: 0.0
    y: 0.0
    z: 0.0
---
header: 
  seq: 249
  stamp: 
    secs: 1722857986
    nsecs: 935166835
  frame_id: ''
twist: 
  linear: 
    x: 0.5596528526722314
    y: 0.06389717842911874
    z: 0.0
  angular: 
    x: 0.0
    y: 0.0
    z: 0.0
---
header: 
  seq: 250
  stamp: 
    secs: 1722857986
    nsecs: 949801445
  frame_id: ''
twist: 
  linear: 
    x: 0.5596380956674792
    y: 0.06377756894023698
    z: 0.0
  angular: 
    x: 0.0
    y: 0.0
    z: 0.0
---
header: 
  seq: 251
  stamp: 
    secs: 1722857986
    nsecs: 986971616
  frame_id: ''
twist: 
  linear: 
    x: 0.559662697323549
    y: 0.06368578706704842
    z: 0.0
  angular: 
    x: 0.0
    y: 0.0
    z: 0.0
---
header: 
  seq: 252
  stamp: 
    secs: 1722857987
    nsecs:  43229579
  frame_id: ''
twist: 
  linear: 
    x: 0.5597443170576654
    y: 0.06346128299309664
    z: 0.0
  angular: 
    x: 0.0
    y: 0.0
    z: 0.0
---
header: 
  seq: 253
  stamp: 
    secs: 1722857987
    nsecs:  58146953
  frame_id: ''
twist: 
  linear: 
    x: 0.559769521146348
    y: 0.06350751203098182
    z: 0.0
  angular: 
    x: 0.0
    y: 0.0
    z: 0.0
---
header: 
  seq: 254
  stamp: 
    secs: 1722857987
    nsecs:  90488672
  frame_id: ''
twist: 
  linear: 
    x: 0.5598100912388589
    y: 0.06362263503643475
    z: 0.0
  angular: 
    x: 0.0
    y: 0.0
    z: 0.0
---
header: 
  seq: 255
  stamp: 
    secs: 1722857987
    nsecs: 117196083
  frame_id: ''
twist: 
  linear: 
    x: 0.5598191538645101
    y: 0.0636059330436658
    z: 0.0
  angular: 
    x: 0.0
    y: 0.0
    z: 0.0
---
header: 
  seq: 256
  stamp: 
    secs: 1722857987
    nsecs: 143837213
  frame_id: ''
twist: 
  linear: 
    x: 0.5596950426188174
    y: 0.06305751341069951
    z: 0.0
  angular: 
    x: 0.0
    y: 0.0
    z: 0.0
---
header: 
  seq: 257
  stamp: 
    secs: 1722857987
    nsecs: 170361757
  frame_id: ''
twist: 
  linear: 
    x: 0.5598013380952629
    y: 0.06343835461727927
    z: 0.0
  angular: 
    x: 0.0
    y: 0.0
    z: 0.0
---
header: 
  seq: 258
  stamp: 
    secs: 1722857987
    nsecs: 200222253
  frame_id: ''
twist: 
  linear: 
    x: 0.5597020460118909
    y: 0.06298882271581693
    z: 0.0
  angular: 
    x: 0.0
    y: 0.0
    z: 0.0
---
header: 
  seq: 259
  stamp: 
    secs: 1722857987
    nsecs: 212198257
  frame_id: ''
twist: 
  linear: 
    x: 0.5597745568298159
    y: 0.06323633581401812
    z: 0.0
  angular: 
    x: 0.0
    y: 0.0
    z: 0.0
---
header: 
  seq: 260
  stamp: 
    secs: 1722857987
    nsecs: 237298727
  frame_id: ''
twist: 
  linear: 
    x: 0.5597436599905685
    y: 0.06306193738386089
    z: 0.0
  angular: 
    x: 0.0
    y: 0.0
    z: 0.0
---
header: 
  seq: 261
  stamp: 
    secs: 1722857987
    nsecs: 270956516
  frame_id: ''
twist: 
  linear: 
    x: 0.5597845009660185
    y: 0.06318172137464992
    z: 0.0
  angular: 
    x: 0.0
    y: 0.0
    z: 0.0
---
header: 
  seq: 262
  stamp: 
    secs: 1722857987
    nsecs: 300346851
  frame_id: ''
twist: 
  linear: 
    x: 0.5598087012825529
    y: 0.0626105527437522
    z: 0.0
  angular: 
    x: 0.0
    y: 0.0
    z: 0.0
---
header: 
  seq: 263
  stamp: 
    secs: 1722857987
    nsecs: 318029165
  frame_id: ''
twist: 
  linear: 
    x: 0.5597953867650647
    y: 0.06255353691162976
    z: 0.0
  angular: 
    x: 0.0
    y: 0.0
    z: 0.0
---
header: 
  seq: 264
  stamp: 
    secs: 1722857987
    nsecs: 329515457
  frame_id: ''
twist: 
  linear: 
    x: 0.5597959914799985
    y: 0.06256861869421357
    z: 0.0
  angular: 
    x: 0.0
    y: 0.0
    z: 0.0
---
header: 
  seq: 265
  stamp: 
    secs: 1722857987
    nsecs: 346178293
  frame_id: ''
twist: 
  linear: 
    x: 0.5598303726831478
    y: 0.06270453730999143
    z: 0.0
  angular: 
    x: 0.0
    y: 0.0
    z: 0.0
---
header: 
  seq: 266
  stamp: 
    secs: 1722857987
    nsecs: 366997480
  frame_id: ''
twist: 
  linear: 
    x: 0.5598147736124167
    y: 0.0624969510011874
    z: 0.0
  angular: 
    x: 0.0
    y: 0.0
    z: 0.0
---
header: 
  seq: 267
  stamp: 
    secs: 1722857987
    nsecs: 383326292
  frame_id: ''
twist: 
  linear: 
    x: 0.5598100557031935
    y: 0.0624927858019628
    z: 0.0
  angular: 
    x: 0.0
    y: 0.0
    z: 0.0
---
header: 
  seq: 268
  stamp: 
    secs: 1722857987
    nsecs: 401047468
  frame_id: ''
twist: 
  linear: 
    x: 0.559860018983561
    y: 0.06268709009240524
    z: 0.0
  angular: 
    x: 0.0
    y: 0.0
    z: 0.0
---
header: 
  seq: 269
  stamp: 
    secs: 1722857987
    nsecs: 414349317
  frame_id: ''
twist: 
  linear: 
    x: 0.5598285397682776
    y: 0.06254443057951847
    z: 0.0
  angular: 
    x: 0.0
    y: 0.0
    z: 0.0
---
header: 
  seq: 270
  stamp: 
    secs: 1722857987
    nsecs: 423921108
  frame_id: ''
twist: 
  linear: 
    x: 0.5598299029269348
    y: 0.06254671459565185
    z: 0.0
  angular: 
    x: 0.0
    y: 0.0
    z: 0.0
---
header: 
  seq: 271
  stamp: 
    secs: 1722857987
    nsecs: 450178623
  frame_id: ''
twist: 
  linear: 
    x: 0.559813753345069
    y: 0.06251518870472594
    z: 0.0
  angular: 
    x: 0.0
    y: 0.0
    z: 0.0
---
header: 
  seq: 272
  stamp: 
    secs: 1722857987
    nsecs: 461641788
  frame_id: ''
twist: 
  linear: 
    x: 0.559851298359889
    y: 0.06266232827229411
    z: 0.0
  angular: 
    x: 0.0
    y: 0.0
    z: 0.0
---
header: 
  seq: 273
  stamp: 
    secs: 1722857987
    nsecs: 473029375
  frame_id: ''
twist: 
  linear: 
    x: 0.559819705076162
    y: 0.062493392764751785
    z: 0.0
  angular: 
    x: 0.0
    y: 0.0
    z: 0.0
---
header: 
  seq: 274
  stamp: 
    secs: 1722857987
    nsecs: 497945070
  frame_id: ''
twist: 
  linear: 
    x: 0.5597867208990744
    y: 0.06236764750164482
    z: 0.0
  angular: 
    x: 0.0
    y: 0.0
    z: 0.0
---
header: 
  seq: 275
  stamp: 
    secs: 1722857987
    nsecs: 514275312
  frame_id: ''
twist: 
  linear: 
    x: 0.5598088035995303
    y: 0.06250988287610112
    z: 0.0
  angular: 
